{"business_id":"QXAEGFB4oINsVuTFxEYKFQ","name":"Emerald Chinese Restaurant","address":"30 Eglinton Avenue W","city":"Mississauga","state":"ON","postal_code":"L5R 3E7","latitude":43.6054989743,"longitude":-79.652288909,"stars":2.5,"review_count":128,"is_open":1,"categories":"Specialty Food, Restaurants, Dim Sum, Imported Food, Food, Chinese, Ethnic Food, Seafood","hours":{"Friday":"9:0-1:0","Monday":"9:0-0:0","Saturday":"9:0-1:0","Sunday":"9:0-0:0","Thursday":"9:0-0:0","Tuesday":"9:0-0:0","Wednesday":"9:0-0:0"}}
{"business_id":"68dUKd8_8liJ7in4aWOSEA","name":"The UPS Store","address":"Credit Valley Town Plaza, F2 - 6045 Creditview Rd","city":"Mississauga","state":"ON","postal_code":"L5V 0B1","latitude":43.5994753,"longitude":-79.7115835,"stars":2.5,"review_count":3,"is_open":1,"categories":"Shipping Centers, Couriers & Delivery Services, Local Services, Printing Services","hours":{"Friday":"9:0-19:0","Monday":"9:0-19:0","Saturday":"10:0-16:0","Thursday":"9:0-20:0","Tuesday":"9:0-20:0","Wednesday":"9:0-20:0"}}
{"business_id":"5JucpCfHZltJh5r1JabjDg","name":"Edgeworxx Studio","address":"20 Douglas Woods Drive Southeast","city":"Calgary","state":"AB","postal_code":"T2Z 1K4","latitude":50.9436456,"longitude":-114.0018283,"stars":3.5,"review_count":7,"is_open":1,"categories":"Beauty & Spas, Hair Salons"}
{"business_id":"fcXOEZdXYeZqnQ3lGlOXmg","name":"Nucleus Information Service","address":"1210 8th Street SW, Unit 220","city":"Calgary","state":"AB","postal_code":"T2R 1L3","latitude":51.041771,"longitude":-114.081109,"stars":2.0,"review_count":5,"is_open":1,"categories":"Local Services, Professional Services, Computers, Shopping, Home Services, IT Services & Computer Repair, Internet Service Providers, Web Design","hours":{"Friday":"9:0-17:0","Monday":"9:0-17:0","Thursday":"9:0-17:0","Tuesday":"9:0-17:0","Wednesday":"9:0-17:0"}}
{"business_id":"A98xW4qb7vOTguggHFs7Ng","name":"Hot Yoga Wellness","address":"1455 16th Avenue","city":"Richmond Hill","state":"ON","postal_code":"L4B 3G6","latitude":43.861502576,"longitude":-79.3884991854,"stars":4.0,"review_count":4,"is_open":1,"categories":"Fitness & Instruction, Active Life, Yoga","hours":{"Friday":"16:0-21:30","Monday":"16:0-23:0","Saturday":"15:30-17:30","Sunday":"17:30-19:45","Thursday":"16:0-23:0","Tuesday":"16:0-23:0","Wednesday":"16:0-23:0"}}
{"business_id":"zSpQmEBvRe3IhTUlMSA6HQ","name":"Totum Life Science","address":"445 King Street W, Suite 101","city":"Toronto","state":"ON","postal_code":"M5V 1K4","latitude":43.6450415,"longitude":-79.3957986,"stars":4.0,"review_count":23,"is_open":1,"categories":"Trainers, Health & Medical, Active Life, Physical Therapy, Gyms, Fitness & Instruction","hours":{"Friday":"6:0-22:0","Monday":"6:0-22:0","Saturday":"8:0-18:0","Sunday":"9:0-18:0","Thursday":"6:0-22:0","Tuesday":"6:0-22:0","Wednesday":"6:0-22:0"}}
{"business_id":"C9oCPomVP0mtKa8z99E3gg","name":"Bakery Gateau","address":"865 York Mills Road, Unit 1","city":"Toronto","state":"ON","postal_code":"M3B 1Y6","latitude":43.7540931,"longitude":-79.3495479,"stars":4.5,"review_count":8,"is_open":1,"categories":"Bakeries, Food","hours":{"Friday":"9:0-20:0","Monday":"9:0-20:0","Saturday":"9:0-20:0","Sunday":"9:0-20:0","Thursday":"9:0-20:0","Tuesday":"9:0-20:0","Wednesday":"9:0-20:0"}}
{"business_id":"C9keC4mWuXdl2mYFHZXudQ","name":"Uncle Otis Clothing","address":"26 Bellair St","city":"Toronto","state":"ON","postal_code":"M5R 2C7","latitude":43.6707435,"longitude":-79.3913851,"stars":5.0,"review_count":12,"is_open":1,"categories":"Fashion, Sporting Goods, Men's Clothing, Shopping, Sports Wear","hours":{"Friday":"11:30-19:0","Monday":"11:30-19:0","Saturday":"11:30-18:0","Sunday":"12:0-17:0","Thursday":"11:30-19:0","Tuesday":"11:30-19:0","Wednesday":"11:30-19:0"}}
{"business_id":"NDuUMJfrWk52RA-H-OtrpA","name":"Bolt Fresh Bar","address":"1170 Queen Street W","city":"Toronto","state":"ON","postal_code":"M6J 1J5","latitude":43.6428886,"longitude":-79.4254291,"stars":3.0,"review_count":57,"is_open":1,"categories":"Juice Bars & Smoothies, Food, Restaurants, Fast Food, Vegan","hours":{"Friday":"8:0-21:0","Monday":"8:0-21:0","Saturday":"9:0-21:0","Sunday":"9:0-21:0","Thursday":"8:0-21:0","Tuesday":"8:0-21:0","Wednesday":"8:0-21:0"}}
{"business_id":"SP_YXIEwkFPPl_9anCYmpQ","name":"The Steady Cafe & Bar","address":"1051 Bloor Street W","city":"Toronto","state":"ON","postal_code":"M6H 1M4","latitude":43.6604937,"longitude":-79.432099,"stars":3.5,"review_count":29,"is_open":0,"categories":"Restaurants, Nightlife, Breakfast & Brunch, Vegan, Food, Tapas Bars, Bars, Southern, Coffee & Tea","hours":{"Friday":"9:0-2:0","Saturday":"10:0-2:0","Sunday":"10:0-15:0","Thursday":"9:0-18:0","Tuesday":"9:0-18:0","Wednesday":"9:0-18:0"}}
{"business_id":"Jff5hTK1ZMLKS06sOSNWdA","name":"Radisson Hotel & Conference Centre Calgary Airport","address":"6620 36 Street NE","city":"Calgary","state":"AB","postal_code":"T3J 4C8","latitude":51.1118915249,"longitude":-113.9804801532,"stars":3.5,"review_count":14,"is_open":1,"categories":"Hotels & Travel, Hotels, Event Planning & Services"}
{"business_id":"mlHC2XcU9Bows6cnYEmRgg","name":"Mad Crush Wine Bar","address":"582 College Street","city":"Toronto","state":"ON","postal_code":"M6G 1B3","latitude":43.6554201,"longitude":-79.4133518,"stars":4.0,"review_count":9,"is_open":0,"categories":"Restaurants, Breakfast & Brunch, Bars, Modern European, Nightlife, Wine Bars","hours":{"Friday":"18:0-2:0","Saturday":"18:0-2:0","Thursday":"18:0-2:0"}}
{"business_id":"cQ8FKduGfVskvi11NZXsAg","name":"Tomkins Park","address":"880 17 Avenue SW","city":"Calgary","state":"AB","postal_code":"T2T 0A2","latitude":51.0379943848,"longitude":-114.0813674927,"stars":3.5,"review_count":3,"is_open":1,"categories":"Parks, Active Life"}
{"business_id":"6l00a9Gkxkcp_y-GPjYBiw","name":"J's Fish & Chips","address":"17205 Leslie Street, Unit 2","city":"Newmarket","state":"ON","postal_code":"L3Y 8Y8","latitude":44.0587654,"longitude":-79.4291147,"stars":4.5,"review_count":12,"is_open":1,"categories":"Fish & Chips, Restaurants"}
{"business_id":"PkDghu4aan2_wxrhXjTEgg","name":"MiraKuru","address":"529-17th Avenue SW","city":"Calgary","state":"AB","postal_code":"T2S 0A9","latitude":51.0377777046,"longitude":-114.0733513906,"stars":3.5,"review_count":16,"is_open":0,"categories":"Nightlife, Italian, Restaurants, Japanese, Lounges, Bars","hours":{"Friday":"14:0-2:0","Saturday":"14:0-2:0","Sunday":"14:0-23:0","Thursday":"14:0-23:0","Tuesday":"14:0-23:0","Wednesday":"14:0-23:0"}}
{"business_id":"eXgDqKD7-sojyzh6q7PJ4g","name":"The Sweet Gallery","address":"350 Bering Avenue","city":"Etobicoke","state":"ON","postal_code":"M8Z 3A9","latitude":43.637329,"longitude":-79.5311665,"stars":4.0,"review_count":20,"is_open":1,"categories":"Sandwiches, Desserts, Custom Cakes, Bakeries, Patisserie/Cake Shop, Cafes, Restaurants, Food, Breakfast & Brunch, Coffee & Tea","hours":{"Friday":"8:0-18:0","Saturday":"8:0-18:0","Thursday":"8:0-18:0","Tuesday":"8:0-18:0","Wednesday":"8:0-18:0"}}
{"business_id":"i_oghUPqLzzJtxC6Zm-D2A","name":"Braseiro","address":"8261 Saint-Laurent Boulevard","city":"Montréal","state":"QC","postal_code":"H2P 2M1","latitude":45.5397329,"longitude":-73.633639,"stars":4.0,"review_count":22,"is_open":1,"categories":"Canadian (New), Portuguese, Restaurants","hours":{"Friday":"11:30-22:0","Monday":"11:30-21:0","Saturday":"11:30-22:0","Sunday":"11:30-21:0","Thursday":"11:30-22:0","Tuesday":"11:30-21:0","Wednesday":"11:30-21:0"}}
{"business_id":"RFbMVekR8lU9tPJ8sWrwHg","name":"Tavolino","address":"619 Mount Pleasant Road","city":"Toronto","state":"ON","postal_code":"M4S 2M5","latitude":43.7042291,"longitude":-79.3882299,"stars":4.0,"review_count":18,"is_open":1,"categories":"Italian, Restaurants"}
{"business_id":"735UkyT4px_oeW3iyotGmA","name":"Parc-nature de l'Île-de-la-Visitation","address":"2425 Boulevard Gouin E","city":"Montréal","state":"QC","postal_code":"H2B 1X7","latitude":45.5838977316,"longitude":-73.653777726,"stars":4.5,"review_count":10,"is_open":1,"categories":"Parks, Active Life","hours":{"Friday":"9:0-16:30","Monday":"9:0-16:30","Saturday":"9:0-18:0","Sunday":"9:0-18:0","Thursday":"9:0-16:30","Tuesday":"9:0-16:30","Wednesday":"9:0-16:30"}}
{"business_id":"HBQG_DT8pfbkv8jiv3P6Gw","name":"Winners","address":"3105 Highway 7","city":"Markham","state":"ON","postal_code":"L3R 0T9","latitude":43.847996581,"longitude":-79.3537330357,"stars":2.5,"review_count":8,"is_open":1,"categories":"Shopping, Discount Store","hours":{"Friday":"9:30-21:0","Monday":"9:30-21:0","Saturday":"9:30-19:0","Sunday":"11:0-20:0","Thursday":"9:30-21:0","Tuesday":"9:30-21:0","Wednesday":"9:30-21:0"}}
{"business_id":"DLaE25PS7bO9ar5rz-zRow","name":"Nice One Nails","address":"8 - 1525 Bristol Road","city":"Mississauga","state":"ON","postal_code":"L5M 4Z1","latitude":43.5861958135,"longitude":-79.6995425597,"stars":2.5,"review_count":3,"is_open":1,"categories":"Beauty & Spas, Nail Salons","hours":{"Friday":"9:30-20:0","Monday":"10:0-20:0","Saturday":"9:30-18:0","Sunday":"11:0-17:0","Thursday":"10:0-20:0","Tuesday":"10:0-20:0","Wednesday":"10:0-20:0"}}
{"business_id":"SWX0K1dpy4fcRq-ktZxmCg","name":"Bistro des Moulins","address":"10897 Rue du Pont","city":"Montréal","state":"QC","postal_code":"H2B 2H3","latitude":45.574857,"longitude":-73.66113,"stars":3.5,"review_count":3,"is_open":0,"categories":"Landmarks & Historical Buildings, Mediterranean, Public Services & Government, Restaurants","hours":{"Friday":"10:0-22:0","Monday":"10:0-22:0","Saturday":"10:0-22:0","Sunday":"10:0-22:0","Thursday":"10:0-22:0","Tuesday":"10:0-22:0","Wednesday":"10:0-22:0"}}
{"business_id":"NPHZkn1e-tSJAbo8Zm9rYw","name":"Burrito Bandidos","address":"1614 Queen Street E","city":"Toronto","state":"ON","postal_code":"M4L 1G4","latitude":43.6661812,"longitude":-79.3164682,"stars":3.5,"review_count":43,"is_open":1,"categories":"Tex-Mex, Mexican, Restaurants","hours":{"Friday":"11:0-23:0","Monday":"11:0-23:0","Saturday":"12:0-23:0","Sunday":"12:0-22:0","Thursday":"11:0-23:0","Tuesday":"11:0-23:0","Wednesday":"11:0-23:0"}}
{"business_id":"smkZUv_IeYYj_BA6-Po7oQ","name":"Fabulous Cakes and Confections Inc.","address":"4300 Steeles Avenue W, Unit 9","city":"Vaughan","state":"ON","postal_code":"L4L 4C2","latitude":43.7675451093,"longitude":-79.5617757296,"stars":3.5,"review_count":3,"is_open":1,"categories":"Bakeries, Food, Event Planning & Services, Desserts","hours":{"Friday":"12:0-17:0","Saturday":"12:0-17:0","Thursday":"12:0-17:0","Tuesday":"12:0-17:0","Wednesday":"12:0-17:0"}}
{"business_id":"jtlAfuINMCYVFpjwMgy2jw","name":"Medium Rare","address":"5241 Dundas Street W","city":"Toronto","state":"ON","postal_code":"M9B 1A5","latitude":43.6388793,"longitude":-79.5376319,"stars":4.0,"review_count":22,"is_open":0,"categories":"Grocery, Restaurants, Steakhouses, Butcher, Food","hours":{"Friday":"9:0-19:0","Saturday":"9:0-18:0","Sunday":"11:0-17:0","Thursday":"9:0-19:0","Tuesday":"9:0-18:0","Wednesday":"9:0-18:0"}}
{"business_id":"0-pC3IoaEK5gNVi2Sz6v7w","name":"Nail Nail","address":"360 Hwy 7  E","city":"Richmond Hill","state":"ON","postal_code":"L4B 3Y7","latitude":43.8417684,"longitude":-79.3968244,"stars":4.0,"review_count":7,"is_open":1,"categories":"Nail Salons, Beauty & Spas"}
{"business_id":"JAiZVIzhwKgPjncWUedCNQ","name":"Ogden Funeral Homes","address":"4164 Sheppard Avenue E","city":"Scarborough","state":"ON","postal_code":"M1S 1T3","latitude":43.7853769,"longitude":-79.2806654,"stars":3.5,"review_count":3,"is_open":1,"categories":"Funeral Services & Cemeteries, Local Services","hours":{"Friday":"9:0-21:0","Monday":"9:0-21:0","Saturday":"9:0-21:0","Sunday":"9:0-21:0","Thursday":"9:0-21:0","Tuesday":"9:0-21:0","Wednesday":"9:0-21:0"}}
{"business_id":"qJeSjOMgWB3er3UXG33ZVw","name":"Carl's Jr","address":"309 50 Avenue SW","city":"Calgary","state":"AB","postal_code":"T2S 1H3","latitude":51.0084601753,"longitude":-114.0687542984,"stars":3.5,"review_count":6,"is_open":1,"categories":"American (Traditional), Breakfast & Brunch, Restaurants, Burgers, Fast Food","hours":{"Friday":"10:30-23:0","Monday":"10:30-22:0","Saturday":"11:0-23:0","Sunday":"11:0-22:0","Thursday":"10:30-22:0","Tuesday":"10:30-22:0","Wednesday":"10:30-22:0"}}
{"business_id":"gyFYZV4b_9TxG1ulQNi0Ig","name":"Paramount Fine Foods","address":"165 East Liberty Street","city":"Toronto","state":"ON","postal_code":"M6K 3K4","latitude":43.6384423,"longitude":-79.4172366,"stars":2.0,"review_count":40,"is_open":1,"categories":"Middle Eastern, Restaurants, Salad, Breakfast & Brunch","hours":{"Friday":"10:0-23:0","Monday":"10:0-22:0","Saturday":"10:0-23:0","Sunday":"10:0-22:0","Thursday":"10:0-22:0","Tuesday":"10:0-22:0","Wednesday":"10:0-22:0"}}
{"business_id":"OezwOIJ0_62Mj8MLdkGRAw","name":"Aroma Espresso Bar","address":"105 The Pond Road","city":"Toronto","state":"ON","postal_code":"M3J 2S5","latitude":43.7698543376,"longitude":-79.5019328828,"stars":3.5,"review_count":6,"is_open":1,"categories":"Sandwiches, Cafes, Food, Restaurants, Coffee & Tea","hours":{"Friday":"7:0-23:0","Monday":"7:0-23:0","Saturday":"8:0-19:0","Sunday":"8:0-19:0","Thursday":"7:0-23:0","Tuesday":"7:0-23:0","Wednesday":"7:0-23:0"}}
{"business_id":"aql8K6zVoJDGRJ3P-IgtpQ","name":"Ume Fashion Sushi","address":"1732 Kingston Road","city":"Toronto","state":"ON","postal_code":"M1N 1S8","latitude":43.6927912,"longitude":-79.2626299,"stars":4.5,"review_count":25,"is_open":1,"categories":"Sushi Bars, Restaurants","hours":{"Friday":"11:0-22:0","Monday":"11:0-22:0","Saturday":"14:0-22:0","Sunday":"14:0-22:0","Thursday":"11:0-22:0","Tuesday":"11:0-22:0","Wednesday":"11:0-22:0"}}
{"business_id":"Kxbn0XLcCgQqmkdIkhuOeQ","name":"Not Your Mother","address":"1346 Queen Street, Unit 2","city":"Toronto","state":"ON","postal_code":"M6K 1L4","latitude":43.6417075708,"longitude":-79.432192035,"stars":4.0,"review_count":8,"is_open":1,"categories":"Desserts, Ice Cream & Frozen Yogurt, Food, Restaurants, Vegan","hours":{"Friday":"12:0-23:0","Monday":"12:0-23:0","Saturday":"12:0-23:0","Sunday":"12:0-23:0","Thursday":"12:0-23:0","Tuesday":"12:0-23:0","Wednesday":"12:0-23:0"}}
{"business_id":"iedsG4rv8SYY22kGUVDjaw","name":"Southdown Chiropractic & Wellness","address":"1494 Southdown Road","city":"Mississauga","state":"ON","postal_code":"L5J 2Z4","latitude":43.5204101,"longitude":-79.6433145,"stars":4.0,"review_count":5,"is_open":1,"categories":"Chiropractors, Health & Medical","hours":{"Monday":"9:0-19:0","Saturday":"9:0-14:0","Thursday":"11:0-19:0","Tuesday":"9:0-14:0","Wednesday":"9:0-19:0"}}
{"business_id":"1HRSElW1HgBiTtSNrhjMeA","name":"Fine Asian Bowl","address":"1634 Bayview Ave","city":"Toronto","state":"ON","postal_code":"M4G 3B7","latitude":43.7066913,"longitude":-79.3758028,"stars":2.0,"review_count":4,"is_open":0,"categories":"Restaurants, Vietnamese"}
{"business_id":"mruax-1iDdb8GlAKwLy8JQ","name":"Hotel Indigo Toronto Airport","address":"135 Carlingview Drive","city":"Toronto","state":"ON","postal_code":"M9W 5E7","latitude":43.6789005,"longitude":-79.5914878,"stars":3.0,"review_count":15,"is_open":0,"categories":"Airports, Hotels, Event Planning & Services, Hotels & Travel, Venues & Event Spaces"}
{"business_id":"la2-RM1eWKmb0kFYwZVr_Q","name":"Pitlane Auto Corp","address":"57 Toro Road","city":"North York","state":"ON","postal_code":"M3J 2A4","latitude":43.7605457,"longitude":-79.4846618,"stars":5.0,"review_count":3,"is_open":1,"categories":"Auto Detailing, Car Wash, Body Shops, Automotive, Auto Repair, Auto Glass Services","hours":{"Friday":"10:0-18:0","Monday":"9:30-18:0","Saturday":"10:0-17:30","Thursday":"9:30-18:0","Tuesday":"9:30-18:0","Wednesday":"9:30-18:0"}}
{"business_id":"WlArCYe6xCzOe5u2Lt1how","name":"Domino's Pizza","address":"3843 Bloor Street W","city":"Etobicoke","state":"ON","postal_code":"M9B 1K9","latitude":43.6406266,"longitude":-79.5389165,"stars":3.0,"review_count":5,"is_open":1,"categories":"Pizza, Caterers, Restaurants, Event Planning & Services","hours":{"Friday":"11:0-2:0","Monday":"11:0-0:0","Saturday":"11:0-2:0","Sunday":"11:0-0:0","Thursday":"11:0-1:0","Tuesday":"11:0-0:0","Wednesday":"11:0-0:0"}}
{"business_id":"c35qzLN6ItDpVIoj2uQW4Q","name":"Ravi Soups","address":"322 Adelaide Street W","city":"Toronto","state":"ON","postal_code":"M5V 1R1","latitude":43.6475853,"longitude":-79.3920316,"stars":4.5,"review_count":332,"is_open":1,"categories":"Soup, Restaurants, Sandwiches","hours":{"Friday":"11:0-22:0","Monday":"11:0-22:0","Saturday":"11:0-22:0","Sunday":"11:0-20:0","Thursday":"11:0-22:0","Tuesday":"11:0-22:0","Wednesday":"11:0-22:0"}}
{"business_id":"jwHtNvHBPafiAwM92jM8yA","name":"Little Caesars Pizza","address":"2277 10th Line, Suite 3","city":"Whitchurch-Stouffville","state":"ON","postal_code":"L4A 6B6","latitude":43.9994281,"longitude":-79.2368879,"stars":4.0,"review_count":3,"is_open":1,"categories":"Restaurants, Pizza"}
{"business_id":"kGal388xLnmCwI4mw2TG8Q","name":"J-C Foodland","address":"270 Wellington Street W","city":"Toronto","state":"ON","postal_code":"M5V 3P5","latitude":43.644895,"longitude":-79.391717,"stars":3.0,"review_count":7,"is_open":1,"categories":"Food, Grocery, Convenience Stores","hours":{"Friday":"7:30-1:0","Monday":"7:30-0:0","Saturday":"8:0-1:0","Sunday":"8:0-0:0","Thursday":"7:30-0:0","Tuesday":"7:30-0:0","Wednesday":"7:30-0:0"}}
{"business_id":"SvUvVEr9cTjS-PJQ9MuckQ","name":"Caffeine","address":"1448 Lawrence Avenue E","city":"Toronto","state":"ON","postal_code":"M4A 2S6","latitude":43.742555,"longitude":-79.314252,"stars":4.5,"review_count":30,"is_open":1,"categories":"Restaurants, Breakfast & Brunch, Sandwiches, Food, Coffee & Tea","hours":{"Friday":"7:30-18:0","Monday":"0:0-0:0","Saturday":"8:0-18:0","Sunday":"9:0-16:0","Thursday":"7:30-18:0","Tuesday":"8:30-14:0","Wednesday":"7:30-18:0"}}
{"business_id":"RZ48zp2J2SWUy-lZ4PHZrw","name":"Sanagan's Meat Locker","address":"1513 Gerrard Street E","city":"Toronto","state":"ON","postal_code":"M4L 2A4","latitude":43.6727211,"longitude":-79.3195719,"stars":5.0,"review_count":3,"is_open":1,"categories":"Meat Shops, Food, Specialty Food","hours":{"Friday":"11:0-19:0","Monday":"11:0-19:0","Saturday":"9:0-18:0","Sunday":"11:0-17:0","Thursday":"11:0-19:0","Tuesday":"11:0-19:0","Wednesday":"11:0-19:0"}}
{"business_id":"IgQ8lSds3AgLFQsYsshUHQ","name":"Gourmet Gringos","address":"1921 Queen Street E","city":"Toronto","state":"ON","postal_code":"M4L 1H3","latitude":43.6690438622,"longitude":-79.3044535463,"stars":3.5,"review_count":29,"is_open":0,"categories":"Restaurants, Mexican, Ethnic Food, Specialty Food, Food"}
{"business_id":"spi9UEWyNrq2O4y5DD84LA","name":"Restaurant Nhu Y","address":"134 Rue Jean-Talon O","city":"Montréal","state":"QC","postal_code":"H2R 2X1","latitude":45.5331108,"longitude":-73.6195176,"stars":4.0,"review_count":11,"is_open":0,"categories":"Vietnamese, Restaurants, Soup","hours":{"Friday":"17:0-20:0","Monday":"11:0-14:0","Saturday":"17:0-20:0","Sunday":"17:0-20:0","Thursday":"17:0-20:0","Tuesday":"11:0-14:0","Wednesday":"17:0-20:0"}}
{"business_id":"_FrJLtITs2p8SeOJdSpsQQ","name":"Spectacle","address":"3342 Yonge Street","city":"Toronto","state":"ON","postal_code":"M4N 2M7","latitude":43.7317679,"longitude":-79.4039785,"stars":3.5,"review_count":3,"is_open":1,"categories":"Eyewear & Opticians, Shopping","hours":{"Friday":"10:0-18:0","Monday":"10:0-18:0","Saturday":"10:0-18:0","Thursday":"10:0-19:0","Tuesday":"10:0-18:0","Wednesday":"10:0-18:0"}}
{"business_id":"SJBzyJDCR_f6dx5tpYAABA","name":"Kibo Sushi House","address":"2945 Lake Shore Boulevard","city":"Toronto","state":"ON","postal_code":"M8V 1J5","latitude":43.6005226,"longitude":-79.5055159,"stars":4.0,"review_count":15,"is_open":1,"categories":"Sushi Bars, Japanese, Restaurants","hours":{"Friday":"11:30-22:0","Monday":"16:0-22:0","Saturday":"11:30-22:0","Sunday":"16:0-22:0","Thursday":"11:30-22:0","Tuesday":"11:30-22:0","Wednesday":"11:30-22:0"}}
{"business_id":"i6hWP3si97eKQl_JyK8L3w","name":"Hilton Toronto","address":"145 Richmond Street W","city":"Toronto","state":"ON","postal_code":"M5H 2L2","latitude":43.6496117,"longitude":-79.3854472,"stars":3.5,"review_count":131,"is_open":1,"categories":"Hotels, Event Planning & Services, Hotels & Travel","hours":{"Friday":"0:0-0:0","Monday":"0:0-0:0","Saturday":"0:0-0:0","Sunday":"0:0-0:0","Thursday":"0:0-0:0","Tuesday":"0:0-0:0","Wednesday":"0:0-0:0"}}
{"business_id":"111d13yLgIdqvpZekgVnbQ","name":"Pallucci","address":"523 Mount Pleasant Road","city":"Toronto","state":"ON","postal_code":"M4S 2M4","latitude":43.7021058,"longitude":-79.3874711,"stars":3.0,"review_count":5,"is_open":0,"categories":"Restaurants, Caterers, Italian, Event Planning & Services","hours":{"Friday":"12:0-22:0","Saturday":"17:0-22:0","Thursday":"12:0-22:0","Tuesday":"17:0-22:0","Wednesday":"17:0-22:0"}}
{"business_id":"cBQDYO0dIpG6--I3DMiWoQ","name":"Secrets de Femme","address":"5411 rue Beaubien E","city":"Montréal","state":"QC","postal_code":"H1T 1W7","latitude":45.575935,"longitude":-73.568558,"stars":1.0,"review_count":3,"is_open":1,"categories":"Hair Removal, Beauty & Spas, Shopping, Laser Hair Removal, Cosmetics & Beauty Supply","hours":{"Friday":"10:0-21:0","Saturday":"10:0-18:0","Thursday":"10:0-21:0","Tuesday":"10:0-18:0","Wednesday":"10:0-18:0"}}
{"business_id":"6aOnrzf15RMqFNOQ-_ElIA","name":"COCO Crafted Organic Chocolate","address":"365 Jane Street","city":"Toronto","state":"ON","postal_code":"M6S 2E2","latitude":43.6575995,"longitude":-79.4876834,"stars":5.0,"review_count":15,"is_open":1,"categories":"Chocolatiers & Shops, Specialty Food, Ice Cream & Frozen Yogurt, Desserts, Food","hours":{"Friday":"10:0-18:0","Monday":"0:0-0:0","Saturday":"10:0-18:0","Sunday":"12:0-17:0","Thursday":"10:0-18:0","Tuesday":"10:0-18:0","Wednesday":"10:0-18:0"}}
{"business_id":"v8zKjH1o_qAI4SBd3na7gg","name":"Barbie's","address":"580 boulevard Saint-Martin Ouest","city":"Laval","state":"QC","postal_code":"H7M 3Y2","latitude":45.5751900233,"longitude":-73.7133273778,"stars":3.0,"review_count":13,"is_open":1,"categories":"Restaurants, Canadian (New)","hours":{"Friday":"11:0-23:0","Monday":"11:0-22:0","Saturday":"11:0-23:0","Sunday":"8:0-22:0","Thursday":"11:0-22:0","Tuesday":"11:0-22:0","Wednesday":"11:0-22:0"}}
{"business_id":"aGdyRoDCn6Z9_j2vIvnKNw","name":"Phil's Restaurants","address":"3210 17 Avenue SE","city":"Calgary","state":"AB","postal_code":"T2A 0P9","latitude":51.0381747,"longitude":-113.9892355,"stars":3.5,"review_count":3,"is_open":1,"categories":"Breakfast & Brunch, Diners, Restaurants, Coffee & Tea, Food","hours":{"Friday":"7:0-20:0","Monday":"7:0-20:0","Saturday":"7:0-20:0","Sunday":"7:0-20:0","Thursday":"7:0-20:0","Tuesday":"7:0-20:0","Wednesday":"7:0-20:0"}}
{"business_id":"rVBPQdeayMYht4Uv_FOLHg","name":"Gourmet Burger Company","address":"843 Kipling Avenue","city":"Toronto","state":"ON","postal_code":"M8Z 5G9","latitude":43.6332914,"longitude":-79.5317683,"stars":3.0,"review_count":13,"is_open":0,"categories":"Burgers, Food, Restaurants"}
{"business_id":"W7QOR9r7mm6ak3DURkSwxg","name":"Sandman Hotel & Suites Calgary West","address":"125 Bowridge Dr NW","city":"Calgary","state":"AB","postal_code":"T3B 3R6","latitude":51.0852732,"longitude":-114.2089817,"stars":3.0,"review_count":8,"is_open":1,"categories":"Hotels, Hotels & Travel, Event Planning & Services"}
{"business_id":"d9ftOq9cPFsicPSasP-IRw","name":"Big Boy's Burgers","address":"705 Kingston Road","city":"Pickering","state":"ON","postal_code":"L1V 6K3","latitude":43.8195876,"longitude":-79.1138711,"stars":4.0,"review_count":14,"is_open":1,"categories":"Restaurants, Burgers","hours":{"Friday":"11:0-22:0","Monday":"11:0-21:0","Saturday":"11:0-22:0","Thursday":"11:0-22:0","Tuesday":"11:0-21:0","Wednesday":"11:0-21:0"}}
{"business_id":"jqOwxL3g8ZIagujompYALw","name":"Jim le Barbier","address":"1452 Rue Cunard","city":"Laval","state":"QC","postal_code":"H7S 2B7","latitude":45.5814235272,"longitude":-73.7331728194,"stars":4.5,"review_count":5,"is_open":1,"categories":"Barbers, Beauty & Spas, Hair Salons, Tattoo","hours":{"Friday":"10:0-20:0","Monday":"10:0-20:0","Saturday":"9:0-18:0","Sunday":"11:0-17:0","Thursday":"10:0-20:0","Tuesday":"10:0-20:0","Wednesday":"10:0-20:0"}}
{"business_id":"VA232TY-ThR8L5wjuuLZVg","name":"Sofra Mediterranean Cuisine","address":"380 Tower Hill Road, Units 23-24-25","city":"Richmond Hill","state":"ON","postal_code":"L4E 0T8","latitude":43.9137233065,"longitude":-79.4738390741,"stars":3.0,"review_count":33,"is_open":1,"categories":"Mediterranean, Restaurants, Middle Eastern, Turkish","hours":{"Friday":"11:0-22:0","Monday":"11:0-22:0","Saturday":"11:0-22:0","Sunday":"11:0-22:0","Thursday":"11:0-22:0","Tuesday":"11:0-22:0","Wednesday":"11:0-22:0"}}
{"business_id":"NqpX1HsFVGwmnxnw_bcEuA","name":"Aux Derniers Humains","address":"6950 Rue Saint-Denis","city":"Montréal","state":"QC","postal_code":"H2S 2S4","latitude":45.5370914,"longitude":-73.6121815,"stars":4.0,"review_count":8,"is_open":0,"categories":"Restaurants, American (Traditional)"}
{"business_id":"NX88XnZQOVbaSVj1exilLA","name":"Sacred Seed","address":"624 Yonge Street","city":"Toronto","state":"ON","postal_code":"M4Y 1Z8","latitude":43.6662194,"longitude":-79.3852539,"stars":2.0,"review_count":3,"is_open":1,"categories":"Specialty Food, Food, Herbs & Spices","hours":{"Friday":"12:0-20:0","Monday":"12:0-19:0","Saturday":"12:0-20:0","Sunday":"12:0-19:0","Thursday":"12:0-20:0","Tuesday":"12:0-19:0","Wednesday":"12:0-19:0"}}
{"business_id":"0YkNypUMDoIklcgoGYioMg","name":"Teatro Verde","address":"136 Yorkville Avenue","city":"Toronto","state":"ON","postal_code":"M5R 3R9","latitude":43.670662,"longitude":-79.3940743,"stars":3.5,"review_count":12,"is_open":1,"categories":"Florists, Flowers & Gifts, Baby Gear & Furniture, Home & Garden, Shopping","hours":{"Friday":"10:0-18:0","Monday":"10:0-18:0","Saturday":"10:0-18:0","Sunday":"12:0-17:0","Thursday":"10:0-19:0","Tuesday":"10:0-18:0","Wednesday":"10:0-18:0"}}
{"business_id":"3E0JDI0XMUoFztoEmX2D7w","name":"Le Record","address":"7622 Rue Saint-Hubert","city":"Montréal","state":"QC","postal_code":"H2R 2N6","latitude":45.543774,"longitude":-73.620155,"stars":3.5,"review_count":3,"is_open":1,"categories":"Nightlife, Bars","hours":{"Friday":"16:0-3:0","Monday":"16:0-3:0","Saturday":"16:0-3:0","Sunday":"16:0-3:0","Thursday":"16:0-3:0","Tuesday":"16:0-3:0","Wednesday":"16:0-3:0"}}
{"business_id":"YOhtdvjmveAtsblep0CQrg","name":"Moksha Yoga Markham","address":"5051 Highway 7, Suiite 2","city":"Markham","state":"ON","postal_code":"L3R 1N3","latitude":43.8652616,"longitude":-79.2894207,"stars":4.0,"review_count":23,"is_open":1,"categories":"Fitness & Instruction, Yoga, Education, Active Life, Specialty Schools","hours":{"Friday":"16:0-22:0","Monday":"16:0-23:0","Saturday":"9:30-15:30","Sunday":"9:30-15:30","Thursday":"16:30-23:0","Tuesday":"16:30-23:0","Wednesday":"16:0-23:0"}}
{"business_id":"TTVwcuc1Nz4ZSZH4wnbxKQ","name":"Piazza Manna","address":"5650 Yonge Street","city":"North York","state":"ON","postal_code":"M2M 4G3","latitude":43.7801785,"longitude":-79.416408,"stars":3.5,"review_count":3,"is_open":1,"categories":"Sandwiches, Restaurants, Pizza, Salad","hours":{"Friday":"11:0-17:0","Monday":"11:0-17:0","Thursday":"11:0-17:0","Tuesday":"11:0-17:0","Wednesday":"11:0-17:0"}}
{"business_id":"sRLczTc6OHuttVSanRfHaw","name":"Wendy's","address":"2400 Dundas Street W","city":"Mississauga","state":"ON","postal_code":"L5K 2R8","latitude":43.5283821484,"longitude":-79.6750115673,"stars":3.5,"review_count":7,"is_open":1,"categories":"Restaurants, Burgers, Fast Food","hours":{"Friday":"10:30-1:0","Monday":"10:30-1:0","Saturday":"10:30-1:0","Sunday":"10:30-1:0","Thursday":"10:30-1:0","Tuesday":"10:30-1:0","Wednesday":"10:30-1:0"}}
{"business_id":"4Rp1y8L_zecjHt6AvKtekg","name":"Factory","address":"3435 Boulevard St-Laurent","city":"Montréal","state":"QC","postal_code":"H2X 1C2","latitude":45.5128836,"longitude":-73.5699696,"stars":2.5,"review_count":3,"is_open":1,"categories":"Cajun/Creole, Restaurants"}
{"business_id":"tWjfgVtTD5n01Cq9dFWGsA","name":"Cibo","address":"1012 17 Avenue SW","city":"Calgary","state":"AB","postal_code":"T2T 0A5","latitude":51.0380869,"longitude":-114.0849675,"stars":3.5,"review_count":185,"is_open":1,"categories":"Italian, Canadian (New), Food, American (New), Restaurants","hours":{"Friday":"11:0-23:0","Monday":"0:0-0:0","Saturday":"11:0-23:0","Sunday":"11:0-0:0","Thursday":"11:0-22:0","Tuesday":"11:0-22:0","Wednesday":"11:0-22:0"}}
{"business_id":"CxRBRrtd7NHz890gWPG9AA","name":"La Casa d'Italia Ristorante","address":"2820 Centre St NE","city":"Calgary","state":"AB","postal_code":"T2E 2V8","latitude":51.0778425,"longitude":-114.0625209,"stars":4.0,"review_count":4,"is_open":0,"categories":"Italian, Restaurants, Event Planning & Services, Caterers","hours":{"Friday":"17:0-22:30","Saturday":"17:0-22:30","Thursday":"17:0-22:0","Tuesday":"17:0-22:0","Wednesday":"17:0-22:0"}}
{"business_id":"jZ23B--fu21is2zrWiy4Kg","name":"Parker Pet Care","address":"68 Floral Parkway","city":"North York","state":"ON","postal_code":"M6L 2B9","latitude":43.7229631591,"longitude":-79.4749474525,"stars":4.0,"review_count":18,"is_open":1,"categories":"Pet Groomers, Pets, Pet Sitting, Pet Services","hours":{"Friday":"7:0-19:0","Monday":"7:0-19:0","Saturday":"8:0-16:0","Sunday":"10:0-18:0","Thursday":"7:0-19:0","Tuesday":"7:0-19:0","Wednesday":"7:0-19:0"}}
{"business_id":"W3VBN9rTCG0iyAZSafKZ3w","name":"Rocky Mountain Chocolate Factory","address":"100 City Centre Drive","city":"Mississauga","state":"ON","postal_code":"L5B 2C9","latitude":43.5930784,"longitude":-79.6424911,"stars":4.0,"review_count":5,"is_open":1,"categories":"Desserts, Food, Chocolatiers & Shops, Specialty Food"}
{"business_id":"fFKbj19pBWMQosCn9qsTdw","name":"Lebel & Crowe","address":"1491 Dundas Street W","city":"Toronto","state":"ON","postal_code":"M6K 1T6","latitude":43.6494249,"longitude":-79.4316426,"stars":5.0,"review_count":3,"is_open":1,"categories":"Beauty & Spas, Hair Salons","hours":{"Friday":"11:0-20:0","Saturday":"10:0-18:0","Thursday":"11:0-20:0","Tuesday":"11:0-20:0","Wednesday":"11:0-20:0"}}
{"business_id":"AXq8uPxqBP-c5PCrnba-4A","name":"Mexico Lindo","address":"971 O'Connor Drive","city":"Toronto","state":"ON","postal_code":"M4K 1T1","latitude":43.7083547605,"longitude":-79.3101267401,"stars":4.5,"review_count":6,"is_open":1,"categories":"Mexican, Restaurants","hours":{"Friday":"11:0-21:0","Monday":"15:0-21:0","Saturday":"12:0-21:0","Sunday":"15:0-21:0","Thursday":"11:0-21:0","Tuesday":"11:0-21:0","Wednesday":"11:0-21:0"}}
{"business_id":"iyPtSR0s6EkvaQFbdJ_jVA","name":"Pearl King","address":"291 King Street W","city":"Toronto","state":"ON","postal_code":"M5V 1J5","latitude":43.6464782,"longitude":-79.3900189,"stars":2.5,"review_count":72,"is_open":0,"categories":"Dim Sum, Chinese, Tapas/Small Plates, Restaurants","hours":{"Friday":"11:30-22:30","Monday":"11:30-22:30","Saturday":"11:30-22:30","Sunday":"11:30-22:30","Thursday":"11:30-22:30","Tuesday":"11:30-22:30","Wednesday":"11:30-22:30"}}
{"business_id":"Hj8gh-0IH739-ZhqUQn_Lg","name":"Ricky's All Day Grill","address":"14-252 Aviation Boulevard NE","city":"Calgary","state":"AB","postal_code":"T2E 5T1","latitude":51.0972241226,"longitude":-114.0322342038,"stars":4.0,"review_count":12,"is_open":1,"categories":"Breakfast & Brunch, Restaurants, Canadian (New), Diners","hours":{"Friday":"7:0-21:0","Monday":"7:0-21:0","Saturday":"7:0-21:0","Sunday":"8:0-20:0","Thursday":"7:0-21:0","Tuesday":"7:0-21:0","Wednesday":"7:0-21:0"}}
{"business_id":"pUihHVilZtpZz4FApnOvtA","name":"Mr Combo","address":"568 Sheppard Avenue W","city":"North York","state":"ON","postal_code":"M3H 2R9","latitude":43.755557,"longitude":-79.4377948,"stars":4.0,"review_count":15,"is_open":0,"categories":"Restaurants, Middle Eastern"}
{"business_id":"9uhXxFrTR58KVD5fq1ua3Q","name":"Jerry Ferrer","address":"2 Rue Sherbrooke E","city":"Montréal","state":"QC","postal_code":"H2X 1C2","latitude":45.512532975,"longitude":-73.5692959126,"stars":4.0,"review_count":10,"is_open":0,"categories":"Restaurants, Burgers, Poutineries, Canadian (New)"}
{"business_id":"1sVIau1rvgec3ul6g7EJag","name":"Supermobile","address":"E69 - 4300 Steeles Avenue E","city":"Markham","state":"ON","postal_code":"L3R 0Y5","latitude":43.8250037,"longitude":-79.3058147,"stars":4.0,"review_count":3,"is_open":1,"categories":"Mobile Phones, Shopping"}
{"business_id":"TWa07Bllw_jfI2Y2Lry9DQ","name":"Woody's Barbq","address":"920 36 Street NE, Unit 120","city":"Calgary","state":"AB","postal_code":"T2A 6L8","latitude":51.0601777,"longitude":-113.9810304,"stars":3.5,"review_count":6,"is_open":0,"categories":"Sandwiches, Restaurants, Barbeque, Salad","hours":{"Friday":"11:0-23:0","Monday":"11:0-22:0","Saturday":"11:0-23:0","Sunday":"11:0-22:0","Thursday":"11:0-22:0","Tuesday":"11:0-22:0","Wednesday":"11:0-22:0"}}
{"business_id":"F3c8UkGPBEkhvTItCxp7jw","name":"Hercules Moving","address":"1008 Magnetic Drive","city":"North York","state":"ON","postal_code":"M3J 2C4","latitude":43.7828122,"longitude":-79.4783174,"stars":1.5,"review_count":3,"is_open":1,"categories":"Musical Instrument Services, Movers, Local Services, Self Storage, Piano Services, Home Services","hours":{"Friday":"8:0-20:0","Monday":"8:0-20:0","Saturday":"8:0-20:0","Sunday":"8:0-20:0","Thursday":"8:0-20:0","Tuesday":"8:0-20:0","Wednesday":"8:0-20:0"}}
{"business_id":"vdKUDXI1j89VO65Krg6VGg","name":"Porter FBO @ Toronto City Billy Bishop Airport","address":"2 Eireann Quay","city":"Toronto","state":"ON","postal_code":"M5V 1A1","latitude":43.6318142,"longitude":-79.3978481,"stars":4.0,"review_count":4,"is_open":1,"categories":"Flight Instruction, Education, Hotels & Travel, Transportation, Specialty Schools, Airlines"}
{"business_id":"OGTcFgRhPhj2GqUEyAi_eA","name":"Escape2gether","address":"C6, 416 Meridian Road SE","city":"Calgary","state":"AB","postal_code":"T2A 1X2","latitude":51.0498665,"longitude":-113.9996173,"stars":2.5,"review_count":3,"is_open":1,"categories":"Event Planning & Services, Venues & Event Spaces","hours":{"Friday":"14:0-0:0","Monday":"16:30-22:0","Saturday":"11:0-0:0","Sunday":"11:0-23:0","Thursday":"16:30-22:0","Tuesday":"16:30-22:0","Wednesday":"16:30-22:0"}}
{"business_id":"5GXKxdlJQOrmoPe0GXzJNA","name":"Jardin Tiki","address":"5300 rue Sherbrooke E","city":"Montréal","state":"QC","postal_code":"H1V 1A1","latitude":45.5679434,"longitude":-73.5526664,"stars":2.5,"review_count":8,"is_open":0,"categories":"Local Flavor, Chinese, Nightlife, Restaurants, Bars, Buffets, Asian Fusion","hours":{"Friday":"11:30-23:0","Monday":"11:30-21:0","Saturday":"11:30-23:0","Sunday":"11:30-21:0","Thursday":"11:30-21:0","Tuesday":"11:30-21:0","Wednesday":"11:30-21:0"}}
{"business_id":"Tuu_B0QGo7SQUuXW_Nd4hg","name":"Pizza Pan","address":"1822 Saint Clair Avenue W","city":"Toronto","state":"ON","postal_code":"M6N 1J5","latitude":43.6738288,"longitude":-79.4627354,"stars":3.0,"review_count":9,"is_open":1,"categories":"Middle Eastern, Pizza, Sandwiches, Chicken Wings, Restaurants","hours":{"Friday":"11:0-1:0","Monday":"11:0-23:0","Saturday":"11:0-1:0","Sunday":"11:0-23:0","Thursday":"11:0-23:0","Tuesday":"11:0-23:0","Wednesday":"11:0-23:0"}}
{"business_id":"bIzxwD9L56Gza6swL4eoJQ","name":"Costco Gasoline","address":"50 Queen Elizabeth Boulevard","city":"Toronto","state":"ON","postal_code":"M8Z 1M1","latitude":43.6244010582,"longitude":-79.5076444992,"stars":3.5,"review_count":7,"is_open":1,"categories":"Automotive, Gas Stations","hours":{"Friday":"6:30-21:30","Monday":"6:30-21:30","Saturday":"6:30-19:0","Sunday":"6:30-18:0","Thursday":"6:30-21:30","Tuesday":"6:30-21:30","Wednesday":"6:30-21:30"}}
{"business_id":"yxAw_NtCqtvFPXGq4C1f5A","name":"The Cedar Kitchen","address":"5 Queen Street S","city":"Tottenham","state":"ON","postal_code":"L0G 1W0","latitude":44.0222525,"longitude":-79.8054496,"stars":4.0,"review_count":12,"is_open":1,"categories":"Restaurants"}
{"business_id":"6gorEMxDpiCTUmLXI5DCoQ","name":"Tandoori Xpress","address":"220 Boulevard de la Concorde E","city":"Laval","state":"QC","postal_code":"H7G 2E1","latitude":45.576182,"longitude":-73.683505,"stars":2.5,"review_count":8,"is_open":1,"categories":"Restaurants, Vegetarian, Pakistani, Middle Eastern, Indian","hours":{"Friday":"11:0-22:0","Monday":"11:0-22:0","Saturday":"16:0-22:0","Sunday":"16:0-21:0","Thursday":"11:0-22:0","Tuesday":"11:0-22:0","Wednesday":"11:0-22:0"}}
{"business_id":"eJMbAEvDNyet8_MmaVPsmA","name":"Ongles Spa St-Laurent","address":"3878 Boulevard Saint Laurent","city":"Montréal","state":"QC","postal_code":"H2W 1Y2","latitude":45.516051,"longitude":-73.577805,"stars":4.0,"review_count":16,"is_open":1,"categories":"Beauty & Spas, Nail Salons, Waxing, Eyelash Service, Hair Removal","hours":{"Friday":"10:0-19:30","Saturday":"10:0-18:30","Sunday":"11:0-18:0","Thursday":"10:0-19:30","Tuesday":"10:0-18:30","Wednesday":"10:0-18:30"}}
{"business_id":"adpp_kxCabWfLPJ4N106nw","name":"McTamney James & Company","address":"139 Church St","city":"Toronto","state":"ON","postal_code":"M5B 1Y4","latitude":43.653714,"longitude":-79.3758185,"stars":3.0,"review_count":8,"is_open":1,"categories":"Pawn Shops, Shopping, Jewelry","hours":{"Friday":"9:30-17:30","Monday":"9:30-17:30","Saturday":"9:30-17:0","Thursday":"9:30-17:30","Tuesday":"9:30-17:30","Wednesday":"9:30-17:30"}}
{"business_id":"pbt-wWuOE2Kp4rvz57Bdvg","name":"Symphony Diamonds","address":"Shops at Don Mills, 42 Clock Tower Road","city":"Toronto","state":"ON","postal_code":"M3C 0G3","latitude":43.7344502639,"longitude":-79.3442045152,"stars":3.5,"review_count":3,"is_open":0,"categories":"Jewelry, Shopping","hours":{"Friday":"10:0-21:0","Monday":"10:0-21:0","Saturday":"9:30-18:0","Sunday":"11:0-18:0","Thursday":"10:0-21:0","Tuesday":"10:0-21:0","Wednesday":"10:0-21:0"}}
{"business_id":"QZ4GFIArBMGolsVi0XHgcA","name":"Golden Flower Cafe","address":"1 Spadina Road, Suite 11","city":"Richmond Hill","state":"ON","postal_code":"L4B 2Y1","latitude":43.8611126,"longitude":-79.394803,"stars":3.5,"review_count":31,"is_open":1,"categories":"Chinese, Restaurants, Fast Food","hours":{"Friday":"8:0-20:0","Monday":"8:0-20:0","Saturday":"8:0-20:0","Sunday":"8:0-20:0","Thursday":"8:0-20:0","Tuesday":"8:0-20:0","Wednesday":"8:0-20:0"}}
{"business_id":"tREKISC21iPORmC24fEpdw","name":"Canada Robotix","address":"800 Denison Street, Unit 8","city":"Markham","state":"ON","postal_code":"L3R 5M9","latitude":43.8256753,"longitude":-79.3351376,"stars":2.5,"review_count":3,"is_open":1,"categories":"Shopping, Electronics"}
{"business_id":"CodoVn98WzIP2_NC18NuCw","name":"Chez ma Grosse Truie Chérie","address":"1801 Rue Ontario E","city":"Montréal","state":"QC","postal_code":"H2K 1T5","latitude":45.5260887,"longitude":-73.5595135,"stars":3.5,"review_count":30,"is_open":1,"categories":"Restaurants, Canadian (New), French, Brasseries","hours":{"Friday":"17:0-22:0","Saturday":"17:0-22:0","Thursday":"17:0-21:0","Tuesday":"17:0-21:0","Wednesday":"17:0-21:0"}}
{"business_id":"4MxNo7pH-PRdwik4Hx5Jyw","name":"Bikram Yoga Red Tree","address":"12 Drummond Street, Suite 2","city":"Toronto","state":"ON","postal_code":"M8V 1Y8","latitude":43.613131,"longitude":-79.4983773,"stars":3.0,"review_count":5,"is_open":1,"categories":"Yoga, Active Life, Fitness & Instruction"}
{"business_id":"s6-E2ojR__3CSCsIvVq-xA","name":"Just White Shirts","address":"40 King Street W","city":"Toronto","state":"ON","postal_code":"M5H 4A9","latitude":43.648842,"longitude":-79.379996,"stars":1.0,"review_count":3,"is_open":1,"categories":"Fashion, Shopping, Men's Clothing","hours":{"Friday":"9:0-19:0","Monday":"9:0-19:0","Thursday":"9:0-19:0","Tuesday":"9:0-19:0","Wednesday":"9:0-19:0"}}
{"business_id":"9MFcLXNi4pbqHsdrH9giZw","name":"LaPaz Batchoy Toronto","address":"360 Wilson Avenue","city":"Toronto","state":"ON","postal_code":"M3H 1S9","latitude":43.7367949,"longitude":-79.4385151,"stars":3.5,"review_count":7,"is_open":1,"categories":"Restaurants, Filipino, Soup, Fast Food","hours":{"Friday":"11:0-21:0","Saturday":"11:0-21:0","Sunday":"15:0-21:0","Thursday":"11:0-21:0","Tuesday":"11:0-21:0","Wednesday":"11:0-21:0"}}
{"business_id":"j9YFHVQqxM_qKHIc4nck-A","name":"Wong's Asian Cuisine","address":"2173 Lawrence Avenue  E","city":"Scarborough","state":"ON","postal_code":"M1P 2P5","latitude":43.7472771,"longitude":-79.2838487,"stars":4.0,"review_count":22,"is_open":1,"categories":"Hakka, Indian, Asian Fusion, Restaurants, Chinese","hours":{"Friday":"11:30-23:0","Monday":"11:30-15:0","Saturday":"11:30-23:0","Sunday":"12:0-21:0","Thursday":"11:30-22:0","Tuesday":"11:30-22:0","Wednesday":"11:30-22:0"}}
{"business_id":"zHY31XJfijzjKDM03vJCJA","name":"Kingsway Drugs","address":"114 Cumberland Street","city":"Toronto","state":"ON","postal_code":"M5R 1A6","latitude":43.6703388,"longitude":-79.3916608,"stars":4.0,"review_count":3,"is_open":1,"categories":"Shopping, Drugstores","hours":{"Friday":"10:0-18:30","Monday":"10:0-18:30","Saturday":"10:0-17:0","Thursday":"10:0-18:30","Tuesday":"10:0-18:30","Wednesday":"10:0-18:30"}}
{"business_id":"i_0rSAui4zaz4ydVaOZ6bQ","name":"Marcello's Market & Deli","address":"40 King Street W, Scotia plaza Food Court","city":"Toronto","state":"ON","postal_code":"M5H 1B6","latitude":43.649321,"longitude":-79.378413,"stars":3.5,"review_count":7,"is_open":1,"categories":"Food, Grocery, Delis, Buffets, Event Planning & Services, Breakfast & Brunch, Restaurants, Caterers","hours":{"Friday":"6:0-16:0","Monday":"6:0-16:0","Thursday":"6:0-16:0","Tuesday":"6:0-16:0","Wednesday":"6:0-16:0"}}
{"business_id":"L6R2Op88NkoG1EGxlVvdRQ","name":"Bread & Roses Bakery Cafe","address":"2901 Bayview Avenue","city":"Toronto","state":"ON","postal_code":"M2K 2S3","latitude":43.7690784933,"longitude":-79.3854800239,"stars":3.0,"review_count":23,"is_open":1,"categories":"Food, Coffee & Tea, Bakeries, Restaurants, Cafes","hours":{"Friday":"9:0-21:0","Monday":"9:0-21:0","Saturday":"9:0-19:0","Sunday":"10:0-18:0","Thursday":"9:0-21:0","Tuesday":"9:0-21:0","Wednesday":"9:0-21:0"}}
{"business_id":"QfOJ9-nFnV4hlVlndUCMCQ","name":"Tidy Cleaners","address":"1650 Dundas Street E","city":"Mississauga","state":"ON","postal_code":"L4X 2Z3","latitude":43.6143736,"longitude":-79.5775277,"stars":1.0,"review_count":3,"is_open":1,"categories":"Home Services, Home Cleaning"}
{"business_id":"mQkVFNSDpD4frPUMycVoWw","name":"Solstice Restaurant & Wine Bar","address":"1801 Lakeshore Road W","city":"Mississauga","state":"ON","postal_code":"L5J 1J6","latitude":43.5165316,"longitude":-79.6251049,"stars":4.0,"review_count":34,"is_open":1,"categories":"Canadian (New), Wine Bars, Italian, Restaurants, Caterers, Bars, Nightlife, Event Planning & Services","hours":{"Friday":"11:0-22:0","Monday":"11:0-22:0","Saturday":"16:0-22:0","Sunday":"16:0-21:0","Thursday":"11:0-22:0","Tuesday":"11:0-22:0","Wednesday":"11:0-22:0"}}
{"business_id":"Mq6qiz-Bxgd8VE6tBwCuUg","name":"Starbucks","address":"190 Queen Street E","city":"Brampton","state":"ON","postal_code":"L6W 2B3","latitude":43.6937692,"longitude":-79.7521383,"stars":4.5,"review_count":5,"is_open":1,"categories":"Restaurants, Breakfast & Brunch, Food, Coffee & Tea","hours":{"Friday":"6:0-23:0","Monday":"6:0-22:0","Saturday":"7:0-23:0","Sunday":"7:0-22:0","Thursday":"6:0-22:0","Tuesday":"6:0-22:0","Wednesday":"6:0-22:0"}}
{"business_id":"9VSPMQXgPdJ4rNgBPLJZ1A","name":"Rosso Coffee Roasters","address":"425 11 Avenue SE","city":"Calgary","state":"AB","postal_code":"T2G 0Y4","latitude":51.0421039,"longitude":-114.0540648,"stars":3.5,"review_count":15,"is_open":1,"categories":"Restaurants, Coffee & Tea, Bakeries, Food, Breakfast & Brunch, Coffee Roasteries","hours":{"Friday":"6:30-17:0","Monday":"6:30-17:0","Saturday":"8:0-17:0","Sunday":"9:0-16:0","Thursday":"6:30-17:0","Tuesday":"6:30-17:0","Wednesday":"6:30-17:0"}}
{"business_id":"cujI9gM6YlQr29cDhTBSAQ","name":"Little Manila","address":"900 Rathburn Road W","city":"Mississauga","state":"ON","postal_code":"L5C 4L2","latitude":43.5786394466,"longitude":-79.6614813432,"stars":3.0,"review_count":4,"is_open":1,"categories":"Restaurants, Filipino","hours":{"Friday":"11:0-20:0","Monday":"11:0-20:0","Saturday":"9:0-20:0","Sunday":"9:0-18:0","Thursday":"11:0-20:0","Tuesday":"11:0-20:0","Wednesday":"11:0-20:0"}}
{"business_id":"EVC1vn1KQ2uETnTbDWXc5w","name":"Cadillac Jenkins","address":"930 Queen Street W","city":"Toronto","state":"ON","postal_code":"M6J 1G6","latitude":43.6450416,"longitude":-79.4161208,"stars":4.5,"review_count":13,"is_open":0,"categories":"Caribbean, Tapas/Small Plates, Restaurants","hours":{"Friday":"17:0-2:0","Saturday":"17:0-2:0","Sunday":"17:0-2:0","Thursday":"17:0-2:0","Tuesday":"17:0-2:0","Wednesday":"17:0-2:0"}}
{"business_id":"4B8VnRAstRRshxiUzm9yPw","name":"Maiko Sushi - DDO","address":"3339 Boulevard des Sources","city":"Dollard-des-Ormeaux","state":"QC","postal_code":"H9B 1Z8","latitude":45.484315,"longitude":-73.795652,"stars":4.0,"review_count":51,"is_open":1,"categories":"Restaurants, Sushi Bars, Japanese","hours":{"Friday":"17:0-0:0","Monday":"17:0-22:0","Saturday":"17:0-0:0","Sunday":"17:0-22:0","Thursday":"17:0-23:0","Tuesday":"17:0-23:0","Wednesday":"17:0-23:0"}}
{"business_id":"8ELlbjnXfZAw4KbQRP3-EQ","name":"Tomate Basilic","address":"12585 Sherbrooke Rue E","city":"Pointe-Aux-Trembles","state":"QC","postal_code":"H1B 1C8","latitude":45.6509944559,"longitude":-73.5120002206,"stars":4.0,"review_count":8,"is_open":1,"categories":"Italian, Restaurants"}
{"business_id":"NX1281ugzs2navHAX5X9cQ","name":"Cha Me Cha","address":"8333 Kennedy Road, Suite 1078","city":"Markham","state":"ON","postal_code":"L3R 1J5","latitude":43.8563274289,"longitude":-79.3038838729,"stars":3.0,"review_count":293,"is_open":1,"categories":"Bubble Tea, Food, Restaurants, Taiwanese, Coffee & Tea","hours":{"Friday":"12:0-0:0","Monday":"12:0-0:0","Saturday":"12:0-0:0","Sunday":"12:0-0:0","Thursday":"12:0-0:0","Tuesday":"12:0-0:0","Wednesday":"12:0-0:0"}}
{"business_id":"43PeF0ERpSIiEbXM6f9N2g","name":"Megas Restaurant","address":"402 Danforth Avenue","city":"Toronto","state":"ON","postal_code":"M4K 1P3","latitude":43.6777565,"longitude":-79.3515772,"stars":2.5,"review_count":47,"is_open":1,"categories":"Restaurants, Greek, Mediterranean, Caterers, Event Planning & Services","hours":{"Friday":"11:0-1:0","Monday":"11:0-0:0","Saturday":"11:0-1:0","Sunday":"11:0-1:0","Thursday":"11:0-0:0","Tuesday":"11:0-0:0","Wednesday":"11:0-0:0"}}
{"business_id":"G_05ZI4Vpl4bxjjZR11jEQ","name":"Jardin Botanique de Montréal","address":"4101 Rue Sherbrooke E","city":"Montréal","state":"QC","postal_code":"H1X 2B2","latitude":45.5603345562,"longitude":-73.5612237261,"stars":4.5,"review_count":207,"is_open":1,"categories":"Arts & Entertainment, Botanical Gardens, Parks, Active Life","hours":{"Friday":"9:0-17:0","Saturday":"9:0-17:0","Sunday":"9:0-17:0","Thursday":"9:0-17:0","Tuesday":"9:0-17:0","Wednesday":"9:0-17:0"}}
{"business_id":"G7sVtpD6aqpuUB4F3LEG_w","name":"Hoche Café","address":"4299 rue Ontario Est","city":"Montréal","state":"QC","postal_code":"H1V 1K4","latitude":45.5524867983,"longitude":-73.5399850964,"stars":4.0,"review_count":65,"is_open":1,"categories":"Breakfast & Brunch, Food, Restaurants, Coffee & Tea","hours":{"Friday":"6:45-19:0","Monday":"7:0-19:0","Saturday":"8:0-19:0","Sunday":"7:30-18:30","Thursday":"7:0-19:0","Tuesday":"7:0-19:0","Wednesday":"7:0-19:0"}}
{"business_id":"fin8bCrfZ7aCB1pGesvDmw","name":"Theodore 1922","address":"374 Bloor Street W","city":"Toronto","state":"ON","postal_code":"M5S 1X2","latitude":43.6662014,"longitude":-79.4060876,"stars":4.5,"review_count":8,"is_open":1,"categories":"Shopping, Fashion, Men's Clothing, Jewelry, Accessories, Bridal","hours":{"Friday":"12:0-19:0","Saturday":"10:0-18:0","Sunday":"12:0-17:0","Thursday":"12:0-20:0","Tuesday":"12:0-19:0","Wednesday":"12:0-19:0"}}
{"business_id":"jP5l-EWJcMYUiv1UoQssAg","name":"Kind Exchange","address":"339 Roncesvalles Avenue","city":"Toronto","state":"ON","postal_code":"M6R 2M8","latitude":43.6493922,"longitude":-79.4500638,"stars":2.5,"review_count":3,"is_open":0,"categories":"Fashion, Shopping, Used, Vintage & Consignment","hours":{"Friday":"11:0-20:0","Monday":"11:0-19:0","Saturday":"11:0-20:0","Sunday":"12:0-18:0","Thursday":"11:0-20:0","Tuesday":"11:0-19:0","Wednesday":"11:0-20:0"}}
{"business_id":"cXBB07Kb2TcAuzJTVo9tZw","name":"Sunset Grill","address":"17205 Leslie St","city":"Newmarket","state":"ON","postal_code":"L3Y 8E4","latitude":44.0587246395,"longitude":-79.4296261825,"stars":3.0,"review_count":9,"is_open":1,"categories":"Breakfast & Brunch, Restaurants, Canadian (New), Diners","hours":{"Friday":"7:0-15:0","Monday":"7:0-15:0","Saturday":"7:0-15:0","Sunday":"7:0-15:0","Thursday":"7:0-15:0","Tuesday":"7:0-15:0","Wednesday":"7:0-15:0"}}
{"business_id":"YYQ6-vDjbJkhknyzeeQ8OQ","name":"Oasis Medical Spa","address":"2560 Shepard Avenue, Unit 1","city":"Mississauga","state":"ON","postal_code":"L5A 4E1","latitude":43.5803664,"longitude":-79.6139994,"stars":1.5,"review_count":4,"is_open":1,"categories":"Chiropractors, Medical Spas, Beauty & Spas, Health & Medical, Massage, Day Spas"}
{"business_id":"oz4YTqzGLYRzV0lSMDaEEQ","name":"Toronto Police Museum","address":"40 College St","city":"Toronto","state":"ON","postal_code":"M5G 2J3","latitude":43.661198,"longitude":-79.3852652,"stars":3.0,"review_count":4,"is_open":1,"categories":"Arts & Entertainment, Museums"}
{"business_id":"5oH_hLkDuQEaF4enjlDPZA","name":"Sahiba Fashions","address":"2575 Av Steeles E","city":"Brampton","state":"ON","postal_code":"L6T 5T1","latitude":43.7154655,"longitude":-79.6773109,"stars":4.0,"review_count":3,"is_open":1,"categories":"Shopping, Women's Clothing, Fashion, Accessories"}
{"business_id":"bGGOw_1E6HolarRy062qaw","name":"The Home Depot","address":"2920 Argentia Road","city":"Mississauga","state":"ON","postal_code":"L5N 8C5","latitude":43.5980841,"longitude":-79.7795943,"stars":3.0,"review_count":5,"is_open":1,"categories":"Department Stores, Home & Garden, Nurseries & Gardening, Shopping, Fashion"}
{"business_id":"DQaX4mtW6WUgqfs-rzktLQ","name":"Holiday Inn Express & Suites Montreal Airport","address":"10888 Cote De Liesse","city":"Montreal","state":"QC","postal_code":"H8T 1A6","latitude":45.4610532,"longitude":-73.7231341,"stars":3.5,"review_count":8,"is_open":1,"categories":"Hotels, Venues & Event Spaces, Hotels & Travel, Event Planning & Services","hours":{"Friday":"0:0-0:0","Monday":"0:0-0:0","Saturday":"0:0-0:0","Sunday":"0:0-0:0","Thursday":"0:0-0:0","Tuesday":"0:0-0:0","Wednesday":"0:0-0:0"}}
{"business_id":"VxnZy3cU-ItbYiDK5XDX8g","name":"Red Lotus","address":"10909 Yonge Street","city":"Richmond Hill","state":"ON","postal_code":"L4C 3E3","latitude":43.8914289676,"longitude":-79.4404220581,"stars":2.0,"review_count":4,"is_open":0,"categories":"Chinese, Restaurants"}
{"business_id":"m6D1TppT1PG31taCzhEWFg","name":"FobToronto","address":"90 Queens Wharf Rd","city":"Toronto","state":"ON","postal_code":"M5V 3A7","latitude":43.6387593,"longitude":-79.3996364,"stars":5.0,"review_count":7,"is_open":1,"categories":"Home & Garden, Hardware Stores, Keys & Locksmiths, Home Services, Shopping, Security Systems","hours":{"Friday":"10:0-21:0","Monday":"10:0-21:0","Saturday":"10:0-21:0","Sunday":"10:0-21:0","Thursday":"10:0-21:0","Tuesday":"10:0-21:0","Wednesday":"10:0-21:0"}}
{"business_id":"jdgkNUgWTZ4_vqVHHqFk6g","name":"Tim Hortons","address":"1750 Bayly Street","city":"Pickering","state":"ON","postal_code":"L1W 3N3","latitude":43.8338911,"longitude":-79.0649911,"stars":1.5,"review_count":3,"is_open":1,"categories":"Food"}
{"business_id":"hFbhRTodMqG2FAf0UWjJQw","name":"The Golden Pheasant","address":"733 Lakeshore Road E","city":"Mississauga","state":"ON","postal_code":"L5G 1J7","latitude":43.5707634,"longitude":-79.5655653,"stars":4.5,"review_count":40,"is_open":1,"categories":"Modern European, Restaurants","hours":{"Friday":"17:0-0:0","Monday":"17:0-0:0","Saturday":"12:0-0:0","Sunday":"12:0-0:0","Thursday":"17:0-0:0","Tuesday":"17:0-0:0","Wednesday":"17:0-0:0"}}
{"business_id":"bPBZEDuHbE-I7bxUWIYMhQ","name":"Oishii Sushi","address":"338-8338 18 Street SE","city":"Calgary","state":"AB","postal_code":"T2C 4E4","latitude":50.977178,"longitude":-114.0132566,"stars":3.5,"review_count":78,"is_open":1,"categories":"Japanese, Restaurants, Sushi Bars","hours":{"Friday":"11:0-22:0","Monday":"11:0-22:0","Saturday":"11:0-22:0","Sunday":"11:0-22:0","Thursday":"11:0-22:0","Tuesday":"11:0-22:0","Wednesday":"11:0-22:0"}}
{"business_id":"yB1Pl6XP-pANvOPTTVVfow","name":"Imprezzio Marketing","address":"2 Lansing Square, Suite 707","city":"Toronto","state":"ON","postal_code":"M2J 4P8","latitude":43.77424,"longitude":-79.32606,"stars":5.0,"review_count":8,"is_open":0,"categories":"Web Design, Marketing, Professional Services","hours":{"Friday":"9:0-17:0","Monday":"9:0-17:0","Thursday":"9:0-17:0","Tuesday":"9:0-17:0","Wednesday":"9:0-17:0"}}
{"business_id":"h_ypoQ2rmwX8UGSmohsGiQ","name":"Maman","address":"1 First Canadian Place, Food Terrace, Upper Level","city":"Toronto","state":"ON","postal_code":"M5X 1C1","latitude":43.6489768,"longitude":-79.382409,"stars":3.5,"review_count":122,"is_open":1,"categories":"Event Planning & Services, American (Traditional), Bakeries, Cocktail Bars, Caterers, Bars, Coffee & Tea, Food, French, Restaurants, Nightlife","hours":{"Friday":"7:0-12:0","Monday":"0:0-0:0","Thursday":"7:0-18:0","Tuesday":"7:0-18:0","Wednesday":"7:0-18:0"}}
{"business_id":"FjrLNx8eV90VFcy2nb-P_A","name":"Boustan","address":"3780 Boulevard Saint-Charles","city":"Kirkland","state":"QC","postal_code":"H9H 3C3","latitude":45.459048,"longitude":-73.866167,"stars":4.5,"review_count":3,"is_open":1,"categories":"Middle Eastern, Lebanese, Restaurants","hours":{"Friday":"11:0-1:0","Monday":"11:0-0:0","Saturday":"11:0-1:0","Sunday":"11:0-0:0","Thursday":"11:0-1:0","Tuesday":"11:0-0:0","Wednesday":"11:0-0:0"}}
{"business_id":"bnfki4LDbHBzZdL5BoLDDw","name":"Phó Lyn","address":"150 Crowfoot Crescent NW, Suite 311","city":"Calgary","state":"AB","postal_code":"T3G 3N7","latitude":51.1270899,"longitude":-114.1957809,"stars":4.0,"review_count":9,"is_open":0,"categories":"Vietnamese, Coffee & Tea, Restaurants, Food","hours":{"Friday":"11:0-20:0","Monday":"11:0-20:0","Saturday":"11:0-20:0","Sunday":"11:0-19:0","Thursday":"11:0-20:0","Tuesday":"11:0-20:0","Wednesday":"11:0-20:0"}}
{"business_id":"uHSmRkzznq0GpWXWuvzuhw","name":"Noobox","address":"159 Rue Saint-Antoine O, Suite 118","city":"Montreal","state":"QC","postal_code":"H2Z 2A7","latitude":45.5043641,"longitude":-73.5607048,"stars":2.0,"review_count":8,"is_open":1,"categories":"Restaurants, Fast Food, Noodles","hours":{"Friday":"23:0-19:0","Monday":"23:0-19:0","Saturday":"23:0-15:0","Thursday":"23:0-19:0","Tuesday":"23:0-19:0","Wednesday":"23:0-19:0"}}
{"business_id":"aDPrG6a0s_xVbaLrzwhPzg","name":"La Belle Flowers & Gifts","address":"138 Anderson Avenue, Unit 1","city":"Markham","state":"ON","postal_code":"L6E 1A4","latitude":43.9022552,"longitude":-79.2654647,"stars":5.0,"review_count":3,"is_open":1,"categories":"Flowers & Gifts, Shopping, Florists","hours":{"Friday":"9:0-17:0","Monday":"9:0-17:0","Saturday":"9:0-16:0","Thursday":"9:0-17:0","Tuesday":"9:0-17:0","Wednesday":"9:0-17:0"}}
{"business_id":"Qr6REdrwVE7Te_VyYA7Lhg","name":"Toronto Renting Guide","address":"","city":"Toronto","state":"ON","postal_code":"M3C 0C1","latitude":43.7217587,"longitude":-79.350428,"stars":2.5,"review_count":3,"is_open":1,"categories":"Real Estate, Home Services, Property Management, Apartments"}
{"business_id":"brR5W9tv7kwg6ElslwvwKw","name":"My Cheesecake Addiction","address":"","city":"Edgemont","state":"AB","postal_code":"T3A 2M4","latitude":51.1176786,"longitude":-114.1491501,"stars":5.0,"review_count":3,"is_open":1,"categories":"Home Services, Patisserie/Cake Shop, Food, Desserts, Real Estate","hours":{"Friday":"10:0-17:0","Saturday":"10:0-17:0","Sunday":"10:0-17:0"}}
{"business_id":"TboX0o7lo8FwB-8QttguIw","name":"Bonlook","address":"220 Yonge Street, Unit C030","city":"Toronto","state":"ON","postal_code":"M5B 2H1","latitude":43.6540644,"longitude":-79.3806966,"stars":2.5,"review_count":6,"is_open":1,"categories":"Eyewear & Opticians, Shopping","hours":{"Friday":"10:0-21:30","Monday":"10:0-21:30","Saturday":"9:30-21:30","Sunday":"10:0-19:0","Thursday":"10:0-21:30","Tuesday":"10:0-21:30","Wednesday":"10:0-21:30"}}
{"business_id":"WkdIxfgIj-iH1OL4YJ6oFQ","name":"Structube","address":"111 Avenue Rd","city":"Toronto","state":"ON","postal_code":"M5R 3J8","latitude":43.6731972,"longitude":-79.3954314,"stars":2.0,"review_count":17,"is_open":1,"categories":"Furniture Stores, Office Equipment, Shopping, Home & Garden","hours":{"Friday":"10:0-21:0","Monday":"10:0-18:0","Saturday":"10:0-18:0","Sunday":"12:0-17:0","Thursday":"10:0-21:0","Tuesday":"10:0-18:0","Wednesday":"10:0-18:0"}}
{"business_id":"9ELnhtgMF8_h8Zky4A7BSA","name":"Saiken Sushi","address":"1418 Rue Cartier","city":"Montréal","state":"QC","postal_code":"H2K 4C8","latitude":45.5232256726,"longitude":-73.551978752,"stars":3.0,"review_count":4,"is_open":0,"categories":"Restaurants, Japanese","hours":{"Friday":"17:0-23:0","Monday":"17:0-22:0","Saturday":"17:0-23:0","Sunday":"17:0-22:0","Thursday":"17:0-22:0","Tuesday":"17:0-22:0","Wednesday":"17:0-22:0"}}
{"business_id":"sa53_h_Jp8dhjuz0tvZpKA","name":"Tommy Gun's","address":"751 3rd Street SW, Unit 415","city":"Calgary","state":"AB","postal_code":"T2P 4K8","latitude":51.046259,"longitude":-114.070034,"stars":3.0,"review_count":8,"is_open":1,"categories":"Barbers, Beauty & Spas","hours":{"Friday":"8:30-20:0","Monday":"8:30-18:0","Saturday":"10:0-18:0","Sunday":"12:0-17:0","Thursday":"8:30-20:0","Tuesday":"8:30-18:0","Wednesday":"8:30-18:0"}}
{"business_id":"XERJkTF6NqIUa-w9NalwDg","name":"Calgary Cycle","address":"4623 Bow Trail S.W","city":"Calgary","state":"AB","postal_code":"T3C 2G6","latitude":51.0487463,"longitude":-114.1537428,"stars":4.0,"review_count":7,"is_open":1,"categories":"Sporting Goods, Active Life, Mountain Biking, Bike Repair/Maintenance, Bikes, Local Services, Shopping","hours":{"Friday":"10:0-18:0","Monday":"10:0-20:0","Saturday":"10:0-17:0","Sunday":"10:0-17:0","Thursday":"10:0-20:0","Tuesday":"10:0-18:0","Wednesday":"10:0-18:0"}}
{"business_id":"j_pi7HWSARbfKabuPRsXbw","name":"The Ten Spot - Queen West","address":"749 Queen Street W","city":"Toronto","state":"ON","postal_code":"M6J 1G1","latitude":43.6463243,"longitude":-79.4071516,"stars":3.5,"review_count":108,"is_open":1,"categories":"Waxing, Nail Salons, Hair Removal, Beauty & Spas, Skin Care","hours":{"Friday":"8:0-21:0","Monday":"8:0-20:0","Saturday":"8:0-20:0","Sunday":"10:0-18:0","Thursday":"8:0-21:0","Tuesday":"8:0-20:0","Wednesday":"8:0-20:0"}}
{"business_id":"WM7FYVwC7JYMgar_3SIAvg","name":"VapeLion","address":"2030 Rue Crescent, Suite B","city":"Montréal","state":"QC","postal_code":"H3G 2B8","latitude":45.4982018,"longitude":-73.577882,"stars":5.0,"review_count":4,"is_open":0,"categories":"Vape Shops, Medical Supplies, Shopping, Tobacco Shops, Electronics","hours":{"Friday":"11:0-21:0","Monday":"11:0-18:0","Saturday":"10:0-17:0","Sunday":"12:0-17:0","Thursday":"11:0-21:0","Tuesday":"11:0-18:0","Wednesday":"11:0-18:0"}}
{"business_id":"tWvep1usNNI3NYkoRbSb7g","name":"Airdrie East Side Storage","address":"203 East Lake Road NE","city":"Airdrie","state":"AB","postal_code":"T4A 2E9","latitude":51.293351,"longitude":-113.980976,"stars":1.0,"review_count":3,"is_open":1}
{"business_id":"kExmc2lS8BhFFlh9sjvuSA","name":"The Standard Pizza & Pasta Bar","address":"667 College Street","city":"Toronto","state":"ON","postal_code":"M6G 1B9","latitude":43.6549406,"longitude":-79.4168398,"stars":3.0,"review_count":50,"is_open":0,"categories":"Restaurants, Pizza, Italian","hours":{"Friday":"10:30-2:0","Monday":"10:30-2:0","Saturday":"10:30-2:0","Sunday":"10:30-2:0","Thursday":"10:30-2:0","Tuesday":"10:30-2:0","Wednesday":"10:30-2:0"}}
{"business_id":"cNGVnoA2r-sozn6n9jIuvw","name":"Shoppers Drug Mart","address":"2047 Avenue Road","city":"Toronto","state":"ON","postal_code":"M5M 4A7","latitude":43.7362665,"longitude":-79.4196977,"stars":4.0,"review_count":6,"is_open":1,"categories":"Beauty & Spas, Cosmetics & Beauty Supply, Shopping, Drugstores","hours":{"Friday":"8:0-21:0","Monday":"8:0-21:0","Saturday":"8:0-19:0","Sunday":"8:0-19:0","Thursday":"8:0-21:0","Tuesday":"8:0-21:0","Wednesday":"8:0-21:0"}}
{"business_id":"OpwRrBS1WpoxUvfi--bHzg","name":"F45 Training Liberty Village","address":"171 E Liberty Street, Suite 124","city":"Toronto","state":"ON","postal_code":"M6K 3E7","latitude":43.6381221,"longitude":-79.4181561,"stars":4.0,"review_count":4,"is_open":1,"categories":"Fitness & Instruction, Gyms, Active Life","hours":{"Friday":"6:0-19:0","Monday":"6:0-21:0","Saturday":"7:0-12:0","Thursday":"6:0-21:0","Tuesday":"6:0-21:0","Wednesday":"6:0-21:0"}}
{"business_id":"0WBMEfqXQnEOAIkV-uCW6w","name":"The Charlotte Room","address":"19 Charlotte Street","city":"Toronto","state":"ON","postal_code":"M5V 2H5","latitude":43.6465589,"longitude":-79.3937993,"stars":3.5,"review_count":10,"is_open":0,"categories":"Bars, Event Planning & Services, Arts & Entertainment, Lounges, Nightlife, Casinos, Venues & Event Spaces, Pool Halls","hours":{"Friday":"15:0-2:0","Monday":"15:0-1:0","Saturday":"18:0-2:0","Thursday":"15:0-1:0","Tuesday":"15:0-1:0","Wednesday":"15:0-1:0"}}
{"business_id":"jqhLwpCmY7uVuc1vetbqmA","name":"TD Canada Trust","address":"300 Borough Drive","city":"Toronto","state":"ON","postal_code":"M1P 4P5","latitude":43.7767555,"longitude":-79.2590081,"stars":2.5,"review_count":5,"is_open":1,"categories":"Financial Services, Banks & Credit Unions"}
{"business_id":"BkIZ8UDA23qxnp_kR1Sv8Q","name":"Eggspectation","address":"190 Rue Sainte-Catherine O","city":"Montréal","state":"QC","postal_code":"H2X 2X3","latitude":45.507291,"longitude":-73.565672,"stars":4.0,"review_count":342,"is_open":1,"categories":"Burgers, American (Traditional), Cafes, Breakfast & Brunch, Restaurants, Sandwiches, Comfort Food","hours":{"Friday":"6:0-20:0","Monday":"7:0-16:0","Saturday":"7:0-15:0","Sunday":"7:0-15:0","Thursday":"6:0-20:0","Tuesday":"9:0-15:0","Wednesday":"6:0-16:0"}}
{"business_id":"sEE_H7L-qjrtoHjwWiqpbQ","name":"Roots - Centreville","address":"1025 Rue Ste Catharine Ouest","city":"Montreal","state":"QC","postal_code":"H3B 1H1","latitude":45.5003339,"longitude":-73.5728393,"stars":3.0,"review_count":11,"is_open":1,"categories":"Shopping, Fashion, Sports Wear, Department Stores, Arts & Crafts, Sporting Goods, Men's Clothing, Women's Clothing, Leather Goods"}
{"business_id":"dGnjfY3KyeLg-nBQaT3Xqw","name":"Auberge du Dragon Rouge","address":"8870 Rue Lajeunesse","city":"Montréal","state":"QC","postal_code":"H2M 1R6","latitude":45.547262,"longitude":-73.641411,"stars":4.5,"review_count":39,"is_open":1,"categories":"French, Dinner Theater, Burgers, Steakhouses, Pubs, Gluten-Free, Gastropubs, Bars, Restaurants, Brasseries, Nightlife, Breakfast & Brunch","hours":{"Friday":"17:0-23:0","Monday":"17:0-22:0","Saturday":"16:30-23:0","Sunday":"16:30-22:0","Thursday":"17:0-22:0","Tuesday":"17:0-22:0","Wednesday":"17:0-22:0"}}
{"business_id":"f8CST3ex8RlZoZNwBQzMRA","name":"Restaurant Agora Souvlaki","address":"6544 Somerled Avenue","city":"Montréal","state":"QC","postal_code":"H4V 1S8","latitude":45.4673896,"longitude":-73.6386165,"stars":2.0,"review_count":3,"is_open":0,"categories":"Greek, Restaurants, Mediterranean"}
{"business_id":"MPPlVchUxAKCS-Dy-tMGAg","name":"Panera Bread","address":"9350 Yonge Street","city":"Richmond Hill","state":"ON","postal_code":"L4C 5G2","latitude":43.8568578495,"longitude":-79.4344568253,"stars":3.0,"review_count":53,"is_open":1,"categories":"Salad, Bagels, Breakfast & Brunch, Sandwiches, Food, Bakeries, Soup, Restaurants","hours":{"Friday":"6:0-22:0","Monday":"6:0-22:0","Saturday":"6:30-22:0","Sunday":"7:0-21:0","Thursday":"6:0-22:0","Tuesday":"6:0-22:0","Wednesday":"6:0-22:0"}}
{"business_id":"7EmkCmCizkiHs8GrxLzakw","name":"Mopify","address":"1 Yonge Street, Suite 1801","city":"Toronto","state":"ON","postal_code":"M5E 1W7","latitude":43.6429251,"longitude":-79.3741862,"stars":2.5,"review_count":3,"is_open":1,"categories":"Home Cleaning, Home Services"}
{"business_id":"iag4htR8F7FmE9zpz7_GMw","name":"Levetto","address":"940 College Street","city":"Toronto","state":"ON","postal_code":"M6H 1A5","latitude":43.6536812,"longitude":-79.4265904,"stars":4.0,"review_count":60,"is_open":1,"categories":"Salad, Italian, Restaurants, Pizza","hours":{"Friday":"11:0-23:0","Monday":"11:0-22:0","Saturday":"11:0-23:0","Sunday":"11:0-22:0","Thursday":"11:0-22:0","Tuesday":"11:0-22:0","Wednesday":"11:0-22:0"}}
{"business_id":"fvi8vg1a6CoC3YWqn10OYg","name":"Fur Ever Homes Rescue","address":"","city":"Calgary","state":"AB","postal_code":"T3E 7R3","latitude":51.0017827,"longitude":-114.1265651,"stars":3.5,"review_count":11,"is_open":1,"categories":"Pet Sitting, Pets, Pet Adoption, Animal Shelters, Pet Services"}
{"business_id":"qxFVwTstR5BuFa4kY50akQ","name":"Swiss Chalet Rotisserie & Grill","address":"1993 Salem Rd N","city":"Ajax","state":"ON","postal_code":"L1T 0J9","latitude":43.8980699691,"longitude":-79.0290136315,"stars":3.5,"review_count":8,"is_open":1,"categories":"Comfort Food, Restaurants, American (Traditional)","hours":{"Friday":"11:0-22:0","Monday":"11:0-22:0","Saturday":"11:0-22:0","Sunday":"11:0-21:30","Thursday":"11:0-22:0","Tuesday":"11:0-22:0","Wednesday":"11:0-22:0"}}
{"business_id":"-jdNqqzF1Dbve04oEd4jww","name":"OK OK Diner","address":"1128 Queen Street E","city":"Toronto","state":"ON","postal_code":"M4M 1K8","latitude":43.6623207,"longitude":-79.3351048,"stars":3.0,"review_count":62,"is_open":1,"categories":"Restaurants, Breakfast & Brunch, Diners","hours":{"Friday":"9:0-16:0","Monday":"9:0-16:0","Saturday":"9:0-16:0","Sunday":"9:0-16:0","Thursday":"9:0-16:0","Tuesday":"9:0-16:0","Wednesday":"9:0-16:0"}}
{"business_id":"N-U0o7hIKy3Z6KY_O4RuPg","name":"PICEA997","address":"997 Dupont Street","city":"Toronto","state":"ON","postal_code":"M6H 1Z5","latitude":43.6698988,"longitude":-79.4315486,"stars":3.0,"review_count":32,"is_open":0,"categories":"Sports Bars, Italian, Nightlife, Restaurants, Bars, Pizza","hours":{"Friday":"17:0-23:0","Saturday":"17:0-23:0","Sunday":"17:0-23:0","Thursday":"17:0-23:0","Tuesday":"17:0-23:0","Wednesday":"17:0-23:0"}}
{"business_id":"0FjE0Rz0BdPHkD01mxgJsQ","name":"Wash World","address":"1182 King Street W","city":"Toronto","state":"ON","postal_code":"M6K 1E6","latitude":43.63921,"longitude":-79.4267743,"stars":3.0,"review_count":3,"is_open":1,"categories":"Dry Cleaning & Laundry, Local Services, Laundry Services","hours":{"Friday":"6:30-0:0","Monday":"7:30-23:0","Saturday":"6:30-0:0","Thursday":"7:30-23:0","Tuesday":"7:30-23:0","Wednesday":"7:30-23:0"}}
{"business_id":"q1qjPXe0C2VXTInnWNLudQ","name":"D-Spot Dessert Cafe","address":"1060 The Queensway","city":"Toronto","state":"ON","postal_code":"M8Z 1P7","latitude":43.6232196,"longitude":-79.5173811,"stars":4.0,"review_count":16,"is_open":1,"categories":"Desserts, Cafes, Food, Ice Cream & Frozen Yogurt, Restaurants, Bubble Tea","hours":{"Friday":"13:0-2:0","Monday":"13:0-0:0","Saturday":"13:0-2:0","Sunday":"13:0-2:0","Thursday":"13:0-0:0","Tuesday":"13:0-0:0","Wednesday":"13:0-0:0"}}
{"business_id":"OkXjIwGUEGcyofyjPITZ8A","name":"Fit4less","address":"71 Cochrane Drive","city":"Markham","state":"ON","postal_code":"L3R 9S1","latitude":43.8478867,"longitude":-79.3598427,"stars":3.0,"review_count":3,"is_open":1,"categories":"Gyms, Active Life, Fitness & Instruction","hours":{"Friday":"0:0-12:0","Monday":"0:0-12:0","Saturday":"0:0-12:0","Sunday":"0:0-12:0","Thursday":"0:0-12:0","Tuesday":"0:0-12:0","Wednesday":"0:0-12:0"}}
{"business_id":"MuDmP50gdV_NYSP2Tb8ZfA","name":"Nortown Meats & Specialities","address":"303 York Mills Road","city":"North York","state":"ON","postal_code":"M2L 1L3","latitude":43.7472581,"longitude":-79.385072,"stars":3.5,"review_count":4,"is_open":1,"categories":"Specialty Food, Food","hours":{"Friday":"8:0-19:0","Monday":"8:0-19:0","Sunday":"8:0-18:0","Thursday":"8:0-20:0","Tuesday":"8:0-19:0","Wednesday":"8:0-19:0"}}
{"business_id":"Iojwvqi475VZ7n27LGfnBw","name":"The Cure","address":"1484 Dundas Street W","city":"Toronto","state":"ON","postal_code":"M6K 1T5","latitude":43.6497245738,"longitude":-79.4315845899,"stars":3.5,"review_count":31,"is_open":0,"categories":"Sandwiches, Breakfast & Brunch, Nightlife, Cocktail Bars, Food, Bars, Restaurants, American (Traditional), Canadian (New), Diners, Specialty Food, Delis, Meat Shops, Delicatessen"}
{"business_id":"HeH4qL9xS_XYnAQh6Yu8JQ","name":"Elite Appliance Parts and Service","address":"1287 Caledonia Rd","city":"Toronto","state":"ON","postal_code":"M6A 1V4","latitude":43.7227885,"longitude":-79.4689383,"stars":2.0,"review_count":12,"is_open":1,"categories":"Local Services, Shopping, Appliances & Repair, Appliances, Home & Garden","hours":{"Friday":"9:0-17:0","Monday":"9:0-17:0","Saturday":"9:0-14:0","Thursday":"9:0-17:0","Tuesday":"9:0-17:0","Wednesday":"9:0-17:0"}}
{"business_id":"4w-q_Wc77JzQZSIehKFTzA","name":"Brockton Haunt","address":"1150 College Street","city":"Toronto","state":"ON","postal_code":"M6H 1B6","latitude":43.652360563,"longitude":-79.4339237061,"stars":4.0,"review_count":25,"is_open":1,"categories":"Juice Bars & Smoothies, Restaurants, Sandwiches, Food, Cafes, Coffee & Tea","hours":{"Friday":"8:0-18:0","Monday":"8:0-18:0","Saturday":"8:30-17:30","Sunday":"9:0-17:0","Thursday":"8:0-18:0","Tuesday":"8:0-18:0","Wednesday":"8:0-18:0"}}
{"business_id":"PE6zjI3g0iscqUixA0VZpA","name":"Sammy's World's Greatest Pizza - Braeside Location","address":"11440 Braeside Drive SW, Bay 30","city":"Calgary","state":"AB","postal_code":"T2W 3E4","latitude":50.9529899458,"longitude":-114.116695554,"stars":4.0,"review_count":11,"is_open":1,"categories":"Pizza, Restaurants","hours":{"Friday":"11:0-0:0","Monday":"11:0-22:0","Saturday":"11:0-0:0","Sunday":"16:0-22:0","Thursday":"11:0-22:0","Tuesday":"11:0-22:0","Wednesday":"11:0-22:0"}}
{"business_id":"q8MUVVuQpfR6v0HBHmAFxw","name":"The Combine Eatery","address":"162 Danforth Avenue","city":"Toronto","state":"ON","postal_code":"M4K 1N2","latitude":43.676642,"longitude":-79.357421,"stars":3.5,"review_count":82,"is_open":0,"categories":"Canadian (New), Bakeries, Restaurants, Food, Bars, Burgers, Nightlife, Mexican, American (New)","hours":{"Friday":"11:30-23:0","Saturday":"11:0-23:0","Sunday":"10:0-15:0","Thursday":"11:30-23:0","Wednesday":"11:30-23:0"}}
{"business_id":"WvRHQVs7fsz27RR5yFm13A","name":"London Drugs","address":"3545 - 32nd Avenue NE","city":"Calgary","state":"AB","postal_code":"T1Y 6M6","latitude":51.0807293,"longitude":-113.9830857,"stars":3.5,"review_count":3,"is_open":1,"categories":"Home & Garden, Electronics, Appliances, Drugstores, Shopping","hours":{"Friday":"9:0-22:0","Monday":"9:0-22:0","Saturday":"9:0-22:0","Sunday":"10:0-20:0","Thursday":"9:0-22:0","Tuesday":"9:0-22:0","Wednesday":"9:0-22:0"}}
{"business_id":"q5HePwBjh9xSV9-mYvC5Mg","name":"Pita Paradise","address":"1027 Finch Avenue W","city":"North York","state":"ON","postal_code":"M3J 2C7","latitude":43.767825,"longitude":-79.469884,"stars":3.5,"review_count":14,"is_open":1,"categories":"Restaurants, Sandwiches","hours":{"Friday":"10:30-19:30","Monday":"10:30-19:30","Saturday":"10:30-19:30","Thursday":"10:30-19:30","Tuesday":"10:30-19:30","Wednesday":"10:30-19:30"}}
{"business_id":"PvAARwsGKb9BcytkxtNqJQ","name":"La Vida Cocoa Craft Bakery & Cafe","address":"398 Steeles Avenue W, Unit 9","city":"Thornhill","state":"ON","postal_code":"L4J 6X3","latitude":43.7953286,"longitude":-79.4347723,"stars":3.5,"review_count":7,"is_open":1,"categories":"Gluten-Free, Food, Bakeries, Restaurants, Vegan, Cafes","hours":{"Friday":"10:0-20:0","Monday":"0:0-0:0","Saturday":"10:0-14:0","Thursday":"10:0-20:0","Tuesday":"10:0-16:0","Wednesday":"10:0-18:0"}}
{"business_id":"xomRWgUrcq2ESC6oBwrfbA","name":"Boston Pizza","address":"12286 Symons Valley Road NW","city":"Calgary","state":"AB","postal_code":"T3P 0A3","latitude":51.1638004829,"longitude":-114.1261184399,"stars":2.5,"review_count":18,"is_open":1,"categories":"Pubs, Pizza, American (Traditional), Nightlife, Burgers, Bars, Restaurants","hours":{"Friday":"11:0-1:0","Monday":"11:0-0:0","Saturday":"11:0-1:0","Sunday":"11:0-0:0","Thursday":"11:0-0:0","Tuesday":"11:0-0:0","Wednesday":"11:0-0:0"}}
{"business_id":"s5aC8T3Fldtp4HQHHxPEpQ","name":"Over the Rainbow Children's Centre","address":"285 Jevlan Drive","city":"Woodbridge","state":"ON","postal_code":"L4L 8G6","latitude":43.8011478,"longitude":-79.5476115,"stars":4.5,"review_count":3,"is_open":1,"categories":"Child Care & Day Care, Education, Elementary Schools, Preschools, Local Services","hours":{"Friday":"7:0-18:30","Monday":"7:0-18:30","Thursday":"7:0-18:30","Tuesday":"7:0-18:30","Wednesday":"7:0-18:30"}}
{"business_id":"1En6jicM87DGevp-groNcg","name":"Queens Quay Medspa and Anti-Aging Clinic","address":"370 Queens Quay W, Suite 103","city":"Toronto","state":"ON","postal_code":"M5V 3J3","latitude":43.6387666,"longitude":-79.38979,"stars":4.0,"review_count":4,"is_open":0,"categories":"Medical Spas, Hair Removal, Weight Loss Centers, Laser Hair Removal, Health & Medical, Beauty & Spas","hours":{"Friday":"11:30-19:30","Saturday":"11:30-19:30","Thursday":"11:30-19:30","Tuesday":"11:30-19:30","Wednesday":"11:30-19:30"}}
{"business_id":"ZGV8DhCQzkJQUrktQ89BDA","name":"Energie Cardio","address":"3841 Rue Wellington","city":"Verdun","state":"QC","postal_code":"H4G 1V1","latitude":45.4653827,"longitude":-73.5668864,"stars":3.0,"review_count":4,"is_open":1,"categories":"Gyms, Active Life, Fitness & Instruction, Cardio Classes"}
{"business_id":"TcHDCrAp9NfFP2wGzQ3sXw","name":"Sante Cosmetic Laser & Vein Centre","address":"1504 15th Avenue SW","city":"Calgary","state":"AB","postal_code":"T3C 0X9","latitude":51.0396778,"longitude":-114.0950228,"stars":1.5,"review_count":3,"is_open":0,"categories":"Skin Care, Hair Removal, Doctors, Health & Medical, Laser Hair Removal, Beauty & Spas, Medical Spas, Day Spas","hours":{"Friday":"8:30-16:0","Monday":"7:30-17:0","Thursday":"7:30-19:0","Tuesday":"7:30-17:0","Wednesday":"7:30-17:0"}}
{"business_id":"7MssGOl7IeOYCPn6uuSGxw","name":"Bánh Cuon Thanh Trúc","address":"2422 St Clair Ave W","city":"Toronto","state":"ON","postal_code":"M6N 1L2","latitude":43.6695111,"longitude":-79.4824124,"stars":3.5,"review_count":26,"is_open":1,"categories":"Restaurants, Vietnamese","hours":{"Friday":"10:0-21:0","Monday":"10:0-21:0","Saturday":"10:0-21:0","Sunday":"10:0-21:0","Thursday":"10:0-21:0","Tuesday":"10:0-21:0"}}
{"business_id":"KmDLLsgsutHk7nNTlyI0Zw","name":"Indigo Spirit","address":"880 16th Avenue SW","city":"Calgary","state":"AB","postal_code":"T2R 1J9","latitude":51.0381708,"longitude":-114.081689,"stars":3.0,"review_count":4,"is_open":0,"categories":"Bookstores, Shopping, Books, Mags, Music & Video"}
{"business_id":"c5kWVCbQ0mFuUeEXZOEe8Q","name":"Platinum Medical Clinic","address":"3170 Av Eglinton E","city":"Scarborough","state":"ON","postal_code":"M1J 2H3","latitude":43.7430828,"longitude":-79.2209184,"stars":3.5,"review_count":3,"is_open":1,"categories":"Health & Medical, Doctors"}
{"business_id":"eoG9zP7xxsDHVM0kJYrvkw","name":"The Shameful Tiki Room","address":"1378 Queen W","city":"Toronto","state":"ON","postal_code":"M6K 1L7","latitude":43.6414393,"longitude":-79.4333026,"stars":4.0,"review_count":148,"is_open":1,"categories":"Cocktail Bars, Bars, Tiki Bars, Nightlife","hours":{"Friday":"17:0-2:0","Monday":"17:0-1:0","Saturday":"17:0-2:0","Sunday":"17:0-1:0","Thursday":"17:0-2:0","Tuesday":"17:0-1:0","Wednesday":"17:0-2:0"}}
{"business_id":"GOsj1Zh2Gn2o7yaN7P3ODg","name":"J&S Cleaners","address":"548 Carlton Road, Unit 107","city":"Markham","state":"ON","postal_code":"L3R 0C6","latitude":43.8707514,"longitude":-79.3040192,"stars":4.5,"review_count":13,"is_open":1,"categories":"Local Services, Dry Cleaning & Laundry, Laundry Services","hours":{"Friday":"8:0-19:0","Monday":"8:0-19:0","Saturday":"8:0-17:0","Thursday":"8:0-19:0","Tuesday":"8:0-19:0","Wednesday":"8:0-19:0"}}
{"business_id":"I24pVfCFcQXBU6cbw3cTbA","name":"Marvellous Edibles","address":"120 Laird Dr","city":"East York","state":"ON","postal_code":"M4G 3V3","latitude":43.7069028,"longitude":-79.3622402,"stars":3.5,"review_count":4,"is_open":0,"categories":"Restaurants"}
{"business_id":"nxzyOxgWh5gT_YNbVaBx6A","name":"Nutrition House","address":"120 Lynn Williams Street","city":"Toronto","state":"ON","postal_code":"M6K 3N6","latitude":43.6390608,"longitude":-79.4177271,"stars":3.5,"review_count":3,"is_open":1,"categories":"Food, Specialty Food, Health Markets","hours":{"Friday":"11:0-20:0","Monday":"11:0-20:0","Saturday":"10:0-18:0","Sunday":"12:0-18:0","Thursday":"11:0-20:0","Tuesday":"11:0-20:0","Wednesday":"11:0-20:0"}}
{"business_id":"gTIColgrMq27NsSu60iq3g","name":"Frite Alors","address":"5405 9e Avenue","city":"Montréal","state":"QC","postal_code":"H1Y 2J7","latitude":45.5499455,"longitude":-73.5742233,"stars":3.5,"review_count":7,"is_open":1,"categories":"Food Trucks, Burgers, Food, Sandwiches, Restaurants"}
{"business_id":"qlS9gZUWP23cVw57lVvvDQ","name":"Attrell Toyota","address":"110 Canam Crescent","city":"Brampton","state":"ON","postal_code":"L7A 1A9","latitude":43.7016987,"longitude":-79.793863,"stars":5.0,"review_count":5,"is_open":1,"categories":"Auto Repair, Hotels & Travel, Auto Parts & Supplies, Car Dealers, Car Rental, Automotive, Body Shops","hours":{"Friday":"7:30-18:0","Monday":"7:30-21:0","Saturday":"8:0-18:0","Thursday":"7:30-21:0","Tuesday":"7:30-21:0","Wednesday":"7:30-21:0"}}
{"business_id":"EH8fm70yEU5TGQpFWQ2pKw","name":"Lush","address":"3401 Dufferin Street","city":"Toronto","state":"ON","postal_code":"M6A 2T9","latitude":43.7246843,"longitude":-79.4541729,"stars":5.0,"review_count":3,"is_open":1,"categories":"Cosmetics & Beauty Supply, Shopping, Beauty & Spas"}
{"business_id":"gU9EIsUkriQzDM91Sv3CtA","name":"Kimchi House","address":"586 Bloor St W","city":"Toronto","state":"ON","postal_code":"M6G 1K4","latitude":43.6649582,"longitude":-79.4127496,"stars":4.0,"review_count":36,"is_open":1,"categories":"Restaurants, Korean","hours":{"Friday":"11:0-0:0","Monday":"11:0-23:0","Saturday":"11:0-0:0","Sunday":"12:0-23:0","Thursday":"11:0-23:0","Tuesday":"11:0-23:0","Wednesday":"11:0-23:0"}}
{"business_id":"Pnj5JxSS2AZS29wRZAC8XA","name":"Tim Hortons","address":"10233 Elbow Drive SW","city":"Calgary","state":"AB","postal_code":"T2W 1E8","latitude":50.9615997,"longitude":-114.0856255,"stars":3.0,"review_count":4,"is_open":1,"categories":"Food"}
{"business_id":"EgG1Nko24CMtiZOtbBskyQ","name":"Gamache Tailleur","address":"6404 Rue Saint Hubert","city":"Montréal","state":"QC","postal_code":"H2S 2M2","latitude":45.5359242,"longitude":-73.6026787,"stars":5.0,"review_count":4,"is_open":1,"categories":"Bespoke Clothing, Sewing & Alterations, Shopping, Local Services"}
{"business_id":"SAYeaclKsoqMavBfHpvV8Q","name":"York Street Cafe","address":"60 York Street","city":"Toronto","state":"ON","postal_code":"M5J 1S8","latitude":43.6462793,"longitude":-79.3830074,"stars":1.5,"review_count":8,"is_open":1,"categories":"Breakfast & Brunch, Restaurants"}
{"business_id":"CYwCPEq05tRkBT8trOZhKg","name":"Easy 2 Go Movers","address":"106 Cinrick Bar Drive","city":"Toronto","state":"ON","postal_code":"M9W 6W7","latitude":43.7198618,"longitude":-79.6192946,"stars":2.5,"review_count":3,"is_open":1,"categories":"Home Services, Couriers & Delivery Services, Movers, Local Services, Packing Services, Self Storage","hours":{"Friday":"8:0-21:0","Monday":"8:0-21:0","Saturday":"8:0-21:0","Sunday":"8:0-21:0","Thursday":"8:0-21:0","Tuesday":"8:0-21:0","Wednesday":"8:0-21:0"}}
{"business_id":"w8WAt1is16rQUJf2TYefJg","name":"Casa Grecque Pie Ix","address":"10651 Pie Ix Boul","city":"Montreal-Nord","state":"QC","postal_code":"H1H 4A3","latitude":45.5895465,"longitude":-73.6337117,"stars":2.5,"review_count":3,"is_open":1,"categories":"Restaurants"}
{"business_id":"8wpfZ3zJJ8LKO-z6C8hX-A","name":"Pennylicks Gourmet Cafe","address":"281 Augusta Ave","city":"Toronto","state":"ON","postal_code":"M5T 2M1","latitude":43.6559277,"longitude":-79.4024678,"stars":4.0,"review_count":6,"is_open":0,"categories":"Food, Restaurants, Sandwiches, Coffee & Tea, Desserts"}
{"business_id":"gByAs1ulSsJI2O-2QXbF3g","name":"Professionail","address":"130 Country Village Road NE","city":"Calgary","state":"AB","postal_code":"T3K 6B8","latitude":51.1629687,"longitude":-114.0570224,"stars":2.5,"review_count":6,"is_open":0,"categories":"Beauty & Spas, Nail Salons"}
{"business_id":"6T8YFkN7xkGlBfLMqdp28w","name":"Golden Bakeshop","address":"3371 Lake Shore Boulevard W","city":"Toronto","state":"ON","postal_code":"M8W 1N1","latitude":43.5960867387,"longitude":-79.5267761783,"stars":5.0,"review_count":3,"is_open":0,"categories":"Bakeries, Food"}
{"business_id":"Z3UBeP5EoKIXIDmEdA3JmQ","name":"Big Tuna Poké Bar","address":"599 Bloor Street W","city":"Toronto","state":"ON","postal_code":"M6G 1K5","latitude":43.6646035,"longitude":-79.4129342,"stars":3.0,"review_count":65,"is_open":0,"categories":"Poke, Asian Fusion, Food, Restaurants, Hawaiian, Japanese","hours":{"Friday":"12:0-21:0","Saturday":"12:0-21:0","Sunday":"12:0-21:0","Thursday":"12:0-21:0","Tuesday":"12:0-21:0","Wednesday":"12:0-21:0"}}
{"business_id":"l7RCvKqA61Jzm98gaqIhvw","name":"Brass Taps Pizza Pub","address":"934 College St","city":"Toronto","state":"ON","postal_code":"M6H 1A4","latitude":43.6537865,"longitude":-79.4261354,"stars":3.5,"review_count":34,"is_open":1,"categories":"Pizza, Nightlife, Restaurants, Pubs, Bars","hours":{"Friday":"11:30-2:0","Monday":"11:30-2:0","Saturday":"11:0-2:0","Sunday":"11:0-2:0","Thursday":"11:30-2:0","Tuesday":"11:30-2:0","Wednesday":"11:30-2:0"}}
{"business_id":"doJOGoMormKsgy8iR-EEsA","name":"Saneal Camera Supplies","address":"1402 11 Avenue SW","city":"Calgary","state":"AB","postal_code":"T3C 0M8","latitude":51.043251,"longitude":-114.09395,"stars":2.5,"review_count":3,"is_open":1,"categories":"Computers, Hobby Shops, Shopping, Photography Stores & Services","hours":{"Friday":"9:30-18:0","Monday":"9:30-18:0","Saturday":"9:30-18:0","Thursday":"9:30-18:0","Tuesday":"9:30-18:0","Wednesday":"9:30-18:0"}}
{"business_id":"3AXXwgaXYeiOkpiNtTYv1w","name":"Pharmaprix","address":"390 Rue Sainte-Catherine O","city":"Montréal","state":"QC","postal_code":"H3B 1A1","latitude":45.505378,"longitude":-73.567476,"stars":4.5,"review_count":5,"is_open":1,"categories":"Pharmacy, Drugstores, Shopping, Health & Medical","hours":{"Friday":"8:0-22:0","Monday":"8:0-22:0","Saturday":"9:0-22:0","Sunday":"10:0-22:0","Thursday":"8:0-22:0","Tuesday":"8:0-22:0","Wednesday":"8:0-22:0"}}
{"business_id":"NJ8zL1tXR29LUng6T_CKPw","name":"Heartland Town Centre","address":"6075 Mavis Road","city":"Mississauga","state":"ON","postal_code":"L5R 4G","latitude":43.6119325093,"longitude":-79.6955132112,"stars":4.0,"review_count":44,"is_open":1,"categories":"Shopping, Shopping Centers"}
{"business_id":"JCMnL6-pbWmG7xSVkdBuoQ","name":"Little Caesars Pizza","address":"126 Wellington Street West","city":"Aurora","state":"ON","postal_code":"L4G 2N9","latitude":43.9988029,"longitude":-79.474695,"stars":2.5,"review_count":3,"is_open":1,"categories":"Restaurants, Pizza"}
{"business_id":"ZAw8PJAopCs-Rd1X8Y4xGQ","name":"Shallow Groove Lounge","address":"559 College Street","city":"Toronto","state":"ON","postal_code":"M6G 1A9","latitude":43.6551489,"longitude":-79.412212,"stars":1.5,"review_count":3,"is_open":1,"categories":"Nightlife, Lounges, Bars","hours":{"Friday":"18:0-3:0","Monday":"18:0-3:0","Saturday":"18:0-3:0","Sunday":"18:0-3:0","Thursday":"18:0-3:0","Tuesday":"18:0-3:0","Wednesday":"18:0-3:0"}}
{"business_id":"HHtsSEWylv5yAPhk5r1DLg","name":"Mississauga Foot Clinic","address":"250 Dundas Street West, Suite 305","city":"Mississauga","state":"ON","postal_code":"L5B 1J2","latitude":43.5748347,"longitude":-79.622093,"stars":4.5,"review_count":3,"is_open":1,"categories":"Health & Medical, Medical Centers, Sports Medicine, Podiatrists, Doctors","hours":{"Friday":"9:30-18:30","Monday":"9:30-18:30","Saturday":"9:30-17:0","Thursday":"9:30-18:30","Tuesday":"9:30-18:30","Wednesday":"9:30-15:0"}}
{"business_id":"JbG4UCHDEvKTvDkFjmVfJw","name":"Rogers","address":"618 Sheppard Avenue W","city":"Toronto","state":"ON","postal_code":"M3H 2S1","latitude":43.7559951495,"longitude":-79.4403006881,"stars":2.0,"review_count":5,"is_open":1,"categories":"Videos & Video Game Rental, Professional Services, Local Services, Home Services, Television Service Providers, Books, Mags, Music & Video, Internet Service Providers, Telecommunications, Shopping, IT Services & Computer Repair","hours":{"Friday":"10:0-21:0","Monday":"10:0-21:0","Saturday":"10:0-18:0","Sunday":"11:0-18:0","Thursday":"10:0-21:0","Tuesday":"10:0-21:0","Wednesday":"10:0-21:0"}}
{"business_id":"eMSFlZRDLBUWWs93_78xdw","name":"KFC","address":"7161 Goreway Drive","city":"Mississauga","state":"ON","postal_code":"L4T 2T5","latitude":43.7169205,"longitude":-79.6354071,"stars":2.0,"review_count":4,"is_open":1,"categories":"Chicken Wings, Fast Food, Restaurants, Chicken Shop","hours":{"Friday":"11:0-23:0","Monday":"11:0-22:0","Saturday":"11:0-23:0","Sunday":"11:0-22:0","Thursday":"11:0-23:0","Tuesday":"11:0-23:0","Wednesday":"11:0-23:0"}}
{"business_id":"h9HlGgNKlepmajST28j8Cg","name":"Hair 2000","address":"1414 Kensington Road NW, Suite 103A","city":"Calgary","state":"AB","postal_code":"T2N 3P9","latitude":51.052509,"longitude":-114.092629,"stars":4.0,"review_count":4,"is_open":1,"categories":"Day Spas, Hair Salons, Beauty & Spas","hours":{"Friday":"9:0-17:30","Saturday":"8:0-16:0","Thursday":"10:0-20:30","Tuesday":"9:0-17:30","Wednesday":"9:0-20:0"}}
{"business_id":"pDMxIQoqkZJeUe2r8XIVKQ","name":"Kim Dinh","address":"9570 McCowan Road","city":"Markham","state":"ON","postal_code":"L6C 3G3","latitude":43.8924976361,"longitude":-79.2917408422,"stars":3.0,"review_count":61,"is_open":1,"categories":"Vietnamese, Restaurants","hours":{"Friday":"11:0-22:0","Monday":"11:0-22:0","Saturday":"11:0-22:0","Sunday":"11:0-22:0","Thursday":"11:0-22:0","Tuesday":"11:0-22:0","Wednesday":"11:0-22:0"}}
{"business_id":"RJdSwvgAd2TRdQw4iOsrag","name":"Café Mezcal","address":"156 Rue Prince Arthur E","city":"Montréal","state":"QC","postal_code":"H2X 1B7","latitude":45.515404,"longitude":-73.571156,"stars":4.0,"review_count":49,"is_open":1,"categories":"Food, Breakfast & Brunch, Ice Cream & Frozen Yogurt, Mexican, Cafes, Restaurants","hours":{"Friday":"11:0-21:0","Monday":"11:0-21:0","Saturday":"11:0-21:0","Sunday":"11:0-17:0","Thursday":"11:0-21:0","Wednesday":"11:0-21:0"}}
{"business_id":"Ve0nCDcXlu5aZ_S7k0J7sA","name":"Old Montreal Walking Tour by Viator","address":"110 Rue Notre Dame Ouest","city":"Montréal","state":"QC","postal_code":"H2Y 1T1","latitude":45.5044263,"longitude":-73.5559176,"stars":5.0,"review_count":7,"is_open":1,"categories":"Walking Tours, Tours, Hotels & Travel"}
{"business_id":"xqQ0njbNhkJoSAjiQBLLyQ","name":"The BREL Team","address":"3091 Dundas Street W","city":"Toronto","state":"ON","postal_code":"M6P 1Z9","latitude":43.6653272,"longitude":-79.4726058,"stars":5.0,"review_count":36,"is_open":1,"categories":"Home Services, Professional Services, Real Estate, Real Estate Agents, Real Estate Services","hours":{"Friday":"6:0-23:45","Monday":"6:0-23:45","Saturday":"6:0-23:45","Sunday":"6:0-23:45","Thursday":"6:0-23:45","Tuesday":"6:0-23:45","Wednesday":"6:0-23:45"}}
{"business_id":"VmTFY0aszmKLe8CJ7XIu7Q","name":"Mortgages.ca","address":"Unit 305, 145 Front Street E","city":"Toronto","state":"ON","postal_code":"M5A 1E3","latitude":43.64987173,"longitude":-79.3694078922,"stars":5.0,"review_count":5,"is_open":1,"categories":"Home Services, Mortgage Brokers, Real Estate","hours":{"Friday":"9:0-18:0","Monday":"0:0-0:0","Thursday":"9:0-18:0","Tuesday":"9:0-18:0","Wednesday":"9:0-18:0"}}
{"business_id":"QZpNIh08ybhDrGFEshiKtA","name":"Who's Walking Who Dog Obedience","address":"37 Parliament St","city":"Toronto","state":"ON","postal_code":"M5A 2Y2","latitude":43.6493831,"longitude":-79.3612079,"stars":3.0,"review_count":6,"is_open":1,"categories":"Pets, Pet Stores, Pet Services"}
{"business_id":"QPpptKYmU3fZMi_JsUf4qg","name":"Pizza Depot","address":"900 Ray Lawson Boulevard","city":"Brampton","state":"ON","postal_code":"L6Y 5H7","latitude":43.6429174,"longitude":-79.7469265,"stars":1.0,"review_count":5,"is_open":1,"categories":"Pizza, Restaurants"}
{"business_id":"X_IOr7KQEJsYinPawg7oAg","name":"The Laser's Edge","address":"#103, 1608 17 Ave SW","city":"Calgary","state":"AB","postal_code":"T2T 0E3","latitude":51.0380807,"longitude":-114.0976359,"stars":5.0,"review_count":3,"is_open":1,"categories":"Hair Removal, Beauty & Spas"}
{"business_id":"I4ADugPUJJQJElQekgnY0Q","name":"Restaurant le Cactus","address":"4461 Rue Saint -Denis","city":"Montréal","state":"QC","postal_code":"H2J 2L2","latitude":45.523841,"longitude":-73.582299,"stars":3.5,"review_count":15,"is_open":0,"categories":"Restaurants, Mexican, Bars, Nightlife","hours":{"Friday":"12:0-23:0","Monday":"16:0-22:0","Saturday":"12:0-23:0","Sunday":"16:0-22:0","Thursday":"16:0-22:0","Tuesday":"16:0-22:0","Wednesday":"16:0-22:0"}}
{"business_id":"oWEFIvvt_kJCuk2V268XeQ","name":"Summit Garden Chinese","address":"3015 Winston Churchill Boulevard","city":"Mississauga","state":"ON","postal_code":"L5L 2V8","latitude":43.524095,"longitude":-79.6823651,"stars":3.0,"review_count":85,"is_open":1,"categories":"Restaurants, Chinese, Dim Sum","hours":{"Friday":"10:0-23:0","Monday":"10:0-23:0","Saturday":"9:0-23:0","Sunday":"9:0-23:0","Thursday":"10:0-23:0","Tuesday":"10:0-23:0","Wednesday":"10:0-23:0"}}
{"business_id":"BrGJGL4Y4xilpZ3IdfZCVA","name":"Madison Sports Injury and Rehabilitation Clinic","address":"4950 Yonge Street, Concourse Level, Unit 2","city":"Toronto","state":"ON","postal_code":"M2N 6K1","latitude":43.7650495,"longitude":-79.4119179,"stars":3.5,"review_count":3,"is_open":1,"categories":"Physical Therapy, Doctors, Chiropractors, Health & Medical, Naturopathic/Holistic, Acupuncture","hours":{"Friday":"8:0-17:0","Monday":"11:0-20:0","Thursday":"10:0-19:0","Tuesday":"8:0-15:0","Wednesday":"11:0-20:0"}}
{"business_id":"vIsMdsBQNJd66kSVYns_YQ","name":"Air Transat","address":"5959 Boulevard de la Côte-Vertu","city":"Saint-Laurent","state":"QC","postal_code":"H4S 2E6","latitude":45.479796,"longitude":-73.728988,"stars":2.5,"review_count":6,"is_open":1,"categories":"Transportation, Airlines, Hotels & Travel"}
{"business_id":"GZr47kxnbhB2L8bp0NpaCw","name":"Corbeil Appliances","address":"3050 Vega Boulevard, Unit 8B","city":"Mississauga","state":"ON","postal_code":"L5L 5X8","latitude":43.5144894,"longitude":-79.6921293,"stars":1.0,"review_count":3,"is_open":1,"categories":"Appliances, Shopping, Home & Garden","hours":{"Friday":"10:0-21:0","Monday":"10:0-21:0","Saturday":"10:0-18:0","Sunday":"11:0-18:0","Thursday":"10:0-21:0","Tuesday":"10:0-21:0","Wednesday":"10:0-21:0"}}
{"business_id":"MPy49gUd9JkVcHCEin03bw","name":"Lexus Of Royal Oak Calgary","address":"7677 112 Avenue NW","city":"Calgary","state":"AB","postal_code":"T3R 1R8","latitude":51.1536756035,"longitude":-114.19546053,"stars":4.0,"review_count":4,"is_open":1,"categories":"Car Dealers, Auto Parts & Supplies, Auto Repair, Automotive","hours":{"Friday":"9:0-18:0","Monday":"0:0-0:0","Saturday":"9:0-18:0","Thursday":"9:0-20:0","Tuesday":"9:0-20:0","Wednesday":"9:0-20:0"}}
{"business_id":"1RKSuFsvxZ0KiFfMpX3YZA","name":"Bliss & Co.","address":"728 Northmount Drive NW, 13 A","city":"Calgary","state":"AB","postal_code":"T2K 3K2","latitude":51.0824831,"longitude":-114.0922536,"stars":2.0,"review_count":4,"is_open":1,"categories":"Food, Bakeries","hours":{"Friday":"9:0-17:0","Monday":"9:0-17:0","Saturday":"9:0-17:0","Sunday":"9:0-17:0","Thursday":"9:0-17:0","Tuesday":"9:0-17:0","Wednesday":"9:0-17:0"}}
{"business_id":"VE8BouWadOixfUIljcdSZg","name":"Aqua Lunch Eaton","address":"705 Rue Sainte-Catherine O","city":"Montréal","state":"QC","postal_code":"H3B 4G5","latitude":45.502466,"longitude":-73.5713041,"stars":4.0,"review_count":5,"is_open":1,"categories":"Restaurants"}
{"business_id":"e8H_6IynA1X13PbJbQP-3A","name":"Maid Day Makeovers","address":"326 Brown's Line","city":"Etobicoke","state":"ON","postal_code":"M8W 3T6","latitude":43.5997506,"longitude":-79.5445862,"stars":2.0,"review_count":4,"is_open":1,"categories":"Home Cleaning, Home Services"}
{"business_id":"WOQNQx7SrMalJMXFENitpg","name":"Ravi Soup","address":"1533 Queen Street W","city":"Toronto","state":"ON","postal_code":"M6R 1A7","latitude":43.6393223111,"longitude":-79.4425679049,"stars":4.0,"review_count":9,"is_open":1,"categories":"Sandwiches, Soup, Restaurants"}
{"business_id":"mk7xgXuTVMfv4sH7GD2SoA","name":"Green Grotto","address":"8-3920 Grand Park Drive","city":"Mississauga","state":"ON","postal_code":"L5B 4M6","latitude":43.5799524,"longitude":-79.6468176,"stars":3.0,"review_count":93,"is_open":1,"categories":"Coffee & Tea, Food, Tea Rooms, Desserts","hours":{"Friday":"13:0-1:0","Monday":"13:0-0:0","Saturday":"13:0-1:0","Sunday":"13:0-0:0","Thursday":"13:0-0:0","Tuesday":"13:0-0:0","Wednesday":"13:0-0:0"}}
{"business_id":"OrGGV05yjScIPekmZkEwXg","name":"Veterinary Emergency Clinic","address":"117-920 Yonge St","city":"Toronto","state":"ON","postal_code":"M4W 3C7","latitude":43.6740354467,"longitude":-79.3896922979,"stars":3.0,"review_count":49,"is_open":1,"categories":"Pet Services, Veterinarians, Pets, Emergency Pet Hospital","hours":{"Friday":"0:0-0:0","Monday":"0:0-0:0","Saturday":"0:0-0:0","Sunday":"0:0-0:0","Thursday":"0:0-0:0","Tuesday":"0:0-0:0","Wednesday":"0:0-0:0"}}
{"business_id":"vXg8jQrYPGH7fTe2QoUMnA","name":"Concession Hyundai Chomedey","address":"2480 Boulevard Curé-Labelle","city":"Laval","state":"QC","postal_code":"H7T 1R1","latitude":45.5600399,"longitude":-73.7714186,"stars":2.5,"review_count":3,"is_open":1,"categories":"Car Dealers, Automotive, Auto Repair","hours":{"Friday":"9:0-21:0","Monday":"9:0-21:0","Saturday":"10:0-16:0","Thursday":"9:0-21:0","Tuesday":"9:0-21:0","Wednesday":"9:0-21:0"}}
{"business_id":"c_FTil8s5PS2l_YJDQAXhA","name":"Hogtown Pub & Oysters","address":"633 College Street W","city":"Toronto","state":"ON","postal_code":"M6G 3A7","latitude":43.6548045,"longitude":-79.4149935,"stars":4.0,"review_count":50,"is_open":1,"categories":"Restaurants, Bars, Seafood, Nightlife, Pubs","hours":{"Friday":"16:0-2:0","Monday":"16:0-1:0","Saturday":"16:0-2:0","Sunday":"16:0-1:0","Thursday":"16:0-2:0","Tuesday":"16:0-1:0","Wednesday":"16:0-1:0"}}
{"business_id":"9B2kV3k4t72mr-o4Ry_soQ","name":"Athens Pastries","address":"1681 Lakeshore Blvd E","city":"Toronto","state":"ON","postal_code":"M4L 3W6","latitude":43.6630924538,"longitude":-79.3107140268,"stars":3.5,"review_count":9,"is_open":0,"categories":"Bakeries, Food, Coffee & Tea","hours":{"Friday":"8:0-22:0","Monday":"8:0-22:0","Saturday":"8:0-22:0","Sunday":"8:0-22:0","Thursday":"8:0-22:0","Tuesday":"8:0-22:0","Wednesday":"8:0-22:0"}}
{"business_id":"bpO1ZGxUrD-oWLKEgmc9vA","name":"Camtec Photo","address":"495 Rue McGill","city":"Montréal","state":"QC","postal_code":"H2Y 2H4","latitude":45.5010853,"longitude":-73.5591719,"stars":4.5,"review_count":3,"is_open":1,"categories":"Hobby Shops, Shopping, Photography Stores & Services","hours":{"Friday":"9:0-18:0","Monday":"9:0-18:0","Saturday":"10:0-17:0","Thursday":"9:0-18:0","Tuesday":"9:0-18:0","Wednesday":"9:0-18:0"}}
{"business_id":"AozgNfsjP4SizYq5Zcs_LA","name":"Creme De La Creme","address":"181 Bay Street","city":"Toronto","state":"ON","postal_code":"M5J 2T3","latitude":43.6472616,"longitude":-79.3785998,"stars":2.5,"review_count":3,"is_open":1,"categories":"Shopping, Lingerie, Fashion, Swimwear","hours":{"Friday":"9:30-18:0","Monday":"9:30-18:0","Thursday":"9:30-18:0","Tuesday":"9:30-18:0","Wednesday":"9:30-18:0"}}
{"business_id":"Yw-R7D38MuDFNNcL6i-0Ww","name":"Thai Fusion Delight","address":"601 17 Avenue SW, Unit 105","city":"Calgary","state":"AB","postal_code":"T2S 0B3","latitude":51.0375463039,"longitude":-114.0745996829,"stars":4.5,"review_count":30,"is_open":0,"categories":"Restaurants, Thai","hours":{"Friday":"11:0-22:30","Monday":"11:0-22:30","Saturday":"16:0-22:30","Sunday":"11:0-22:30","Thursday":"11:0-22:30","Tuesday":"11:0-22:30","Wednesday":"11:0-22:30"}}
{"business_id":"MrqG_TzPLMRrob--EHNdOw","name":"Margo's","address":"2416 Lakeshore Boulevard","city":"Toronto","state":"ON","postal_code":"M8V 1C4","latitude":43.6146607077,"longitude":-79.4890733063,"stars":4.0,"review_count":5,"is_open":0,"categories":"Sandwiches, Poutineries, Restaurants, Cafes"}
{"business_id":"U8Uecw7AZPMuA4fkKbEd1A","name":"Pita Pit","address":"125 Lakeshore Road E","city":"Mississauga","state":"ON","postal_code":"L5G 1E5","latitude":43.5541339,"longitude":-79.5825489,"stars":3.5,"review_count":4,"is_open":1,"categories":"Event Planning & Services, Restaurants, Fast Food, Sandwiches, Caterers","hours":{"Friday":"10:0-23:0","Monday":"10:0-23:0","Saturday":"10:0-23:0","Sunday":"10:0-21:0","Thursday":"10:0-23:0","Tuesday":"10:0-23:0","Wednesday":"10:0-23:0"}}
{"business_id":"U50YoWOEmagNix2sbD-yMg","name":"Chez Cora","address":"5670 Rue Sherbrooke E","city":"Montréal","state":"QC","postal_code":"H1N 1A1","latitude":45.5725678,"longitude":-73.5486336,"stars":3.0,"review_count":15,"is_open":1,"categories":"French, Restaurants"}
{"business_id":"fM4bmkEW-4s3QTT1oKVlKw","name":"Stirling Room","address":"16 Trinity Street, Suite 100","city":"Toronto","state":"ON","postal_code":"M5A 3C4","latitude":43.6494849,"longitude":-79.3616439,"stars":4.5,"review_count":5,"is_open":1,"categories":"Lounges, Event Planning & Services, Venues & Event Spaces, Bars, Nightlife","hours":{"Friday":"22:0-3:0","Saturday":"22:0-3:0"}}
{"business_id":"DJTp8_qFr1mU_HMvvhk8Bw","name":"Culinaria Restaurant","address":"5732 Kennedy Road","city":"Mississauga","state":"ON","postal_code":"L4Z 1T1","latitude":43.6310117,"longitude":-79.6620767,"stars":4.5,"review_count":23,"is_open":1,"categories":"Restaurants, American (Traditional)","hours":{"Friday":"17:0-21:0","Monday":"17:0-21:0","Saturday":"17:0-21:0","Thursday":"17:0-21:0","Tuesday":"17:0-21:0","Wednesday":"17:0-21:0"}}
{"business_id":"2W3If040rgz34_ZO3c_SxA","name":"Boston Pizza","address":"100-5170 Yonge Street","city":"North York","state":"ON","postal_code":"M2N 0G1","latitude":43.769460064,"longitude":-79.4130655378,"stars":2.0,"review_count":32,"is_open":1,"categories":"Restaurants, Bars, Nightlife, Pizza, Sports Bars","hours":{"Friday":"11:0-2:0","Monday":"11:0-1:0","Saturday":"11:0-2:0","Sunday":"11:0-0:0","Thursday":"11:0-1:0","Tuesday":"11:0-1:0","Wednesday":"11:0-1:0"}}
{"business_id":"BWxGMT2wbAIEzrEjZNENRw","name":"Steeles - Yonge Animal Hospital","address":"180 Steeles Avenue W, Unit 15","city":"Thornhill","state":"ON","postal_code":"L3T 1A5","latitude":43.7977433,"longitude":-79.4263449,"stars":3.0,"review_count":4,"is_open":1,"categories":"Veterinarians, Pets","hours":{"Friday":"10:0-21:0","Monday":"9:0-19:0","Saturday":"10:0-17:0","Thursday":"10:0-17:0","Tuesday":"10:0-19:0","Wednesday":"9:0-19:0"}}
{"business_id":"COExayvsDDJOjWTOFZ7a4A","name":"Panafest","address":"2708 Jane Street, Unit 5","city":"Toronto","state":"ON","postal_code":"M3L 2E8","latitude":43.7420332,"longitude":-79.5143671,"stars":3.0,"review_count":5,"is_open":1,"categories":"African, Bars, Restaurants, Nightlife","hours":{"Friday":"13:0-2:0","Monday":"13:0-23:0","Saturday":"13:0-2:0","Sunday":"13:0-17:0","Thursday":"13:0-23:0","Tuesday":"13:0-23:0","Wednesday":"13:0-23:0"}}
