{"business_id":"Hnyd6ie_cxV_H1Vqv1v_Ew","name":"Aroma Espresso Bar","address":"365 Bloor Street E","city":"Toronto","state":"ON","postal_code":"M4W 3L4","latitude":43.6719155,"longitude":-79.3779708,"stars":4.0,"review_count":13,"is_open":1,"categories":"Sandwiches, Restaurants, Food, Coffee & Tea, Breakfast & Brunch","hours":{"Friday":"7:30-19:30","Monday":"7:30-19:30","Thursday":"7:30-19:30","Tuesday":"7:30-19:30","Wednesday":"7:30-19:30"}}
{"business_id":"qyLjLT8WqUQWRyUKeSxu8g","name":"Shopsy's","address":"7240 Woodbine Avenue, Suite 102","city":"Markham","state":"ON","postal_code":"L3R 1A4","latitude":43.8197869,"longitude":-79.3509435,"stars":3.0,"review_count":18,"is_open":0,"categories":"Sandwiches, Delis, Breakfast & Brunch, Event Planning & Services, Restaurants, Caterers"}
{"business_id":"6qNd-Hu4Xe9RVCFk-GQ1ww","name":"Sushi Kitchan Japanese Cuisine","address":"163 Quarry Park Boulevard SE, Suite 210","city":"Calgary","state":"AB","postal_code":"T2C 4J2","latitude":50.9630987,"longitude":-114.0113272,"stars":3.0,"review_count":3,"is_open":0,"categories":"Japanese, Sushi Bars, Restaurants"}
{"business_id":"mr-w96_vgHpfLmQtfFkkXw","name":"Oriental Phoenix Restaurant","address":"401 9 Avenue SW, Suite 105","city":"Calgary","state":"AB","postal_code":"T2P 3C5","latitude":51.0444388,"longitude":-114.0698895,"stars":3.0,"review_count":17,"is_open":1,"categories":"Chinese, Vietnamese, Restaurants","hours":{"Friday":"11:0-21:0","Monday":"11:0-21:0","Saturday":"17:0-21:0","Thursday":"11:0-21:0","Tuesday":"11:0-21:0","Wednesday":"11:0-21:0"}}
{"business_id":"3Q3s3q47wKlKrCjbw1mXUg","name":"Pointe-à-Callière - Musée d'Archéologie et d'Histoire","address":"350 Place Royale","city":"Montréal","state":"QC","postal_code":"H2Y 3Y5","latitude":45.5025678,"longitude":-73.5540592,"stars":4.0,"review_count":79,"is_open":1,"categories":"Museums, Arts & Entertainment","hours":{"Friday":"10:0-17:0","Saturday":"11:0-17:0","Sunday":"11:0-17:0","Thursday":"10:0-17:0","Tuesday":"10:0-17:0","Wednesday":"10:0-17:0"}}
{"business_id":"ukv7YSeP4MfXsap3nNwW2g","name":"University Smoke & Convenience & Passport Photos","address":"438 University Avenue","city":"Toronto","state":"ON","postal_code":"M5G 2K8","latitude":43.654350859,"longitude":-79.388923645,"stars":4.5,"review_count":3,"is_open":1,"categories":"Shopping, Session Photography, Tobacco Shops, Convenience Stores, Event Planning & Services, Food, Photographers, Photography Stores & Services","hours":{"Friday":"7:0-18:0","Monday":"7:0-18:0","Thursday":"7:0-18:0","Tuesday":"7:0-18:0","Wednesday":"7:0-18:0"}}
{"business_id":"dnuGf1lbgsnoFDJErsXPJw","name":"Flipp'n Burgers","address":"330 10 Street NW, Suite 103","city":"Calgary","state":"AB","postal_code":"T2N 1V8","latitude":51.0551759376,"longitude":-114.0857511386,"stars":3.5,"review_count":84,"is_open":1,"categories":"Vegetarian, Restaurants, Comfort Food, Burgers, Halal","hours":{"Friday":"11:0-1:0","Monday":"11:0-23:0","Saturday":"11:0-1:0","Sunday":"11:0-23:0","Thursday":"11:0-23:0","Tuesday":"11:0-23:0","Wednesday":"11:0-23:0"}}
{"business_id":"sBILjRQHd-sIVzPwrg-a9w","name":"Ichiban Living","address":"45 Overlea Boulevard","city":"Toronto","state":"ON","postal_code":"M4H 1C3","latitude":43.7056898,"longitude":-79.3460184,"stars":4.0,"review_count":5,"is_open":1,"categories":"Shopping, Discount Store"}
{"business_id":"3yc-pbA_-XeqXB3b-bPlgA","name":"Caractere Chinois (Le)","address":"1870 Gauthier Rue","city":"Montréal","state":"QC","postal_code":"H2K 1A3","latitude":45.5302165,"longitude":-73.5664987,"stars":3.5,"review_count":3,"is_open":1,"categories":"Restaurants"}
{"business_id":"9OD0pQ0QYa_7dO-LbOBFZQ","name":"Furama Cake and Desserts Garden","address":"248 Spadina Avenue","city":"Toronto","state":"ON","postal_code":"M5T 2C2","latitude":43.6515848,"longitude":-79.3978437,"stars":3.5,"review_count":37,"is_open":1,"categories":"Chinese, Food, Bakeries, Restaurants","hours":{"Friday":"8:0-19:0","Monday":"8:0-19:0","Saturday":"8:0-20:0","Sunday":"8:0-20:0","Thursday":"8:0-19:0","Tuesday":"8:0-19:0","Wednesday":"8:0-19:0"}}
{"business_id":"SYtvm5TWzdkh9iKZrWGa1g","name":"Beanwise Coffee Outlet","address":"1400 O'connor Drive, Unit 8-10","city":"Toronto","state":"ON","postal_code":"M4B 2T8","latitude":43.7130784,"longitude":-79.3078721,"stars":3.5,"review_count":6,"is_open":1,"categories":"Food, Coffee & Tea","hours":{"Friday":"9:0-19:0","Monday":"9:0-18:0","Saturday":"9:0-18:0","Sunday":"11:0-17:0","Thursday":"9:0-19:0","Tuesday":"9:0-18:0","Wednesday":"9:0-18:0"}}
{"business_id":"JlqISyo4or9DN9L9lNDVfA","name":"Scrumptious","address":"700 Elgin Mills Road E","city":"Richmond Hill","state":"ON","postal_code":"L4C 0H8","latitude":43.8940112,"longitude":-79.4205192,"stars":4.0,"review_count":22,"is_open":1,"categories":"Breakfast & Brunch, Canadian (New), Restaurants"}
{"business_id":"_s1zk-Oc7Rh_LLnFT86bFA","name":"Manestream","address":"2700 Dufferin Street, Unit 6","city":"Toronto","state":"ON","postal_code":"M6B 4J3","latitude":43.7012893942,"longitude":-79.4531687847,"stars":3.5,"review_count":3,"is_open":1,"categories":"Hair Extensions, Eyelash Service, Hair Salons, Blow Dry/Out Services, Beauty & Spas, Makeup Artists","hours":{"Friday":"10:0-19:0","Saturday":"9:0-17:0","Thursday":"10:0-19:0","Tuesday":"10:0-19:0","Wednesday":"10:0-19:0"}}
{"business_id":"E0ZBxYiCbmkTe3W0CxxEbw","name":"Restaurant Santa Lucia","address":"1264 Rue Stanley","city":"Montréal","state":"QC","postal_code":"H3B 2S7","latitude":45.499007,"longitude":-73.573094,"stars":3.5,"review_count":63,"is_open":1,"categories":"Pizza, Restaurants, Italian","hours":{"Friday":"11:0-23:0","Monday":"11:0-23:0","Saturday":"16:0-23:0","Sunday":"16:0-23:0","Thursday":"11:0-23:0","Tuesday":"11:0-23:0","Wednesday":"11:0-23:0"}}
{"business_id":"Cq2a8vEY-asQU5kJofB_2A","name":"Ask Computers","address":"111 Front Street E","city":"Toronto","state":"ON","postal_code":"M5A 4S5","latitude":43.6495011,"longitude":-79.3709063,"stars":4.5,"review_count":44,"is_open":1,"categories":"Mobile Phone Repair, Local Services, Mobile Phones, Shopping, Data Recovery, IT Services & Computer Repair, Electronics Repair, Computers","hours":{"Friday":"10:0-19:0","Monday":"12:0-18:0","Saturday":"11:0-16:0","Sunday":"14:0-18:0","Thursday":"10:0-19:0","Tuesday":"10:30-19:0","Wednesday":"10:0-19:0"}}
{"business_id":"NYwKqpl5k_8NIs1oB2B46Q","name":"Stitchy Lizard Embroidery & Digitizing","address":"171 E Liberty Street, Unit 137","city":"Toronto","state":"ON","postal_code":"M6K 1W9","latitude":43.6381221,"longitude":-79.4181561,"stars":3.5,"review_count":3,"is_open":1,"categories":"Graphic Design, Shopping, Professional Services, Local Services, Printing Services","hours":{"Friday":"9:0-17:0","Monday":"9:0-18:0","Thursday":"9:0-18:0","Tuesday":"9:0-18:0","Wednesday":"9:0-18:0"}}
{"business_id":"YVYLNqFMW9dxv-wMbJ0fOA","name":"Complexe Desjardins","address":"150 Rue Sainte-Catherine O","city":"Montréal","state":"QC","postal_code":"H2X 3Y2","latitude":45.507148,"longitude":-73.563709,"stars":3.5,"review_count":29,"is_open":1,"categories":"Shopping, Fashion, Department Stores, Shopping Centers","hours":{"Friday":"9:30-21:0","Monday":"9:30-18:0","Saturday":"9:30-17:0","Sunday":"12:0-17:0","Thursday":"9:30-21:0","Tuesday":"9:30-18:0","Wednesday":"9:30-18:0"}}
{"business_id":"gg62odhAf0bHAvCaTaaEhQ","name":"Treehouse Play Centre","address":"9688 Leslie Street","city":"Richmond Hill","state":"ON","postal_code":"L4B 4C4","latitude":43.8729182,"longitude":-79.3900656,"stars":4.5,"review_count":9,"is_open":1,"categories":"Food, Coffee & Tea, Summer Camps, Cafes, Active Life, Playgrounds, Kids Activities, Event Planning & Services, Restaurants, Venues & Event Spaces, Party & Event Planning","hours":{"Friday":"9:30-13:30","Monday":"0:0-0:0","Thursday":"9:30-13:30","Tuesday":"9:30-13:30","Wednesday":"9:30-13:30"}}
{"business_id":"zOMR5CsyC-LrLSFDgwrcyQ","name":"Starbucks","address":"373 King Street W","city":"Toronto","state":"ON","postal_code":"M5V 1J6","latitude":43.6458685168,"longitude":-79.3929583579,"stars":4.0,"review_count":5,"is_open":1,"categories":"Food, Coffee & Tea","hours":{"Friday":"6:30-20:30","Monday":"6:30-20:30","Saturday":"7:0-20:30","Sunday":"7:30-20:30","Thursday":"6:30-20:30","Tuesday":"6:30-20:30","Wednesday":"6:30-20:30"}}
{"business_id":"UyeTMOhe7Ed2uFCgXtsT_A","name":"The Hoxton","address":"69 Bathurst Street","city":"Toronto","state":"ON","postal_code":"M5V 1M5","latitude":43.6435899,"longitude":-79.4022922,"stars":2.5,"review_count":39,"is_open":0,"categories":"Dance Clubs, Nightlife, Music Venues, Bars, Arts & Entertainment","hours":{"Friday":"22:0-2:0","Saturday":"22:0-2:0","Sunday":"22:0-2:0"}}
{"business_id":"vCFIhkndnlmJg5-Uz6N_dQ","name":"Ste-Catherine & Burger","address":"71 Rue Sainte-Catherine Est","city":"Montréal","state":"QC","postal_code":"H2X 1K6","latitude":45.510784,"longitude":-73.5633278,"stars":3.5,"review_count":11,"is_open":1,"categories":"Restaurants, Fast Food, Nightlife, Bars, Gastropubs, Burgers","hours":{"Friday":"11:0-16:0","Monday":"11:0-16:0","Saturday":"8:0-16:0","Sunday":"8:0-16:0","Thursday":"11:0-16:0","Tuesday":"11:0-16:0","Wednesday":"11:0-16:0"}}
{"business_id":"mgDsppcIGjIi2NsmC-r01A","name":"L'Opéra 榴槤芝香","address":"280  Beaver Creek Road W, Unit 10","city":"Richmond Hill","state":"ON","postal_code":"L4B 3B1","latitude":43.8439761,"longitude":-79.3878015,"stars":2.0,"review_count":5,"is_open":1,"categories":"Food, Specialty Food, Macarons, Patisserie/Cake Shop, Desserts","hours":{"Friday":"12:0-21:0","Saturday":"12:0-21:0","Sunday":"12:0-19:0","Thursday":"12:0-19:30","Tuesday":"12:0-19:30","Wednesday":"12:0-19:30"}}
{"business_id":"InKdWLxFszKmNlAz0PnmZQ","name":"Sassy's Family Restaurant","address":"936 Eglinton Avenue W","city":"Toronto","state":"ON","postal_code":"M6C 2C2","latitude":43.7005187,"longitude":-79.4284633,"stars":3.5,"review_count":5,"is_open":1,"categories":"Breakfast & Brunch, Modern European, Restaurants","hours":{"Friday":"9:0-16:0","Saturday":"9:0-16:0","Sunday":"9:0-16:0","Thursday":"9:0-16:0","Tuesday":"9:0-16:0","Wednesday":"9:0-16:0"}}
{"business_id":"KcvXJFM0yjBQSncL3LT1Ew","name":"Finatics Aquarium","address":"599 Kennedy Road","city":"Scarborough","state":"ON","postal_code":"M1K 2B2","latitude":43.7244853,"longitude":-79.2646661,"stars":3.5,"review_count":3,"is_open":1,"categories":"Pet Stores, Pets"}
{"business_id":"C2C37kwDZ332qwlx_Cg4nw","name":"Wanda's Waffles Bakery - Espresso Bar","address":"505 Highway 7 E, Units 10 and 11","city":"Markham","state":"ON","postal_code":"L3T 7T1","latitude":43.8420875,"longitude":-79.3859893,"stars":3.0,"review_count":18,"is_open":0,"categories":"Cafes, Hookah Bars, Desserts, Food, Belgian, Restaurants, Bars, Nightlife","hours":{"Friday":"9:0-0:0","Monday":"9:0-0:0","Saturday":"10:0-0:0","Sunday":"10:0-0:0","Thursday":"9:0-0:0","Tuesday":"9:0-0:0","Wednesday":"9:0-0:0"}}
{"business_id":"UtwSqYNAEIM4fqtSwyvYxQ","name":"BottleHouse","address":"102 10th Street NW","city":"Calgary","state":"AB","postal_code":"T2N 1V3","latitude":51.0522069,"longitude":-114.0855119,"stars":3.5,"review_count":30,"is_open":0,"categories":"Beer, Wine & Spirits, Restaurants, Nightlife, Gastropubs, Bars, Burgers, Breakfast & Brunch, Pubs, Food","hours":{"Friday":"11:0-2:0","Monday":"16:0-2:0","Saturday":"10:30-1:0","Sunday":"10:30-1:0","Thursday":"11:0-2:0","Tuesday":"16:0-2:0","Wednesday":"11:0-2:0"}}
{"business_id":"UfNTlvEJCOQ7XDRj0LzEtQ","name":"Lettieri Expression Bar","address":"2901 Bayview Avenue","city":"Toronto","state":"ON","postal_code":"M2N 5Z7","latitude":43.7692924,"longitude":-79.3886264,"stars":3.0,"review_count":12,"is_open":1,"categories":"Food, Nightlife, Coffee & Tea, Bars"}
{"business_id":"GBCs0LMF006Z2Ri2GEAl3Q","name":"Fit For Life Fresh Food","address":"5100 Erin Mills Parkway","city":"Mississauga","state":"ON","postal_code":"L5M 4Z5","latitude":43.5586447,"longitude":-79.7115912,"stars":4.5,"review_count":8,"is_open":1,"categories":"Mediterranean, Restaurants"}
{"business_id":"To6Vw00Nm2WZlrGROnJVwA","name":"Concept-1","address":"18 Highfield Circle SE","city":"Calgary","state":"AB","postal_code":"T2G 5N5","latitude":51.0133156,"longitude":-114.0459273,"stars":3.5,"review_count":6,"is_open":1,"categories":"Auto Repair, Automotive"}
{"business_id":"kNZJMnTNXj42EfUGX3eRcw","name":"Los Chicos Brasa","address":"7595 Markham Road, Unit 15","city":"Markham","state":"ON","postal_code":"L3S 0B6","latitude":43.8503882,"longitude":-79.2539052,"stars":4.0,"review_count":119,"is_open":0,"categories":"Chicken Wings, Brazilian, Specialty Food, Latin American, Barbeque, Restaurants, Peruvian, Food, Ethnic Food","hours":{"Friday":"12:0-22:0","Monday":"12:0-22:0","Saturday":"12:0-22:0","Sunday":"12:0-22:0","Thursday":"12:0-22:0","Tuesday":"12:0-22:0","Wednesday":"12:0-22:0"}}
{"business_id":"awjEi5r_zH_Colz-P7DnNg","name":"Express Vietnamese Subs and Deli","address":"918C 5th Avenue SW","city":"Calgary","state":"AB","postal_code":"T2P 0N7","latitude":51.048969,"longitude":-114.0820846,"stars":4.0,"review_count":4,"is_open":1,"categories":"Sandwiches, Delis, Restaurants, Vietnamese"}
{"business_id":"Bus8twR5Z8mV6krJ2cxy1A","name":"The Carlu","address":"444 Yonge Street","city":"Toronto","state":"ON","postal_code":"M5B 2H4","latitude":43.660699,"longitude":-79.3835531,"stars":4.0,"review_count":6,"is_open":1,"categories":"Event Planning & Services, Venues & Event Spaces","hours":{"Friday":"9:0-17:0","Monday":"9:0-17:0","Thursday":"9:0-17:0","Tuesday":"9:0-17:0","Wednesday":"9:0-17:0"}}
{"business_id":"AVii84Yaj5j-AlWpLWqj1Q","name":"La Paloma","address":"3401 Dufferin St, Yorkdale Mall","city":"Toronto","state":"ON","postal_code":"M6A 2V0","latitude":43.7260638,"longitude":-79.4552035,"stars":2.0,"review_count":6,"is_open":1}
{"business_id":"Mm5FCrANv-m4elajll459g","name":"Solara Mediterranean Bistro","address":"1731 Lakshore Road West","city":"Mississauga","state":"ON","postal_code":"L5J 1J4","latitude":43.5176223,"longitude":-79.6227038,"stars":4.0,"review_count":3,"is_open":0,"categories":"Restaurants, Modern European","hours":{"Friday":"11:30-22:0","Monday":"11:30-22:0","Saturday":"11:30-23:0","Sunday":"12:30-22:0","Thursday":"11:30-22:0","Tuesday":"11:30-22:0","Wednesday":"11:30-22:0"}}
{"business_id":"KtTGZzxV6DSNuCn-6T3NcA","name":"Stella's Lunchbox","address":"145 Lauder Street","city":"Toronto","state":"ON","postal_code":"M6H 3E5","latitude":43.6784071,"longitude":-79.439569,"stars":4.0,"review_count":9,"is_open":1,"categories":"Cafes, Sandwiches, Restaurants"}
{"business_id":"JjFh-dRodOacMJf90Z__vw","name":"Complete Balance Neuro Acupuncture & Rehab","address":"1100 Sheppard Avenue E, Unit 309","city":"Toronto","state":"ON","postal_code":"M2K 2W1","latitude":43.7712088,"longitude":-79.3698556,"stars":4.5,"review_count":5,"is_open":1,"categories":"Weight Loss Centers, Traditional Chinese Medicine, Massage, Health & Medical, Acupuncture, Beauty & Spas, Tui Na, Massage Therapy, Physical Therapy","hours":{"Friday":"9:0-17:0","Monday":"9:0-19:0","Saturday":"9:0-17:0","Thursday":"9:0-19:0","Tuesday":"9:0-19:0","Wednesday":"9:0-19:0"}}
{"business_id":"VExGLLXKG98og6pLFcOK4w","name":"Tandoori Hut","address":"217 10 Street NW","city":"Calgary","state":"AB","postal_code":"T2N 1V5","latitude":51.0532669,"longitude":-114.0861096,"stars":3.0,"review_count":13,"is_open":0,"categories":"Indian, Pakistani, Middle Eastern, Restaurants"}
{"business_id":"Sq7ByOUvcH0QbuPWlnQKNw","name":"L & J Cycle","address":"1144 Davenport Rd","city":"Toronto","state":"ON","postal_code":"M6G 2C6","latitude":43.674804,"longitude":-79.431162,"stars":4.5,"review_count":3,"is_open":0,"categories":"Sporting Goods, Shopping, Bikes"}
{"business_id":"tUn-2ESaHR9Pb8JBp3ia9w","name":"Good Earth Coffeehouse","address":"113-104 Country Village Road NE","city":"Calgary","state":"AB","postal_code":"T3K 2K9","latitude":51.1609303028,"longitude":-114.068202561,"stars":4.0,"review_count":6,"is_open":1,"categories":"Coffee & Tea, Bakeries, Food, Food Delivery Services, Restaurants, Cafes, Sandwiches","hours":{"Friday":"6:30-21:30","Monday":"6:30-21:30","Saturday":"7:0-21:0","Sunday":"8:0-20:0","Thursday":"6:30-21:30","Tuesday":"6:30-21:30","Wednesday":"6:30-21:30"}}
{"business_id":"Y17xY2L-Gd5Lph0mRxjFcA","name":"Kinatex Sports Physio Centre-Ville","address":"1538 Rue Sherbrooke O, Suite 600","city":"Montréal","state":"QC","postal_code":"H3G 1L5","latitude":45.4966205,"longitude":-73.5814015,"stars":3.5,"review_count":3,"is_open":1,"categories":"Health & Medical, Physical Therapy, Acupuncture, Doctors, Sports Medicine, Osteopathic Physicians","hours":{"Friday":"7:30-20:0","Monday":"7:30-20:0","Saturday":"8:0-16:0","Thursday":"7:30-20:0","Tuesday":"7:30-20:0","Wednesday":"7:30-20:0"}}
{"business_id":"UDUU8255-h74jV5MXkw-jg","name":"U-Haul Neighborhood Dealer","address":"999 Danforth Ave","city":"Toronto","state":"ON","postal_code":"M4J 1M1","latitude":43.6804433,"longitude":-79.3366224,"stars":2.5,"review_count":7,"is_open":1,"categories":"Self Storage, Local Services, Automotive, Truck Rental","hours":{"Friday":"8:0-19:0","Monday":"8:0-19:0","Saturday":"8:0-18:0","Sunday":"8:0-17:0","Thursday":"8:0-19:0","Tuesday":"8:0-19:0","Wednesday":"8:0-19:0"}}
{"business_id":"MAvCCfjmQSMpSP9IjbCVJA","name":"Crown Pastries","address":"5083 Dixie Rd, Unt D3","city":"Mississauga","state":"ON","postal_code":"L4W 0E6","latitude":43.6380648687,"longitude":-79.6218215302,"stars":5.0,"review_count":4,"is_open":1,"categories":"Food, Bakeries, Restaurants, Patisserie/Cake Shop, Middle Eastern","hours":{"Friday":"9:0-22:0","Monday":"9:0-22:0","Saturday":"9:0-22:0","Sunday":"9:0-22:0","Thursday":"9:0-22:0","Tuesday":"9:0-22:0","Wednesday":"9:0-22:0"}}
{"business_id":"m34S3rkKc2v9zCohTPi6bQ","name":"Metcap Living","address":"1485 Williamsport Drive","city":"Mississauga","state":"ON","postal_code":"L4X 1T6","latitude":43.619618,"longitude":-79.5937472,"stars":1.0,"review_count":3,"is_open":1,"categories":"Real Estate, Property Management, Home Services"}
{"business_id":"Kesics30m3QqLKzkueuMtQ","name":"Tiffany Nails","address":"362 Bloor Street W","city":"Toronto","state":"ON","postal_code":"M5S 1X2","latitude":43.6664219,"longitude":-79.4056046,"stars":2.5,"review_count":19,"is_open":1,"categories":"Nail Salons, Beauty & Spas"}
{"business_id":"0g2TwVV417Whsh4qQNK9_Q","name":"Stella's Corset","address":"897 Wilson Avenue","city":"North York","state":"ON","postal_code":"M3K 1E6","latitude":43.7302366,"longitude":-79.4671648,"stars":4.0,"review_count":4,"is_open":1,"categories":"Fashion, Shopping, Women's Clothing, Lingerie","hours":{"Friday":"9:30-19:0","Monday":"9:30-19:0","Saturday":"9:30-19:0","Sunday":"11:0-17:0","Thursday":"9:30-19:0","Tuesday":"9:30-19:0","Wednesday":"9:30-19:0"}}
{"business_id":"Z8weU2wOCcxR6FcvraQyfA","name":"Grooming Tails","address":"3765 Lake Shore Boulevard W","city":"Etobicoke","state":"ON","postal_code":"M8W 1R1","latitude":43.5925755,"longitude":-79.541052,"stars":3.5,"review_count":3,"is_open":0,"categories":"Pet Services, Pets"}
{"business_id":"DKnStp3UnkY6-fiZHMp8yw","name":"Olly Fresco's","address":"624 Rue Saint-Catherine Ouest, Unit 1620","city":"Montréal","state":"QC","postal_code":"H3B 1B7","latitude":45.5035416,"longitude":-73.5694342,"stars":4.0,"review_count":20,"is_open":1,"categories":"Food, Grocery, Vegan, Seafood Markets, Restaurants, Specialty Food, Vegetarian","hours":{"Friday":"7:0-18:0","Monday":"7:0-18:0","Thursday":"7:0-18:0","Tuesday":"7:0-18:0","Wednesday":"7:0-18:0"}}
{"business_id":"VjezVp9hX0JYu8i986EmNQ","name":"Rob Gordy's Boot Camp Toronto","address":"66 Gerrard Street E, Suite 305","city":"Toronto","state":"ON","postal_code":"M5B 2M2","latitude":43.6600471,"longitude":-79.3788023,"stars":4.0,"review_count":8,"is_open":1,"categories":"Weight Loss Centers, Health & Medical, Active Life, Trainers, Gyms, Fitness & Instruction","hours":{"Friday":"16:45-20:0","Monday":"16:45-20:0","Saturday":"9:0-12:0","Sunday":"10:45-13:0","Thursday":"16:45-21:0","Tuesday":"16:45-21:0","Wednesday":"16:45-20:0"}}
{"business_id":"VBCR0KKjFfzfcvV36KnkhA","name":"Restaurant Amir","address":"38 Du Commerce Place","city":"Verdun","state":"QC","postal_code":"H3E 1T8","latitude":45.4674737,"longitude":-73.5415261,"stars":4.0,"review_count":3,"is_open":1,"categories":"Restaurants, Middle Eastern"}
{"business_id":"zNAWd2LyP1kcoHZeXRmZ5w","name":"College St. Q","address":"177 College Street","city":"Toronto","state":"ON","postal_code":"M5T 1P7","latitude":43.6589452,"longitude":-79.3941206,"stars":4.5,"review_count":10,"is_open":0,"categories":"Restaurants, Comfort Food","hours":{"Friday":"11:0-23:30","Monday":"11:0-21:30","Saturday":"11:0-23:30","Thursday":"11:0-23:30","Tuesday":"11:0-21:30","Wednesday":"11:0-21:30"}}
{"business_id":"P4CLzqfmHa7v7siLod7MRQ","name":"Restaurant Épicerie Jean-guy","address":"1151 Rue de Laprairie","city":"Montréal","state":"QC","postal_code":"H3K 2V6","latitude":45.4800444,"longitude":-73.5651036,"stars":4.0,"review_count":6,"is_open":1,"categories":"Asian Fusion, Restaurants"}
{"business_id":"LNrDNdnCjgZXWeFefD4rpg","name":"TNT Women's","address":"87 Avenue Road","city":"Toronto","state":"ON","postal_code":"M4W 1A7","latitude":43.672027,"longitude":-79.395339,"stars":2.5,"review_count":7,"is_open":1,"categories":"Shopping, Women's Clothing, Fashion, Men's Clothing"}
{"business_id":"ERnG-1q3igX3VSgm5uLZ6A","name":"Pizza e Pazzi","address":"1182 St Clair Avenue W","city":"Toronto","state":"ON","postal_code":"M6E 1B4","latitude":43.677983,"longitude":-79.443872,"stars":3.5,"review_count":69,"is_open":1,"categories":"Restaurants, Pizza, Italian, Food","hours":{"Friday":"12:0-23:0","Monday":"0:0-0:0","Saturday":"12:0-23:0","Sunday":"11:0-15:30","Thursday":"17:0-22:0","Tuesday":"17:0-22:0","Wednesday":"17:0-22:0"}}
{"business_id":"cU_RxiJVwoWnKJ65Nmoqhw","name":"Rôtisserie Corfou","address":"2 Rue Sherbrooke E","city":"Montréal","state":"QC","postal_code":"H2X 1C2","latitude":45.5125261,"longitude":-73.5691995,"stars":4.5,"review_count":18,"is_open":1,"categories":"Barbeque, Restaurants, Chicken Shop, Greek","hours":{"Friday":"11:0-4:0","Monday":"11:0-23:0","Saturday":"11:0-4:0","Sunday":"11:0-23:0","Thursday":"11:0-23:0","Tuesday":"11:0-23:0","Wednesday":"11:0-23:0"}}
{"business_id":"YF8HRRyDdEglMg9gz-tJMA","name":"KFC","address":"636 Bloor Street W","city":"Toronto","state":"ON","postal_code":"M6G 1K7","latitude":43.6645514,"longitude":-79.4146601,"stars":3.5,"review_count":8,"is_open":1,"categories":"Fast Food, American (Traditional), Mexican, Chicken Shop, Chicken Wings, Restaurants","hours":{"Friday":"11:0-22:0","Monday":"11:0-22:0","Saturday":"11:0-22:0","Sunday":"11:0-22:0","Thursday":"11:0-22:0","Tuesday":"11:0-22:0","Wednesday":"11:0-22:0"}}
{"business_id":"qs_RNSArfm1LFx3sAopG4w","name":"Bella Nails Boutique and Spa","address":"12 Woodstream Boulevard","city":"Woodbridge","state":"ON","postal_code":"L4L 8C3","latitude":43.7761899323,"longitude":-79.6059301123,"stars":4.0,"review_count":9,"is_open":1,"categories":"Nail Salons, Eyelash Service, Hair Removal, Waxing, Beauty & Spas","hours":{"Friday":"10:0-19:30","Monday":"10:0-19:30","Saturday":"9:30-18:0","Thursday":"10:0-19:30","Tuesday":"10:0-19:30","Wednesday":"10:0-19:30"}}
{"business_id":"hYkBbtN1nm-yZ0vKA2AS9Q","name":"SML Graphic Solutions","address":"260 Carlaw Avenue, Suite 102","city":"Toronto","state":"ON","postal_code":"M4M 3L1","latitude":43.6629692,"longitude":-79.3410569,"stars":4.5,"review_count":7,"is_open":1,"categories":"Professional Services, Print Media, Mass Media, Local Services, Graphic Design, Printing Services","hours":{"Friday":"8:30-16:30","Monday":"8:30-16:30","Thursday":"8:30-16:30","Tuesday":"8:30-16:30","Wednesday":"8:30-16:30"}}
{"business_id":"HSubzsfrN1v7cKyMPhGGsg","name":"Longboard Haven","address":"183 Queen Street E","city":"Toronto","state":"ON","postal_code":"M5A 1S2","latitude":43.653972,"longitude":-79.3714952,"stars":4.5,"review_count":7,"is_open":1,"categories":"Sports Wear, Active Life, Fashion, Sporting Goods, Shopping","hours":{"Friday":"12:0-19:0","Saturday":"12:0-18:0","Sunday":"12:0-17:0","Thursday":"12:0-19:0","Tuesday":"12:0-19:0","Wednesday":"12:0-19:0"}}
{"business_id":"PXN0l42g6IWp18NGJ7yn5w","name":"Hey Lucy","address":"295 King St. W.","city":"Toronto","state":"ON","postal_code":"M5V 1J5","latitude":43.6463276,"longitude":-79.3901316,"stars":3.5,"review_count":180,"is_open":1,"categories":"Breakfast & Brunch, Sandwiches, Italian, Bars, Lounges, Cafes, Nightlife, Pizza, Restaurants","hours":{"Friday":"11:30-2:0","Monday":"16:0-23:30","Saturday":"11:30-2:0","Sunday":"11:30-22:0","Thursday":"11:30-0:0","Tuesday":"11:30-23:30","Wednesday":"11:30-2:0"}}
{"business_id":"a6FJ9HcERvtGF4PYILF_fA","name":"Pantages Hotel Toronto Centre","address":"200 Victoria St","city":"Toronto","state":"ON","postal_code":"M5B 2R3","latitude":43.6545905,"longitude":-79.3789864,"stars":2.5,"review_count":63,"is_open":1,"categories":"Hotels, Beauty & Spas, Day Spas, Hotels & Travel, Event Planning & Services"}
{"business_id":"AQ4LVzYMVRGBIud25mWZEQ","name":"Mi Pueblo","address":"4 Bradstock Rd","city":"North York","state":"ON","postal_code":"M9M 1M8","latitude":43.739054,"longitude":-79.5392325,"stars":4.0,"review_count":16,"is_open":1,"categories":"Latin American, Restaurants"}
{"business_id":"ro5yPt0LgSpEeVQ-qHWCtg","name":"Souvlaki Guys","address":"6 Fairlawn Avenue","city":"Toronto","state":"ON","postal_code":"M5M 1S7","latitude":43.7307442883,"longitude":-79.4041932479,"stars":4.5,"review_count":7,"is_open":1,"categories":"Restaurants, Greek","hours":{"Friday":"11:0-21:0","Monday":"11:0-21:0","Saturday":"11:0-21:0","Sunday":"16:0-21:0","Thursday":"11:0-21:0","Tuesday":"11:0-21:0","Wednesday":"11:0-21:0"}}
{"business_id":"kUEBUoKxJLhgs2Bp_gN_7w","name":"Subway","address":"Tuscany Village Shopping Ctr, 11300 Tuscany Blvd NW, Unit 1070","city":"Calgary","state":"AB","postal_code":"T3L 2V7","latitude":51.1241175247,"longitude":-114.2487672076,"stars":1.0,"review_count":3,"is_open":1,"categories":"Sandwiches, Fast Food, Restaurants","hours":{"Friday":"7:0-22:0","Monday":"7:0-21:0","Saturday":"9:0-22:0","Sunday":"9:0-21:0","Thursday":"7:0-22:0","Tuesday":"7:0-21:0","Wednesday":"7:0-22:0"}}
{"business_id":"Haiav23teCxZ9dSj_TjDlw","name":"Just White Shirts","address":"1991 Leslie Street","city":"Toronto","state":"ON","postal_code":"M3B 2M3","latitude":43.759629,"longitude":-79.3609783,"stars":2.5,"review_count":6,"is_open":1,"categories":"Shopping, Men's Clothing, Fashion","hours":{"Friday":"9:0-19:0","Monday":"9:0-19:0","Saturday":"10:0-18:0","Sunday":"12:0-17:0","Thursday":"9:0-19:0","Tuesday":"9:0-19:0","Wednesday":"9:0-19:0"}}
{"business_id":"WH6TE8U3B5BLRU2Ih4b4mw","name":"Falasca","address":"2059 Yonge Street","city":"Toronto","state":"ON","postal_code":"M4S 2A2","latitude":43.7020135,"longitude":-79.3972851,"stars":4.0,"review_count":51,"is_open":0,"categories":"Restaurants, Food, Italian","hours":{"Friday":"17:30-23:0","Saturday":"17:30-23:0","Sunday":"11:0-16:30","Thursday":"17:30-22:0","Tuesday":"17:30-22:0","Wednesday":"17:30-22:0"}}
{"business_id":"UoHOq4VMtJT62hYAVQJMUg","name":"Costa S Mobile","address":"133 Midwest Road","city":"Scarborough","state":"ON","postal_code":"M1P 3A6","latitude":43.7551599,"longitude":-79.2683004,"stars":1.0,"review_count":3,"is_open":1,"categories":"Automotive, Auto Repair","hours":{"Friday":"8:30-18:30","Monday":"8:30-18:30","Saturday":"9:0-14:0","Thursday":"8:30-18:30","Tuesday":"8:30-18:30","Wednesday":"8:30-18:30"}}
{"business_id":"vbZA89K-HNDID98Kc9YkJQ","name":"EJ Pratt Libary","address":"71 Queen's Park Cres E","city":"Toronto","state":"ON","postal_code":"M5S 1K7","latitude":43.6666730791,"longitude":-79.3912459851,"stars":4.5,"review_count":7,"is_open":1,"categories":"Public Services & Government, Libraries","hours":{"Friday":"8:30-23:30","Monday":"8:30-23:30","Saturday":"10:0-23:30","Sunday":"10:0-23:30","Thursday":"8:30-23:30","Tuesday":"8:30-23:30","Wednesday":"8:30-23:30"}}
{"business_id":"A5gvokhGSr0f4jzW86gpeA","name":"Tommy Gun's Original Barbershop","address":"Southcentre Mall, 100 Anderson Road SE, Unit 8A","city":"Calgary","state":"AB","postal_code":"T2J 3V1","latitude":50.9525539,"longitude":-114.0662572,"stars":3.0,"review_count":17,"is_open":1,"categories":"Barbers, Beauty & Spas","hours":{"Friday":"9:30-21:0","Monday":"9:30-21:0","Saturday":"9:30-20:0","Sunday":"10:30-18:0","Thursday":"9:30-21:0","Tuesday":"9:30-21:0","Wednesday":"9:30-21:0"}}
{"business_id":"aYE3ARaHRuk5GQ4K5FNqvw","name":"Sushi Ai","address":"1110 Panatella Blvd NW, Ste 750","city":"Calgary","state":"AB","postal_code":"T3K 0S6","latitude":51.167014,"longitude":-114.089651,"stars":4.0,"review_count":11,"is_open":1,"categories":"Restaurants, Sushi Bars"}
{"business_id":"g7ihFxbKjtxYGQGF31xcSQ","name":"Salon Vivace","address":"110 Cumberland Street","city":"Toronto","state":"ON","postal_code":"M5R 1A6","latitude":43.6702802,"longitude":-79.3915381,"stars":5.0,"review_count":4,"is_open":0,"categories":"Beauty & Spas, Barbers, Hair Salons"}
{"business_id":"VGSfMoq-zNMgnFcMtEzLlg","name":"K & L Auto Sales","address":"4699 Keele Street","city":"North York","state":"ON","postal_code":"M3J 2N8","latitude":43.774638,"longitude":-79.4931454,"stars":3.5,"review_count":3,"is_open":1,"categories":"Automotive, Car Dealers","hours":{"Friday":"10:0-18:0","Monday":"10:0-20:0","Saturday":"10:0-17:0","Sunday":"12:0-16:0","Thursday":"10:0-20:0","Tuesday":"10:0-20:0","Wednesday":"10:0-20:0"}}
{"business_id":"kcF4zNo7dLECwHml9GOv_A","name":"Barre Body Studio","address":"1202 20th Avenue SE","city":"Calgary","state":"AB","postal_code":"T2G 3G2","latitude":51.035672,"longitude":-114.0367654,"stars":5.0,"review_count":10,"is_open":1,"categories":"Opera & Ballet, Yoga, Fitness & Instruction, Dance Studios, Pilates, Arts & Entertainment, Active Life","hours":{"Friday":"17:0-19:0","Monday":"16:30-21:0","Saturday":"8:0-13:0","Sunday":"16:0-18:0","Thursday":"16:30-20:30","Tuesday":"16:30-20:30","Wednesday":"16:30-21:0"}}
{"business_id":"jeC-gLw7vmD52JXdgPqxNw","name":"La Baraque du Vieux","address":"401 Rue Saint-Vincent","city":"Montréal","state":"QC","postal_code":"H2Y 3A4","latitude":45.5070102221,"longitude":-73.5529145971,"stars":4.0,"review_count":15,"is_open":1,"categories":"Nightlife, Food, Sports Bars, Food Delivery Services, Bars, Canadian (New), Pizza, Restaurants","hours":{"Friday":"8:30-3:0","Monday":"8:30-22:0","Saturday":"8:30-3:0","Sunday":"8:30-23:0","Thursday":"8:30-1:0","Tuesday":"8:30-23:0","Wednesday":"8:30-1:0"}}
{"business_id":"RJ6M-EsuuZAZkoIjqH9gmQ","name":"Jenny Haircut","address":"9737 Yonge Street","city":"Richmond Hill","state":"ON","postal_code":"L4C 8S7","latitude":43.8643271,"longitude":-79.434961,"stars":1.0,"review_count":3,"is_open":1,"categories":"Beauty & Spas, Hair Salons","hours":{"Monday":"10:0-19:0","Saturday":"10:0-18:0","Thursday":"10:0-19:0","Tuesday":"10:0-19:0"}}
{"business_id":"g1j8COaztNostGlxssCCVA","name":"Pastissima","address":"2633 Yonge Street","city":"Toronto","state":"ON","postal_code":"M4P 2J6","latitude":43.7153388,"longitude":-79.3999542,"stars":4.0,"review_count":8,"is_open":0,"categories":"Salad, Italian, Sandwiches, Restaurants, Food","hours":{"Friday":"9:0-19:0","Monday":"9:0-19:0","Saturday":"10:0-18:0","Sunday":"10:0-18:0","Thursday":"9:0-19:0","Tuesday":"9:0-19:0","Wednesday":"9:0-19:0"}}
{"business_id":"DKiRDPtQ5cTN-eX1oEgA9w","name":"Firkin On Bloor","address":"81 Bloor Street E","city":"Toronto","state":"ON","postal_code":"M4W 1A9","latitude":43.6706840131,"longitude":-79.3845563405,"stars":3.0,"review_count":62,"is_open":1,"categories":"Nightlife, Pubs, Bars","hours":{"Friday":"11:0-2:0","Monday":"11:0-2:0","Saturday":"11:0-2:0","Sunday":"11:0-2:0","Thursday":"11:0-2:0","Tuesday":"11:0-2:0","Wednesday":"11:0-2:0"}}
{"business_id":"tWasrUm15BTJv6JQRW6Eiw","name":"Residence Inn Toronto Mississauga/Meadowvale","address":"7005 Century Avenue","city":"Mississauga","state":"ON","postal_code":"L5N 7K2","latitude":43.601933074,"longitude":-79.7523146868,"stars":3.5,"review_count":7,"is_open":1,"categories":"Hotels, Hotels & Travel, Event Planning & Services","hours":{"Friday":"0:0-0:0","Monday":"0:0-0:0","Saturday":"0:0-0:0","Sunday":"0:0-0:0","Thursday":"0:0-0:0","Tuesday":"0:0-0:0","Wednesday":"0:0-0:0"}}
{"business_id":"c0BsUcg3X038n74cXuNobA","name":"Mr. Rooter Plumbing of Calgary","address":"6939 Farrell Rd SE","city":"Calgary","state":"AB","postal_code":"T2H 0T3","latitude":51.0464792013,"longitude":-114.0767183467,"stars":4.5,"review_count":4,"is_open":1,"categories":"Contractors, Home Services, Plumbing","hours":{"Friday":"6:0-6:0","Monday":"6:0-6:0","Saturday":"6:0-6:0","Sunday":"6:0-6:0","Thursday":"6:0-6:0","Tuesday":"6:0-6:0","Wednesday":"6:0-6:0"}}
{"business_id":"UaNKIzxN30eZ0Rc_gEEdCQ","name":"Arizona Tan","address":"2291 Yonge Street","city":"Toronto","state":"ON","postal_code":"M4P 2C6","latitude":43.7075483,"longitude":-79.3984993,"stars":4.5,"review_count":3,"is_open":0,"categories":"Tanning, Beauty & Spas"}
{"business_id":"SK5EWIhIFx7Jtqo4m3oGcQ","name":"Ya Bikes","address":"242 5 Queen Street E","city":"Toronto","state":"ON","postal_code":"M5A 1S5","latitude":43.6548195,"longitude":-79.3684701,"stars":4.5,"review_count":21,"is_open":1,"categories":"Bike Repair/Maintenance, Bikes, Local Services, Sporting Goods, Shopping","hours":{"Friday":"8:0-18:0","Monday":"8:0-18:0","Saturday":"8:0-18:0","Sunday":"8:0-18:0","Thursday":"8:0-18:0","Tuesday":"8:0-18:0","Wednesday":"8:0-18:0"}}
{"business_id":"x2Gznr_bTYC709ao19rb9Q","name":"American Apparel","address":"499 Queen Street W","city":"Toronto","state":"ON","postal_code":"M5V 2B4","latitude":43.6480997,"longitude":-79.3984144,"stars":2.5,"review_count":16,"is_open":0,"categories":"Women's Clothing, Children's Clothing, Men's Clothing, Fashion, Accessories, Shopping","hours":{"Friday":"10:0-21:0","Monday":"10:0-20:0","Saturday":"10:0-21:0","Sunday":"11:0-19:0","Thursday":"10:0-21:0","Tuesday":"10:0-20:0","Wednesday":"10:0-20:0"}}
{"business_id":"rc0X8RD-zgm_qEmVNZOj9Q","name":"Abe's Restaurant","address":"30 Market Boulevard SE, Suite 101","city":"Airdrie","state":"AB","postal_code":"T4A 0V4","latitude":51.268672,"longitude":-113.996508,"stars":4.0,"review_count":35,"is_open":1,"categories":"Restaurants, Burgers, Comfort Food, Coffee & Tea, Breakfast & Brunch, Diners, Food, Juice Bars & Smoothies, American (Traditional)","hours":{"Friday":"11:0-21:0","Monday":"11:0-20:0","Saturday":"9:0-21:0","Sunday":"9:0-20:0","Thursday":"11:0-20:0","Tuesday":"11:0-20:0","Wednesday":"11:0-20:0"}}
{"business_id":"74kAvfx_Q_4h6lLExIldzA","name":"GoodLife Fitness","address":"21 McCaul St","city":"Toronto","state":"ON","postal_code":"M5T 1V7","latitude":43.651161,"longitude":-79.389802,"stars":2.5,"review_count":15,"is_open":1,"categories":"Trainers, Sports Clubs, Gyms, Fitness & Instruction, Active Life","hours":{"Friday":"6:0-22:0","Monday":"6:0-22:0","Saturday":"9:0-17:0","Sunday":"9:0-17:0","Thursday":"6:0-22:0","Tuesday":"6:0-22:0","Wednesday":"6:0-22:0"}}
{"business_id":"zNCGTEwBrmrVLfjxl7LenQ","name":"Ballissimo Loukoumades Bar","address":"1027 Coxwell Ave","city":"Toronto","state":"ON","postal_code":"M4C 3G4","latitude":43.6972483195,"longitude":-79.3290973082,"stars":3.5,"review_count":3,"is_open":1,"categories":"Desserts, Cafes, Restaurants, Food","hours":{"Friday":"9:0-22:0","Monday":"9:0-21:0","Saturday":"9:0-22:0","Sunday":"10:0-20:0","Thursday":"9:0-21:0","Tuesday":"9:0-21:0","Wednesday":"9:0-21:0"}}
{"business_id":"HYR4hG2Yxr-FdK1Q6yDozA","name":"The Pump On the Rathburn","address":"1891 Rathburn Road E, Unit 16","city":"Mississauga","state":"ON","postal_code":"L4W 3Z3","latitude":43.636308,"longitude":-79.597048,"stars":3.0,"review_count":15,"is_open":1,"categories":"Food, Nightlife, Bars, Beer, Wine & Spirits, Sports Bars, Pubs","hours":{"Friday":"11:0-2:0","Monday":"11:0-2:0","Saturday":"11:0-2:0","Sunday":"11:0-2:0","Thursday":"11:0-2:0","Tuesday":"11:0-2:0","Wednesday":"11:0-2:0"}}
{"business_id":"rfgln6-7WFCu7S7fOoqMdA","name":"Loga's Corner","address":"216C Close Avenue","city":"Toronto","state":"ON","postal_code":"M6K 2V5","latitude":43.6404313,"longitude":-79.4359559,"stars":4.5,"review_count":83,"is_open":1,"categories":"Himalayan/Nepalese, Restaurants","hours":{"Friday":"10:0-23:0","Monday":"0:0-0:0","Saturday":"10:0-23:0","Sunday":"11:0-18:0","Thursday":"10:0-23:0","Tuesday":"10:0-23:0","Wednesday":"10:0-23:0"}}
{"business_id":"cKHPIk8dtTeh66w0a-q3KA","name":"Cat's Eye Vintage","address":"1235 17th Avenue SW, Suite 205","city":"Calgary","state":"AB","postal_code":"T2T 0C2","latitude":51.0375877638,"longitude":-114.0908365539,"stars":4.0,"review_count":5,"is_open":0,"categories":"Used, Vintage & Consignment, Fashion, Shopping","hours":{"Friday":"10:0-18:0","Saturday":"10:0-18:0","Thursday":"10:0-20:0","Tuesday":"10:0-18:0","Wednesday":"10:0-18:0"}}
{"business_id":"p5gsi66W1-B0gOAq-SRcRA","name":"Freshii","address":"861 York Mills","city":"Toronto","state":"ON","postal_code":"M3B 1Y2","latitude":43.7542187,"longitude":-79.3514066,"stars":3.0,"review_count":15,"is_open":1,"categories":"Vegetarian, Restaurants","hours":{"Friday":"10:0-20:0","Monday":"10:0-20:0","Saturday":"11:0-18:0","Sunday":"11:0-16:0","Thursday":"10:0-20:0","Tuesday":"10:0-20:0","Wednesday":"10:0-20:0"}}
{"business_id":"MkLY8DMVUw0kSKwpo5ZfrA","name":"Metro","address":"349 Avenue de l'Église","city":"Montréal","state":"QC","postal_code":"H4G 2M5","latitude":45.4630725,"longitude":-73.568471,"stars":3.0,"review_count":5,"is_open":1,"categories":"Caterers, Food, Beer, Wine & Spirits, Grocery, Event Planning & Services, Food Delivery Services","hours":{"Friday":"8:0-21:0","Monday":"8:0-21:0","Saturday":"8:0-21:0","Sunday":"8:0-21:0","Thursday":"8:0-21:0","Tuesday":"8:0-21:0","Wednesday":"8:0-21:0"}}
{"business_id":"47-k_7cLD94ahpfaKS3jNA","name":"Comp Sandpipers","address":"87 Yorkville Avenue","city":"Toronto","state":"ON","postal_code":"M5R 1C1","latitude":43.671011,"longitude":-79.391776,"stars":3.5,"review_count":9,"is_open":1,"categories":"Shopping, Fashion, Lingerie, Sporting Goods, Women's Clothing, Swimwear, Accessories","hours":{"Friday":"10:0-19:0","Monday":"0:0-0:0","Saturday":"10:0-18:0","Sunday":"11:0-17:0","Thursday":"10:0-19:0","Tuesday":"10:0-18:0","Wednesday":"10:0-18:0"}}
{"business_id":"yRqMaiW2BQNG-mo-9pljnA","name":"Hannah's Kitchen","address":"2177 Yonge Street","city":"Toronto","state":"ON","postal_code":"M4S 2A9","latitude":43.7051768,"longitude":-79.397814,"stars":3.5,"review_count":15,"is_open":0,"categories":"Canadian (New), Caterers, Restaurants, Event Planning & Services","hours":{"Friday":"7:0-19:0","Monday":"7:0-19:0","Saturday":"9:0-16:0","Sunday":"9:0-16:0","Thursday":"7:0-19:0","Tuesday":"7:0-19:0","Wednesday":"7:0-19:0"}}
{"business_id":"XiMvHK4Nq0xPa1GOtdKzdA","name":"Bong Lua Vietnamese Restaurant","address":"Huntingwood Square, 2572 Birchmount Road","city":"Scarborough","state":"ON","postal_code":"M1T 3H1","latitude":43.7895685,"longitude":-79.3025887,"stars":3.5,"review_count":150,"is_open":1,"categories":"Vietnamese, Restaurants","hours":{"Friday":"11:0-22:0","Monday":"11:0-22:0","Saturday":"11:0-22:0","Sunday":"11:0-21:0","Thursday":"11:0-22:0","Wednesday":"11:0-22:0"}}
{"business_id":"uq9fF4kFSx1pjRZj_FEazw","name":"The Peartree Restaurant","address":"507 Parliament Street","city":"Toronto","state":"ON","postal_code":"M4X 1P3","latitude":43.665052,"longitude":-79.367999,"stars":3.5,"review_count":61,"is_open":1,"categories":"Cajun/Creole, Seafood, Caterers, Mediterranean, Breakfast & Brunch, Restaurants, Event Planning & Services","hours":{"Friday":"11:0-23:0","Monday":"11:0-23:0","Saturday":"10:0-23:0","Sunday":"10:0-23:0","Thursday":"11:0-23:0","Tuesday":"11:0-23:0","Wednesday":"11:0-23:0"}}
{"business_id":"7wi0yczEe3OC3P8CpkZz2g","name":"After Queen Tea Shop","address":"7355 Bayview Avenue","city":"Markham","state":"ON","postal_code":"L3T 5Z2","latitude":43.8133323,"longitude":-79.398554,"stars":4.0,"review_count":41,"is_open":1,"categories":"Tea Rooms, Modern European, Desserts, Restaurants, Food, British","hours":{"Friday":"11:0-18:0","Monday":"11:0-18:0","Saturday":"11:0-18:0","Sunday":"11:0-18:0","Thursday":"11:0-18:0","Wednesday":"11:0-18:0"}}
{"business_id":"m6VRVP2WL1uB2oQMka0kOQ","name":"Knar Jewellery","address":"38 Avenue Road","city":"Toronto","state":"ON","postal_code":"M5R 2G2","latitude":43.6700478799,"longitude":-79.3949369693,"stars":4.5,"review_count":3,"is_open":1,"categories":"Shopping, Jewelry, Jewelry Repair, Local Services, Watch Repair","hours":{"Friday":"10:0-17:0","Monday":"0:0-0:0","Saturday":"10:30-19:0","Sunday":"11:0-16:0","Thursday":"10:0-17:0","Tuesday":"10:0-18:0","Wednesday":"10:0-18:0"}}
{"business_id":"X_b22Md5LjjUCE1V4kThvw","name":"Angel Hair Salon","address":"922 Bloor Street W","city":"Toronto","state":"ON","postal_code":"M6H 1L4","latitude":43.6618605,"longitude":-79.4271641,"stars":5.0,"review_count":12,"is_open":1,"categories":"Hair Salons, Beauty & Spas","hours":{"Friday":"9:0-18:0","Saturday":"9:0-18:0","Thursday":"11:0-20:0","Tuesday":"9:0-20:0","Wednesday":"10:0-18:0"}}
{"business_id":"ifbCSKX1p9t0iJLc4AKhng","name":"Le Montréalais","address":"Fairmont Queen Elizabeth, 900 Boulevard René-Lévesque Ouest","city":"Montréal","state":"QC","postal_code":"H3B 4A5","latitude":45.5007443159,"longitude":-73.5678815497,"stars":3.5,"review_count":33,"is_open":0,"categories":"Event Planning & Services, Nightlife, Hotels, Bars, Caterers, Mediterranean, Breakfast & Brunch, Hotels & Travel, Restaurants","hours":{"Friday":"6:30-22:0","Monday":"6:30-22:0","Saturday":"7:0-22:0","Sunday":"7:0-22:0","Thursday":"6:30-22:0","Tuesday":"6:30-22:0","Wednesday":"6:30-22:0"}}
{"business_id":"_weGNajylR9M20qY1k5S2Q","name":"Double Pizza","address":"3899 Rue Ontario E","city":"Montréal","state":"QC","postal_code":"H1W 1S7","latitude":45.548293,"longitude":-73.542949,"stars":2.0,"review_count":4,"is_open":1,"categories":"Restaurants, Pizza","hours":{"Friday":"10:0-2:0","Monday":"10:0-0:0","Saturday":"10:0-2:0","Sunday":"10:0-0:0","Thursday":"10:0-1:0","Tuesday":"10:0-0:0","Wednesday":"10:0-0:0"}}
{"business_id":"YKgxSirMmtdWrcMKZLK56A","name":"The Yoga Shala","address":"1511 19 St NW","city":"Calgary","state":"AB","postal_code":"T2N 2K2","latitude":51.065539,"longitude":-114.1068389,"stars":4.5,"review_count":6,"is_open":1,"categories":"Fitness & Instruction, Active Life, Yoga, Specialty Schools, Education","hours":{"Friday":"5:30-20:0","Monday":"0:0-0:0","Saturday":"9:30-13:0","Sunday":"8:30-20:0","Thursday":"5:30-21:0","Tuesday":"5:30-21:0","Wednesday":"5:30-20:30"}}
{"business_id":"m7v-K-BARyZu6lePJw8u6g","name":"Cacao 70","address":"485 Queen Street W","city":"Toronto","state":"ON","postal_code":"M5V 2A9","latitude":43.6481854,"longitude":-79.3979691,"stars":3.5,"review_count":118,"is_open":1,"categories":"Food, Chocolatiers & Shops, Desserts, Breakfast & Brunch, Creperies, Specialty Food, Cafes, Restaurants","hours":{"Friday":"10:0-0:0","Monday":"10:0-23:0","Saturday":"10:0-0:0","Sunday":"10:0-23:0","Thursday":"10:0-23:0","Tuesday":"10:0-23:0","Wednesday":"10:0-23:0"}}
{"business_id":"sKaZD5imib8f3spat9j__g","name":"Ladan Pastry and Nuts","address":"7073 Yonge Street","city":"Markham","state":"ON","postal_code":"L3T 2A6","latitude":43.7998488,"longitude":-79.4202966,"stars":2.5,"review_count":3,"is_open":1,"categories":"Bakeries, Food","hours":{"Friday":"10:0-22:0","Monday":"10:0-22:0","Saturday":"10:0-22:0","Sunday":"10:0-20:0","Thursday":"10:0-22:0","Tuesday":"10:0-22:0","Wednesday":"10:0-22:0"}}
{"business_id":"okkf0A_I1JVkmvHNlqyUmQ","name":"Les Deux Oliviers","address":"930 Rue Roy E","city":"Montréal","state":"QC","postal_code":"H2L 1E7","latitude":45.521979,"longitude":-73.5697069,"stars":5.0,"review_count":3,"is_open":1,"categories":"Mediterranean, Restaurants","hours":{"Friday":"16:0-23:0","Saturday":"16:0-23:0","Sunday":"16:0-23:0","Thursday":"16:0-23:0","Tuesday":"16:0-23:0","Wednesday":"16:0-23:0"}}
{"business_id":"1Q-S0MJ2T12U8Tq5O7Srbg","name":"O'ribs","address":"600 Pierre Caisse","city":"Saint-Jean-sur-Richelieu","state":"QC","postal_code":"J3A 1M1","latitude":45.3317907,"longitude":-73.2791308,"stars":3.5,"review_count":3,"is_open":1,"categories":"Steakhouses, Restaurants","hours":{"Friday":"11:0-1:0","Monday":"11:0-23:0","Saturday":"11:0-23:0","Sunday":"11:0-23:0","Thursday":"11:0-1:0","Tuesday":"11:0-23:0","Wednesday":"11:0-23:0"}}
{"business_id":"M-ZzcWSyPkU4SSdY6XspPQ","name":"Andrew Leung and Associates","address":"268 Bloor Street W, Ground Floor","city":"Toronto","state":"ON","postal_code":"M5S 1V8","latitude":43.6675566,"longitude":-79.40037,"stars":3.0,"review_count":4,"is_open":1,"categories":"Shopping, Health & Medical, Eyewear & Opticians, Optometrists","hours":{"Friday":"10:0-18:0","Monday":"10:0-18:0","Saturday":"11:0-16:0","Thursday":"10:0-18:0","Tuesday":"10:0-18:0","Wednesday":"10:0-18:0"}}
{"business_id":"UFN5iE8kc0qCcvDIEkSguw","name":"The Bay","address":"9350 Yonge St","city":"Richmond Hill","state":"ON","postal_code":"L4C 5G2","latitude":43.8548902,"longitude":-79.4348774,"stars":2.0,"review_count":14,"is_open":1,"categories":"Shopping, Department Stores, Fashion"}
{"business_id":"NeQ-WGyFbWicG8-GYfYuwg","name":"Petit Mousse","address":"77th Avenue SE, Unit 510","city":"Calgary","state":"AB","postal_code":"T2H 1C3","latitude":50.9856784,"longitude":-114.0519106,"stars":3.5,"review_count":6,"is_open":1,"categories":"Farmers Market, French, Restaurants, Food","hours":{"Friday":"9:0-17:0","Saturday":"9:0-17:0","Sunday":"9:0-17:0","Thursday":"9:0-17:0"}}
{"business_id":"4aoXwVHoYMxOC-iwPm9A_g","name":"Caledonia Garden Centre","address":"70 Caledonia Park Road","city":"Toronto","state":"ON","postal_code":"M6N 4A8","latitude":43.673273,"longitude":-79.453333,"stars":3.5,"review_count":3,"is_open":1,"categories":"Shopping, Nurseries & Gardening, Home & Garden"}
{"business_id":"cMoSbkk5ErtxqZrd2QHdWQ","name":"Money Exchange World","address":"700 Burnhamthorpe Road W, Suite 4","city":"Mississauga","state":"ON","postal_code":"L5C 2R9","latitude":43.578742264,"longitude":-79.6517409444,"stars":4.5,"review_count":3,"is_open":1,"categories":"Currency Exchange, Financial Services, Tax Services, Check Cashing/Pay-day Loans","hours":{"Friday":"10:0-20:0","Monday":"0:0-0:0","Saturday":"11:0-17:0","Thursday":"10:0-20:0","Tuesday":"10:0-20:0","Wednesday":"10:0-20:0"}}
{"business_id":"ZQ5mXh_LVn2nnvGECfPzVg","name":"The Burger's Priest","address":"129 Lakeshore Road E","city":"Mississauga","state":"ON","postal_code":"L5G 1E5","latitude":43.5544705,"longitude":-79.5823233,"stars":3.5,"review_count":80,"is_open":1,"categories":"Hot Dogs, Food, Restaurants, Burgers","hours":{"Friday":"11:30-22:30","Monday":"11:30-21:30","Saturday":"12:0-22:30","Sunday":"12:0-20:0","Thursday":"11:30-22:30","Tuesday":"11:30-21:30","Wednesday":"11:30-21:30"}}
{"business_id":"-W32WHlviv5JAmrYBXEF7A","name":"Atlantic Trap & Gill Pub","address":"3828 MacLeod Trail SE","city":"Calgary","state":"AB","postal_code":"T2G 2R2","latitude":50.9937557,"longitude":-114.0714264,"stars":3.0,"review_count":8,"is_open":0,"categories":"Nightlife, Restaurants, Pubs, American (Traditional), Bars","hours":{"Friday":"11:30-2:0","Monday":"11:30-0:0","Saturday":"11:30-0:0","Thursday":"11:30-2:0","Tuesday":"11:30-2:0","Wednesday":"11:30-2:0"}}
{"business_id":"dRDd9zMMH96jl_BlE2-jkA","name":"CF Fairview Mall","address":"1800 Sheppard Avenue E","city":"North York","state":"ON","postal_code":"M2J 5A7","latitude":43.7779901,"longitude":-79.3440914,"stars":3.5,"review_count":91,"is_open":1,"categories":"Arts & Entertainment, Cinema, Shopping, Shopping Centers","hours":{"Friday":"10:0-21:0","Monday":"10:0-21:0","Saturday":"9:30-21:0","Sunday":"11:0-19:0","Thursday":"10:0-21:0","Tuesday":"10:0-21:0","Wednesday":"10:0-21:0"}}
{"business_id":"NrrIZ5IdYk8ejuGC7G81Gw","name":"McDonald's","address":"895 Rue de la Gauchetière O","city":"Montréal","state":"QC","postal_code":"H3B 4G1","latitude":45.5001134,"longitude":-73.5665231,"stars":3.0,"review_count":8,"is_open":1,"categories":"Fast Food, Burgers, Restaurants","hours":{"Friday":"5:0-0:0","Monday":"5:0-0:0","Saturday":"5:0-0:0","Sunday":"5:0-0:0","Thursday":"5:0-0:0","Tuesday":"5:0-0:0","Wednesday":"5:0-0:0"}}
{"business_id":"EErAwIyl6OQHyLzICnSBLQ","name":"Triglen Food Market","address":"4710 26 Avenue SW","city":"Calgary","state":"AB","postal_code":"T3E 0R2","latitude":51.0307699,"longitude":-114.153243,"stars":1.0,"review_count":3,"is_open":1,"categories":"Grocery, Food","hours":{"Friday":"7:0-21:30","Monday":"7:0-21:30","Saturday":"8:0-21:0","Sunday":"8:0-21:0","Thursday":"7:0-21:30","Tuesday":"7:0-21:30","Wednesday":"7:0-21:30"}}
{"business_id":"zSV2udu2L8-LSqj7-BTbWw","name":"Vandermeer Nursery","address":"588 Lakeridge Road South","city":"Ajax","state":"ON","postal_code":"L1Z 1X3","latitude":43.8529457,"longitude":-78.9795733,"stars":3.0,"review_count":4,"is_open":1,"categories":"Home & Garden, Shopping, Landscape Architects, Landscaping, Home Services, Christmas Trees, Nurseries & Gardening","hours":{"Friday":"8:0-20:0","Monday":"8:0-18:0","Saturday":"8:0-18:0","Sunday":"8:0-18:0","Thursday":"8:0-20:0","Tuesday":"8:0-20:0","Wednesday":"8:0-20:0"}}
{"business_id":"He8upOKAPGwzdeKtebwD7Q","name":"CIBC","address":"1 Eglinton Avenue E","city":"Toronto","state":"ON","postal_code":"M4P 3A1","latitude":43.7066628701,"longitude":-79.3980854291,"stars":2.5,"review_count":3,"is_open":1,"categories":"Banks & Credit Unions, Financial Services"}
{"business_id":"wn8GoBxm82O3Mt7xRnKLbQ","name":"Poutineville","address":"296 Brunswick Avenue","city":"Toronto","state":"ON","postal_code":"M5S 2M7","latitude":43.6653566,"longitude":-79.4069815,"stars":4.0,"review_count":120,"is_open":0,"categories":"Restaurants, Poutineries","hours":{"Friday":"11:0-4:0","Saturday":"11:0-4:0","Sunday":"11:0-23:0","Thursday":"11:0-2:0","Tuesday":"17:0-23:0","Wednesday":"17:0-23:0"}}
{"business_id":"1w9rJtp3hzkGHlBrU7fzkw","name":"Moksha Yoga Uptown","address":"1498 Yonge Street","city":"Toronto","state":"ON","postal_code":"M4T 1Z6","latitude":43.688718,"longitude":-79.3946845,"stars":3.5,"review_count":36,"is_open":1,"categories":"Active Life, Yoga, Fitness & Instruction, Education, Specialty Schools","hours":{"Friday":"9:0-21:0","Monday":"9:0-22:0","Saturday":"9:0-19:0","Sunday":"9:0-19:0","Thursday":"9:0-22:0","Tuesday":"9:0-22:0","Wednesday":"9:0-22:0"}}
{"business_id":"h5bY-5i3l6uPRqqYOxUMKg","name":"Harvey's","address":"8865 Yonge St","city":"Richmond Hill","state":"ON","postal_code":"L4C 6Z1","latitude":43.8436912,"longitude":-79.4293337,"stars":3.5,"review_count":7,"is_open":1,"categories":"Restaurants, Burgers, American (Traditional), Fast Food","hours":{"Friday":"10:30-23:0","Monday":"10:30-22:0","Saturday":"10:30-23:0","Sunday":"10:30-22:0","Thursday":"10:30-22:0","Tuesday":"10:30-22:0","Wednesday":"10:30-22:0"}}
{"business_id":"p21riRiALmlBuHccOuCX8A","name":"Hot Yoga Wellness Mississauga","address":"626 Burnhamthorpe Road W, Unit 202","city":"Mississauga","state":"ON","postal_code":"L5B 2C4","latitude":43.5801882,"longitude":-79.6499864,"stars":4.0,"review_count":3,"is_open":0,"categories":"Yoga, Active Life, Fitness & Instruction"}
{"business_id":"IWBbapAdi9N7cYwcj1immA","name":"Balls of Fun","address":"3615 Laird Road, Units 15-16","city":"Mississauga","state":"ON","postal_code":"L5L 5Z8","latitude":43.5208139,"longitude":-79.7036141,"stars":4.0,"review_count":14,"is_open":1,"categories":"Party & Event Planning, Fitness & Instruction, Playgrounds, Amateur Sports Teams, Event Planning & Services, Active Life","hours":{"Friday":"9:30-19:30","Saturday":"9:30-19:30","Sunday":"9:30-19:30","Thursday":"9:30-19:30","Tuesday":"9:30-19:30","Wednesday":"9:30-19:30"}}
{"business_id":"d-nubkTQ1sk2HQYwWMgrXA","name":"Langstaff Community Centre","address":"155 Red Maple Road","city":"Richmond Hill","state":"ON","postal_code":"L4B 4P9","latitude":43.8435375,"longitude":-79.4239939,"stars":3.5,"review_count":3,"is_open":1,"categories":"Recreation Centers, Active Life"}
{"business_id":"z0Q8-1RyCftpD4h2nIJwjw","name":"Baguette & Co","address":"2772 Dundas St W","city":"Toronto","state":"ON","postal_code":"M6P 1Y3","latitude":43.6654122,"longitude":-79.4614958,"stars":4.5,"review_count":29,"is_open":1,"categories":"Vietnamese, Salad, Sandwiches, Restaurants","hours":{"Friday":"9:0-19:0","Monday":"9:0-19:0","Saturday":"10:0-18:0","Thursday":"9:0-19:0","Tuesday":"9:0-19:0","Wednesday":"9:0-19:0"}}
{"business_id":"ls-13_GR15V0y9zf4k71rA","name":"Menchie's Frozen Yogurt","address":"Bramalea City Centre, 100 Peel Centre Drive","city":"Brampton","state":"ON","postal_code":"L6T 4G8","latitude":43.7120145,"longitude":-79.7226149,"stars":4.5,"review_count":9,"is_open":1,"categories":"Desserts, Food, Do-It-Yourself Food, Ice Cream & Frozen Yogurt, Custom Cakes","hours":{"Friday":"12:0-22:0","Monday":"14:0-21:0","Saturday":"12:0-22:0","Sunday":"12:0-21:0","Thursday":"14:0-21:0","Tuesday":"14:0-21:0","Wednesday":"14:0-21:0"}}
{"business_id":"fn53cY_qMDPnYvdV48_hVg","name":"O-Taku Manga Lounge","address":"3623 Rue Saint-Denis","city":"Montréal","state":"QC","postal_code":"H2X 3L6","latitude":45.5181328,"longitude":-73.5696171,"stars":4.0,"review_count":11,"is_open":1,"categories":"Books, Mags, Music & Video, Food, Video Game Stores, Libraries, Public Services & Government, Bookstores, Shopping, Coffee & Tea, Comic Books","hours":{"Friday":"11:0-21:0","Monday":"11:0-21:0","Saturday":"11:0-21:0","Sunday":"11:0-21:0","Thursday":"11:0-21:0","Tuesday":"11:0-21:0"}}
{"business_id":"7LHhJUskbui2k34OLSMS7g","name":"Crescent Foods","address":"730 Edmonton Trl NE","city":"Calgary","state":"AB","postal_code":"T2E 3J4","latitude":51.0582338,"longitude":-114.0540974,"stars":3.0,"review_count":4,"is_open":1,"categories":"Grocery, Food"}
{"business_id":"qUjySC0bXwH4fzeli9QWTg","name":"Gypsy Bistro-Wine Bar","address":"817 1 Street SW","city":"Calgary","state":"AB","postal_code":"T2P 7N2","latitude":51.0451913,"longitude":-114.0655752,"stars":3.5,"review_count":11,"is_open":0,"categories":"Bars, Wine Bars, Nightlife","hours":{"Friday":"11:0-22:0","Monday":"11:0-22:0","Saturday":"11:0-22:0","Sunday":"11:0-22:0","Thursday":"11:0-22:0","Tuesday":"11:0-22:0","Wednesday":"11:0-22:0"}}
{"business_id":"JN9tY0KlwQfb4kRmiiiD-g","name":"TKTO - Toronto Knife Throwing","address":"6 Curity Avenue, Unit 22","city":"Toronto","state":"ON","postal_code":"M4B 1X2","latitude":43.7099371285,"longitude":-79.3134413161,"stars":5.0,"review_count":10,"is_open":1,"categories":"Active Life, Recreation Centers, Leisure Centers"}
{"business_id":"bMSAOv-sRTFYYPXco68K2w","name":"Angelina Nail & Spa","address":"3015 Lake Shore Blvd W","city":"Etobicoke","state":"ON","postal_code":"M8V 1K2","latitude":43.5999687,"longitude":-79.5081797,"stars":4.0,"review_count":6,"is_open":1,"categories":"Nail Salons, Hair Removal, Waxing, Beauty & Spas, Massage","hours":{"Friday":"10:0-20:0","Monday":"10:0-20:0","Saturday":"10:0-19:0","Sunday":"11:0-17:0","Thursday":"10:0-20:0","Tuesday":"10:0-20:0","Wednesday":"10:0-20:0"}}
{"business_id":"STkHse_8n93u9mHcZnYXRA","name":"Welat Pizza","address":"6509 Somerled Av","city":"Montréal","state":"QC","postal_code":"H4V 1S7","latitude":45.467769,"longitude":-73.6385449,"stars":3.5,"review_count":7,"is_open":1,"categories":"Pizza, Restaurants"}
{"business_id":"bBnb8Yys7x1bBZG9doj2nQ","name":"E-CIGARETTES","address":"2498 Yonge Street, Suite 205","city":"Toronto","state":"ON","postal_code":"M4P 2H8","latitude":43.7121112,"longitude":-79.3997318,"stars":5.0,"review_count":8,"is_open":0,"categories":"Shopping, Tobacco Shops, Wholesale Stores, Vape Shops","hours":{"Friday":"11:0-18:30","Monday":"11:0-18:30","Saturday":"11:0-18:30","Sunday":"11:0-18:30","Thursday":"11:0-18:30","Tuesday":"11:0-18:30","Wednesday":"11:0-18:30"}}
{"business_id":"fMTa67ijxIMuckk5ktUE6g","name":"Midas","address":"1116 Dundas Street East","city":"Mississauga","state":"ON","postal_code":"L4Y 2C1","latitude":43.603511,"longitude":-79.5896218,"stars":5.0,"review_count":4,"is_open":1,"categories":"Tires, Auto Repair, Automotive, Oil Change Stations","hours":{"Friday":"8:0-18:0","Monday":"8:0-19:0","Saturday":"8:0-16:0","Thursday":"8:0-19:0","Tuesday":"8:0-18:0","Wednesday":"8:0-18:0"}}
{"business_id":"KtRZwgAdlUTpLM-n5TTKag","name":"New Urban Registry","address":"140 11th Avenue SW, Suite 4","city":"Calgary","state":"AB","postal_code":"T2R 0B8","latitude":51.0427605,"longitude":-114.0651576,"stars":3.5,"review_count":14,"is_open":1,"categories":"Local Services, Public Relations, Lawyers, Professional Services, Notaries","hours":{"Friday":"8:0-18:0","Monday":"8:0-18:0","Saturday":"10:0-16:0","Sunday":"12:0-16:0","Thursday":"8:0-20:0","Tuesday":"8:0-18:0","Wednesday":"8:0-18:0"}}
{"business_id":"VCkKTkLWh9dY5vSdNPZDqw","name":"Mrakovic Meat & Deli","address":"44 Wellesworth Dr","city":"Etobicoke","state":"ON","postal_code":"M9C 4R1","latitude":43.6667742,"longitude":-79.5786614,"stars":4.5,"review_count":16,"is_open":1,"categories":"Restaurants, Modern European, Food, International Grocery, Specialty Food","hours":{"Friday":"8:0-20:0","Saturday":"8:0-18:0","Sunday":"8:0-17:0","Thursday":"8:0-20:0","Tuesday":"8:0-20:0","Wednesday":"8:0-20:0"}}
{"business_id":"x3JHj5h33ouzw_Ynj-utJg","name":"Asian Legend","address":"4452 Sheppard Avenue E","city":"Toronto","state":"ON","postal_code":"M1S 2V7","latitude":43.7883746,"longitude":-79.2672698,"stars":3.5,"review_count":104,"is_open":1,"categories":"Chinese, Restaurants","hours":{"Friday":"10:30-23:0","Monday":"10:30-23:0","Saturday":"10:0-23:0","Sunday":"10:0-23:0","Thursday":"10:30-23:0","Tuesday":"10:30-23:0","Wednesday":"10:30-23:0"}}
{"business_id":"MQLy8YjDXOb_haDcGRPp0w","name":"Price Chopper","address":"22 Northcote Avenue","city":"Toronto","state":"ON","postal_code":"M6J 3K3","latitude":43.643372,"longitude":-79.4262051,"stars":3.0,"review_count":7,"is_open":0,"categories":"Grocery, Food","hours":{"Friday":"8:0-21:30","Monday":"8:0-21:30","Saturday":"8:0-20:0","Sunday":"9:0-20:0","Thursday":"8:0-21:30","Tuesday":"8:0-21:30","Wednesday":"8:0-21:30"}}
{"business_id":"byANEA1R33yA9xDOn94fyw","name":"Restaurant Le Vieux Four","address":"252 Rue Principale","city":"Saint-Sauveur","state":"QC","postal_code":"J0R 1R0","latitude":45.8939155,"longitude":-74.1578809,"stars":2.0,"review_count":6,"is_open":1,"categories":"Restaurants, Italian, Wine Bars, Nightlife, Bars","hours":{"Friday":"11:30-21:0","Monday":"11:30-21:0","Saturday":"12:0-22:0","Sunday":"12:0-22:0","Thursday":"11:30-21:0","Tuesday":"11:30-21:0","Wednesday":"11:30-21:0"}}
{"business_id":"Blfdmnl9ZKWbipJjWuVIvg","name":"Safeway Food & Drug","address":"755 Lake Bonavista Dr SE","city":"Calgary","state":"AB","postal_code":"T2J 0N2","latitude":50.9423826,"longitude":-114.047266,"stars":3.5,"review_count":4,"is_open":1,"categories":"Delis, Sandwiches, Restaurants"}
{"business_id":"pMaOpte9NXZXSS8wolXxGw","name":"Pizza Pizza","address":"2077 Danforth Avenue","city":"Toronto","state":"ON","postal_code":"M4C 1K2","latitude":43.6853887,"longitude":-79.3129744,"stars":3.0,"review_count":4,"is_open":1,"categories":"Chicken Wings, Pizza, Italian, Restaurants","hours":{"Friday":"11:0-3:0","Monday":"11:0-2:0","Saturday":"11:0-3:0","Sunday":"11:0-2:0","Thursday":"11:0-3:0","Tuesday":"11:0-2:0","Wednesday":"11:0-2:0"}}
{"business_id":"tNRbADvJqU3F_vhR7cfS1g","name":"Diamonds For Less","address":"5 Shuter Street","city":"Toronto","state":"ON","postal_code":"M5B 2H8","latitude":43.6540412092,"longitude":-79.3793802895,"stars":4.5,"review_count":11,"is_open":1,"categories":"Shopping, Jewelry","hours":{"Friday":"10:0-18:0","Monday":"10:0-18:0","Saturday":"10:0-16:0","Thursday":"10:0-18:0","Tuesday":"10:0-18:0","Wednesday":"10:0-18:0"}}
{"business_id":"VigfQ7xC_f4kRAhxyBhLJA","name":"Kelsey's","address":"6465 Millcreek Dr","city":"Mississauga","state":"ON","postal_code":"L5N 5R3","latitude":43.590333,"longitude":-79.7417497,"stars":3.5,"review_count":3,"is_open":0,"categories":"American (New), Canadian (New), Restaurants"}
{"business_id":"DR5C7EQFLp8PZwr7TV80ng","name":"St Andrews Fish & Chips","address":"1589 Ellesmere Rd","city":"Scarborough","state":"ON","postal_code":"M1P 2Y3","latitude":43.7714077,"longitude":-79.2528237,"stars":3.5,"review_count":36,"is_open":1,"categories":"Seafood, Fish & Chips, Restaurants","hours":{"Friday":"11:0-20:0","Saturday":"12:0-19:30","Thursday":"11:0-19:0","Tuesday":"11:0-19:0","Wednesday":"11:0-19:0"}}
{"business_id":"R77kXkoxdobDwnxhOpwIng","name":"Akimi Japanese Cuisine","address":"1285 Elgin Mills Road E, Unit 1 & 2","city":"Richmond Hill","state":"ON","postal_code":"L4S 0B5","latitude":43.8960372,"longitude":-79.4033037,"stars":3.0,"review_count":38,"is_open":1,"categories":"Japanese, Sushi Bars, Restaurants"}
{"business_id":"j4bLjaBNI9yKRLtMtTmExQ","name":"El Mocambo","address":"464 Spadina Ave","city":"Toronto","state":"ON","postal_code":"M5T 2G8","latitude":43.6575792,"longitude":-79.4002035,"stars":3.5,"review_count":23,"is_open":1,"categories":"Nightlife, Arts & Entertainment, Performing Arts, Music Venues"}
{"business_id":"sb6Pa8mzGvOYMMVnkNJMNg","name":"Bahn Thai Spa Traditional Thai Massage & Wellness Centre","address":"136 Adelaide Street E","city":"Toronto","state":"ON","postal_code":"M5C 1K9","latitude":43.6516176,"longitude":-79.3728969,"stars":5.0,"review_count":34,"is_open":1,"categories":"Beauty & Spas, Fitness & Instruction, Active Life, Education, Health & Medical, Doctors, Day Spas, Yoga, Naturopathic/Holistic, Specialty Schools, Massage, Massage Schools","hours":{"Friday":"11:0-21:0","Monday":"0:0-0:0","Saturday":"10:0-18:0","Sunday":"10:0-16:0","Thursday":"11:0-20:0","Tuesday":"11:0-20:0","Wednesday":"11:0-20:0"}}
{"business_id":"mNLCG_vHmsKm8bKm5xcrwQ","name":"Universal Ford Lincoln","address":"2800 Barlow Trail NE","city":"Calgary","state":"AB","postal_code":"T1Y 1A2","latitude":51.0776539,"longitude":-113.999768,"stars":3.0,"review_count":8,"is_open":1,"categories":"Body Shops, Automotive, Car Dealers, Auto Repair","hours":{"Friday":"6:30-18:0","Monday":"6:30-20:0","Saturday":"9:0-17:0","Thursday":"6:30-20:0","Tuesday":"6:30-20:0","Wednesday":"6:30-20:0"}}
{"business_id":"hDz1BxLSVdXyXQi_AaLGGg","name":"Good Times Shawarma","address":"3836 Bloor Street W","city":"Toronto","state":"ON","postal_code":"M9B 1L1","latitude":43.6412251,"longitude":-79.5386553,"stars":3.0,"review_count":3,"is_open":1,"categories":"Mediterranean, Middle Eastern, Restaurants"}
{"business_id":"cbWj5t6A3X_u0avUJAOs-g","name":"Humberwood Animal Hospital","address":"680 Rexdale Boulevard, Unit 3","city":"Toronto","state":"ON","postal_code":"M9W 0B5","latitude":43.7210775,"longitude":-79.6137669,"stars":4.0,"review_count":5,"is_open":1,"categories":"Pet Services, Pets, Health & Medical, Veterinarians","hours":{"Friday":"9:0-18:0","Monday":"9:0-18:0","Saturday":"9:0-17:0","Thursday":"9:0-18:0","Tuesday":"9:0-18:0","Wednesday":"9:0-18:0"}}
{"business_id":"ZGKI-Zesj9Hhv3mi5JoBTA","name":"Jane Flowers","address":"371 Jane Street","city":"Toronto","state":"ON","postal_code":"M6S 3Z3","latitude":43.6576552,"longitude":-79.4876143,"stars":4.0,"review_count":4,"is_open":1,"categories":"Flowers & Gifts, Shopping, Florists"}
{"business_id":"x8SMCM8XktilgBlhgYek5w","name":"Boulevard Saint-Laurent - La Main","address":"4821 Boulevard Saint-Laurent","city":"Montréal","state":"QC","postal_code":"H2T 1R6","latitude":45.5218703,"longitude":-73.589979,"stars":4.5,"review_count":8,"is_open":1,"categories":"Local Flavor"}
{"business_id":"3XDj7eLxpvvIhneUi5iT0Q","name":"Shell","address":"3000 Major Mackenzie","city":"Vaughan","state":"ON","postal_code":"L6A 1S1","latitude":43.8500157513,"longitude":-79.5361728272,"stars":4.5,"review_count":3,"is_open":1,"categories":"Automotive, Gas Stations","hours":{"Friday":"9:0-9:0","Monday":"9:0-9:0","Saturday":"9:0-9:0","Sunday":"9:0-9:0","Thursday":"9:0-9:0","Tuesday":"9:0-9:0","Wednesday":"9:0-9:0"}}
{"business_id":"EQ1cOH_mr5VyHGjhgz_vDA","name":"Centro Trattoria & Formaggio","address":"1224 St. Clair Avenue W","city":"Toronto","state":"ON","postal_code":"M6E 1B4","latitude":43.6778176,"longitude":-79.4449243,"stars":4.0,"review_count":5,"is_open":1,"categories":"Italian, Food, Sandwiches, Specialty Food, Cheese Shops, Restaurants, Grocery, Delis","hours":{"Friday":"9:0-18:0","Monday":"9:0-18:0","Saturday":"9:0-18:0","Thursday":"9:0-18:0","Tuesday":"9:0-18:0","Wednesday":"9:0-18:0"}}
{"business_id":"20NpkWufzKxdTDv0x8l5Nw","name":"Ollia Macarons & Tea","address":"810C 16th Avenue SW","city":"Calgary","state":"AB","postal_code":"T2R 0S9","latitude":51.0383304,"longitude":-114.0800573,"stars":4.5,"review_count":44,"is_open":1,"categories":"Cooking Classes, French, Macarons, Tea Rooms, Bakeries, Food, Gluten-Free, Coffee & Tea Supplies, Shopping, Coffee & Tea, Restaurants, Specialty Food, Desserts, Arts & Crafts","hours":{"Friday":"10:0-20:0","Monday":"10:0-18:0","Saturday":"10:0-20:0","Sunday":"11:0-18:0","Thursday":"10:0-20:0","Tuesday":"10:0-18:0","Wednesday":"10:0-18:0"}}
{"business_id":"HBVzTJlmv1rD2SBL1OAOTg","name":"Riverbend Peking House","address":"8338 18 Street SE, Suite 232","city":"Calgary","state":"AB","postal_code":"T2C 4E4","latitude":50.9779302,"longitude":-114.014243,"stars":3.5,"review_count":16,"is_open":1,"categories":"Restaurants, Ethnic Food, Chinese, Imported Food, Specialty Food, Food","hours":{"Friday":"16:0-22:0","Monday":"16:0-21:0","Saturday":"16:0-22:0","Sunday":"16:0-21:0","Thursday":"16:0-21:0","Tuesday":"16:0-21:0","Wednesday":"16:0-21:0"}}
{"business_id":"bsF_kP6ksPRZ42NSA69XmQ","name":"3 Amigos","address":"2965 Promenade Saint-Antoine","city":"Boisbriand","state":"QC","postal_code":"J7H 0B4","latitude":45.6285660978,"longitude":-73.8488843892,"stars":2.0,"review_count":5,"is_open":1,"categories":"Restaurants, Mexican, Latin American, Tex-Mex","hours":{"Friday":"11:30-23:0","Monday":"0:0-0:0","Saturday":"11:30-0:0","Sunday":"11:30-21:0","Thursday":"11:30-22:0","Tuesday":"11:30-22:0","Wednesday":"11:30-22:0"}}
{"business_id":"_QZz6uVd43G3V2QqE5RIHw","name":"Le Fromentier","address":"1375 Avenue Laurier Est","city":"Montréal","state":"QC","postal_code":"H2J 1H6","latitude":45.533818,"longitude":-73.5837397,"stars":4.5,"review_count":23,"is_open":1,"categories":"Bakeries, Cheese Shops, Food, Specialty Food","hours":{"Friday":"7:0-19:0","Monday":"8:0-18:0","Saturday":"7:0-18:0","Sunday":"7:0-18:0","Thursday":"7:0-19:0","Tuesday":"7:0-19:0","Wednesday":"7:0-19:0"}}
{"business_id":"TgDzYe8wF_xo7v5ylLCw9w","name":"Ro House","address":"3064 Dundas Street W","city":"Toronto","state":"ON","postal_code":"M6P 1Z7","latitude":43.6656119764,"longitude":-79.4717070088,"stars":3.5,"review_count":12,"is_open":1,"categories":"Gluten-Free, Do-It-Yourself Food, Restaurants, Food, Vietnamese, Vegetarian","hours":{"Friday":"11:30-21:30","Monday":"11:30-20:0","Saturday":"11:30-21:30","Sunday":"11:30-15:0","Thursday":"11:30-20:0","Wednesday":"11:30-20:0"}}
{"business_id":"3EjjtHEFdTZST55js1A18A","name":"Pan Am's Joint","address":"790 Military Trail, Unit 1A","city":"Scarborough","state":"ON","postal_code":"M1E 4P7","latitude":43.7900770002,"longitude":-79.195975922,"stars":3.0,"review_count":6,"is_open":0,"categories":"Restaurants, Food, Poutineries, Desserts, Diners","hours":{"Friday":"11:0-0:0","Monday":"11:0-23:0","Saturday":"11:0-0:0","Sunday":"11:0-22:0","Thursday":"11:0-23:0","Tuesday":"11:0-23:0","Wednesday":"11:0-23:0"}}
{"business_id":"bviMnO3CdmFE1btUGlXc-w","name":"Green Post","address":"221 Augusta Avenue","city":"Toronto","state":"ON","postal_code":"M4W 1A7","latitude":43.6542899,"longitude":-79.4017578,"stars":4.0,"review_count":4,"is_open":1,"categories":"Health Markets, Food, Specialty Food","hours":{"Friday":"10:0-18:0","Monday":"10:0-18:0","Saturday":"10:0-18:0","Sunday":"12:0-18:0","Thursday":"10:0-18:0","Tuesday":"10:0-18:0","Wednesday":"10:0-18:0"}}
{"business_id":"cNWxGkoyNssl17kY9-gAEw","name":"Mighty Mango Restaurant","address":"15425 Bannister Road SE, Suite 18","city":"Calgary","state":"AB","postal_code":"T2X 3E9","latitude":50.9148736,"longitude":-114.0669643,"stars":4.0,"review_count":15,"is_open":1,"categories":"Restaurants, Chinese","hours":{"Friday":"11:0-22:0","Monday":"16:0-22:0","Saturday":"11:0-22:0","Sunday":"12:0-22:0","Thursday":"16:0-22:0","Tuesday":"16:0-22:0","Wednesday":"16:0-22:0"}}
{"business_id":"I6LxSrZpbBnMaDzXIFwinQ","name":"Best Western Hotel St. Jerome","address":"420 Monseigneur-Dubois Blvd","city":"Saint-Jerome","state":"QC","postal_code":"J7Y 3L8","latitude":45.7806735206,"longitude":-74.0169730785,"stars":3.5,"review_count":3,"is_open":1,"categories":"Venues & Event Spaces, Event Planning & Services, Hotels & Travel, Hotels","hours":{"Friday":"0:0-0:0","Monday":"0:0-0:0","Saturday":"0:0-0:0","Sunday":"0:0-0:0","Thursday":"0:0-0:0","Tuesday":"0:0-0:0","Wednesday":"0:0-0:0"}}
{"business_id":"N93EYZy9R0sdlEvubu94ig","name":"Banh Mi Boys","address":"392 Queen Street W","city":"Toronto","state":"ON","postal_code":"M5V 2A9","latitude":43.648827,"longitude":-79.3969701,"stars":4.5,"review_count":1045,"is_open":1,"categories":"Sandwiches, Restaurants, Asian Fusion, Food, Delicatessen, Vietnamese","hours":{"Friday":"11:0-22:0","Monday":"11:0-22:0","Saturday":"11:0-21:0","Sunday":"12:0-19:0","Thursday":"11:0-22:0","Tuesday":"11:0-22:0","Wednesday":"11:0-22:0"}}
{"business_id":"vuXz17TgImV6_VNYwFkKYg","name":"Taste of Yunnan","address":"438 Dundas Street","city":"Toronto","state":"ON","postal_code":"M5T 1G6","latitude":43.6536029,"longitude":-79.3957382,"stars":3.5,"review_count":29,"is_open":1,"categories":"Restaurants, Chinese"}
{"business_id":"_sPH38oEnI75RAp3LfEnEA","name":"Drake Hotel General Store","address":"2607 Yonge Street","city":"Toronto","state":"ON","postal_code":"M4W 2L4","latitude":43.7147234,"longitude":-79.3998406,"stars":4.5,"review_count":4,"is_open":1,"categories":"Books, Mags, Music & Video, Shopping","hours":{"Friday":"11:0-19:0","Monday":"11:0-19:0","Saturday":"11:0-18:0","Sunday":"12:0-17:0","Thursday":"11:0-19:0","Tuesday":"11:0-19:0","Wednesday":"11:0-19:0"}}
{"business_id":"xzU6o2UgxfZyXrPc4zF9-A","name":"Yogurty's","address":"660 Eglinton Ave E","city":"Toronto","state":"ON","postal_code":"M4G 4G1","latitude":43.711768,"longitude":-79.3758155,"stars":4.5,"review_count":3,"is_open":0,"categories":"Ice Cream & Frozen Yogurt, Food"}
{"business_id":"z0aWOd6qb3pUy3wwfkKR4g","name":"Panino Cowboy","address":"238 Queen Street W","city":"Toronto","state":"ON","postal_code":"M5V 1Z7","latitude":43.6501306,"longitude":-79.3904119,"stars":4.0,"review_count":5,"is_open":0,"categories":"Restaurants, Italian","hours":{"Friday":"11:0-20:30","Monday":"11:0-20:30","Saturday":"11:0-20:30","Thursday":"11:0-20:30","Tuesday":"11:0-20:30","Wednesday":"11:0-20:30"}}
{"business_id":"uKwmSwctDnnRLc841n1oPQ","name":"Econofitness","address":"785 Rue Beaubien E","city":"Montréal","state":"QC","postal_code":"H2S 2M3","latitude":45.5359744,"longitude":-73.6034606,"stars":3.5,"review_count":5,"is_open":1,"categories":"Fitness & Instruction, Active Life, Gyms","hours":{"Friday":"6:0-23:0","Monday":"6:0-23:0","Saturday":"8:0-20:0","Sunday":"8:0-20:0","Thursday":"6:0-23:0","Tuesday":"6:0-23:0","Wednesday":"6:0-23:0"}}
{"business_id":"clZe2m5wDeZsBsGnTnX4Gg","name":"Ranu Thai Cuisine","address":"3308 Lakeshore Blvd W, Unit 3","city":"Etobicoke","state":"ON","postal_code":"M8W 1M8","latitude":43.5968402,"longitude":-79.524241,"stars":4.0,"review_count":32,"is_open":1,"categories":"Restaurants, Thai"}
{"business_id":"yS7331JlJdKlk9VNaSt64w","name":"CopaCabana Brazilian Steakhouse","address":"205 Marycroft Avenue","city":"Vaughan","state":"ON","postal_code":"L4L 5X8","latitude":43.784552,"longitude":-79.565759,"stars":3.5,"review_count":101,"is_open":1,"categories":"Barbeque, Steakhouses, Restaurants, Brazilian, Latin American","hours":{"Friday":"17:0-23:0","Monday":"17:0-22:0","Saturday":"16:0-23:0","Sunday":"16:0-22:0","Thursday":"17:0-22:0","Tuesday":"17:0-22:0","Wednesday":"17:0-22:0"}}
{"business_id":"iuk5xaSEJk_Pfki-MhY1Vg","name":"Club Atwater","address":"3505 Avenue Atwater","city":"Montréal","state":"QC","postal_code":"H3H 1Y2","latitude":45.4928963,"longitude":-73.5892867,"stars":5.0,"review_count":3,"is_open":1,"categories":"Venues & Event Spaces, Caterers, Active Life, Event Planning & Services, Party & Event Planning, Gyms, Fitness & Instruction, Sports Clubs","hours":{"Friday":"6:0-23:0","Monday":"6:0-23:0","Saturday":"8:0-18:0","Sunday":"8:0-18:0","Thursday":"6:0-23:0","Tuesday":"6:0-23:0","Wednesday":"6:0-23:0"}}
{"business_id":"b9Ctxco-1HyjE55W_28MYA","name":"Himalayan Coffee House","address":"2552 Yonge Street","city":"Toronto","state":"ON","postal_code":"M4P 2J2","latitude":43.713383,"longitude":-79.4000562,"stars":4.5,"review_count":111,"is_open":1,"categories":"Coffee & Tea, Food","hours":{"Friday":"8:0-17:0","Monday":"0:0-0:0","Saturday":"8:0-17:0","Thursday":"8:0-17:0","Tuesday":"8:0-17:0","Wednesday":"8:0-17:0"}}
{"business_id":"bhFW5a_OD2kZ-YZN64tWSQ","name":"Intermix","address":"130 Bloor Street W","city":"Toronto","state":"ON","postal_code":"M5S 1N5","latitude":43.6692112,"longitude":-79.3926706,"stars":2.5,"review_count":3,"is_open":1,"categories":"Fashion, Accessories, Shoe Stores, Shopping, Women's Clothing","hours":{"Friday":"10:0-19:0","Monday":"10:0-18:0","Saturday":"10:0-19:0","Sunday":"12:0-17:0","Thursday":"10:0-19:0","Tuesday":"10:0-18:0","Wednesday":"10:0-18:0"}}
{"business_id":"tB2pWYLOxX36p7JDqkJIcw","name":"Boston Pizza","address":"1231 Boulevard des Promenades","city":"Saint-Bruno","state":"QC","postal_code":"J3V 6H1","latitude":45.500843,"longitude":-73.376099,"stars":3.0,"review_count":4,"is_open":1,"categories":"Restaurants, Pizza","hours":{"Friday":"11:0-2:0","Monday":"11:0-2:0","Saturday":"11:0-2:0","Sunday":"11:0-2:0","Thursday":"11:0-2:0","Tuesday":"11:0-2:0","Wednesday":"11:0-2:0"}}
{"business_id":"A-0ZE_Q8KbGg8DriC0pPcg","name":"Speedy Glass","address":"10605 Yonge Street","city":"Richmond Hill","state":"ON","postal_code":"L4C 3C5","latitude":43.88616,"longitude":-79.4401932,"stars":4.5,"review_count":3,"is_open":1,"categories":"Home & Garden, Home Decor, Automotive, Auto Glass Services, Shopping","hours":{"Friday":"8:0-17:0","Monday":"8:0-17:0","Saturday":"8:0-16:0","Thursday":"8:0-17:0","Tuesday":"8:0-17:0","Wednesday":"8:0-17:0"}}
{"business_id":"hr7F69chSErBJ0n5qjjD3w","name":"Peter Ioannidis, DDS","address":"Broadview Dental Clinic, 741 Broadview Avenue, Suite 308","city":"Toronto","state":"ON","postal_code":"M4K 3Y3","latitude":43.674755546,"longitude":-79.3580951,"stars":5.0,"review_count":3,"is_open":1,"categories":"Dentists, General Dentistry, Health & Medical, Cosmetic Dentists"}
{"business_id":"g_cJGgtLSwFH0W9V2TnNyQ","name":"Oyaji Sushi","address":"10341 Yonge Street, Unit 5","city":"Richmond Hill","state":"ON","postal_code":"L4C 3C1","latitude":43.8798211,"longitude":-79.4383029,"stars":4.0,"review_count":89,"is_open":1,"categories":"Restaurants, Korean, Japanese","hours":{"Friday":"11:30-23:0","Monday":"11:30-23:0","Saturday":"11:30-23:0","Sunday":"13:0-22:0","Thursday":"11:30-23:0","Tuesday":"11:30-23:0","Wednesday":"11:30-23:0"}}
{"business_id":"u88TCyvAcKwa4U1BWh5dTA","name":"Le Sanbox","address":"5448 Boulevard St-laurent","city":"Montréal","state":"QC","postal_code":"H2T 1A5","latitude":45.5254707901,"longitude":-73.5983109797,"stars":5.0,"review_count":3,"is_open":0,"categories":"Restaurants, Salad, Cafes, Sandwiches","hours":{"Friday":"8:0-15:0","Monday":"8:0-15:0","Thursday":"8:0-15:0","Tuesday":"8:0-15:0","Wednesday":"8:0-15:0"}}
{"business_id":"yeVIDur0qE_NhSEc9ZVgVQ","name":"Popular Car Wash & Detailing","address":"131 The West Mall","city":"Etobicoke","state":"ON","postal_code":"M9C 1C2","latitude":43.619277,"longitude":-79.562138,"stars":2.5,"review_count":15,"is_open":1,"categories":"Car Wash, Automotive, Auto Detailing","hours":{"Friday":"7:30-19:30","Monday":"7:30-19:30","Saturday":"7:30-19:30","Sunday":"7:30-19:30","Thursday":"7:30-19:30","Tuesday":"7:30-19:30","Wednesday":"7:30-19:30"}}
{"business_id":"l8eWRWklljsi0LO7qXgRSg","name":"China City","address":"634 Bloor Street","city":"Mississauga","state":"ON","postal_code":"L5A 3V9","latitude":43.5992539,"longitude":-79.6120169,"stars":2.5,"review_count":3,"is_open":0,"categories":"Chinese, Ethnic Food, Specialty Food, Food, Restaurants"}
{"business_id":"JjZvRbN_eV6cU7KcZx_QaA","name":"Effiloché","address":"6260 Rue Saint-Hubert","city":"Montréal","state":"QC","postal_code":"H2S 2M2","latitude":45.535004,"longitude":-73.600892,"stars":4.0,"review_count":9,"is_open":1,"categories":"Fabric Stores, Shopping, Knitting Supplies, Arts & Crafts","hours":{"Friday":"11:0-19:0","Saturday":"11:0-17:0","Sunday":"11:0-17:0","Thursday":"11:0-19:0","Tuesday":"11:0-19:0","Wednesday":"11:0-19:0"}}
{"business_id":"wWV90q48ugyxyXW6gZav8w","name":"Arepas","address":"521 St. Catherine Street W","city":"Montréal","state":"QC","postal_code":"H3B 1A6","latitude":45.5045966,"longitude":-73.5684563,"stars":3.5,"review_count":15,"is_open":0,"categories":"Restaurants, Venezuelan, Latin American"}
{"business_id":"phSaT3I_y6To1J2OdeFSUQ","name":"Ed Mirvish Theatre","address":"244 Victoria Street","city":"Toronto","state":"ON","postal_code":"M5B 1V8","latitude":43.6552903704,"longitude":-79.379541448,"stars":4.0,"review_count":58,"is_open":1,"categories":"Arts & Entertainment, Performing Arts"}
{"business_id":"k9mt9XAdSz1D3VNoBlb_GQ","name":"Gare Gamelle","address":"5829 Rue Street Hubert","city":"Montréal","state":"QC","postal_code":"H2S 2L8","latitude":45.533431,"longitude":-73.5970776,"stars":4.5,"review_count":3,"is_open":1,"categories":"Pet Stores, Pets, Pet Services, Pet Groomers","hours":{"Friday":"9:0-20:0","Monday":"9:0-18:0","Saturday":"10:0-17:0","Sunday":"11:0-17:0","Thursday":"9:0-20:0","Tuesday":"9:0-18:0","Wednesday":"9:0-18:0"}}
{"business_id":"YK8aOugv9mLrzBgJKP9biA","name":"The Summerhill","address":"13775 Highway 27","city":"Nobleton","state":"ON","postal_code":"L0G 1T0","latitude":43.921109049,"longitude":-79.6567385336,"stars":3.0,"review_count":4,"is_open":1,"categories":"Beer, Wine & Spirits, Gastropubs, Canadian (New), Restaurants, Nightlife, Wine Bars, Food, Bars, Modern European, Seafood","hours":{"Friday":"12:0-0:0","Monday":"0:0-0:0","Saturday":"12:0-0:0","Sunday":"12:0-22:0","Thursday":"12:0-0:0","Tuesday":"12:0-23:0","Wednesday":"12:0-23:0"}}
{"business_id":"4L8KyWp2SUHhUVXAUg9M1A","name":"S. Zalman Haouzi","address":"84 Rue Notre-Dame O., Suite 200","city":"Montreal","state":"QC","postal_code":"H2Y 1S6","latitude":45.505036,"longitude":-73.556576,"stars":5.0,"review_count":3,"is_open":1,"categories":"Lawyers, Legal Services, Real Estate Law, Professional Services, Divorce & Family Law, DUI Law, Criminal Defense Law","hours":{"Friday":"7:0-19:0","Monday":"0:0-0:0","Thursday":"7:0-19:0","Tuesday":"7:0-19:0","Wednesday":"7:0-19:0"}}
{"business_id":"8HAsNLoSr3xi5rwQretp3w","name":"Patty King Bakery","address":"321 Progress Avenue","city":"Scarborough","state":"ON","postal_code":"M1P 2Z7","latitude":43.773591,"longitude":-79.2680632,"stars":4.0,"review_count":23,"is_open":1,"categories":"Restaurants, Food, Caribbean, Bakeries","hours":{"Friday":"8:0-17:0","Monday":"0:0-0:0","Saturday":"9:0-15:0","Thursday":"8:0-17:0","Tuesday":"8:0-17:0","Wednesday":"8:0-17:0"}}
{"business_id":"ILIPtZ-LVSriHVb6vMffhw","name":"Grannyssima","address":"12 Rue Maguire","city":"Montréal","state":"QC","postal_code":"H2T 1B8","latitude":45.5246328,"longitude":-73.5955685,"stars":4.5,"review_count":3,"is_open":1,"categories":"Juice Bars & Smoothies, Food, Cafes, Restaurants"}
{"business_id":"m-ugRaE1sKqnntoEJ8tlLA","name":"Volare","address":"6600 Chemin de la Côte-de-Liesse, Niveau hall d'entrée","city":"Saint-Laurent","state":"QC","postal_code":"H4T 1E3","latitude":45.4840743,"longitude":-73.6913184,"stars":4.5,"review_count":3,"is_open":1,"categories":"Italian, Restaurants, Breakfast & Brunch","hours":{"Friday":"6:30-22:30","Monday":"6:30-22:30","Saturday":"6:30-22:30","Sunday":"6:30-22:30","Thursday":"6:30-22:30","Tuesday":"6:30-22:30","Wednesday":"6:30-22:30"}}
{"business_id":"FTRuQkWwQqtf9J_TTqbJtA","name":"Wendy's","address":"9801 Jane Street","city":"Maple","state":"ON","postal_code":"L6A 3N9","latitude":43.8484241,"longitude":-79.5357117,"stars":3.0,"review_count":7,"is_open":1,"categories":"Restaurants, Fast Food, Burgers"}
{"business_id":"omfSvRsQVhJkU_yB8udhIw","name":"McDonalds","address":"1280 Markham Road","city":"Scarborough","state":"ON","postal_code":"M1H 3B4","latitude":43.7811440046,"longitude":-79.233879894,"stars":3.0,"review_count":6,"is_open":1,"categories":"Restaurants, Fast Food, Burgers","hours":{"Friday":"0:0-0:0","Monday":"0:0-0:0","Saturday":"0:0-0:0","Sunday":"0:0-0:0","Thursday":"0:0-0:0","Tuesday":"0:0-0:0","Wednesday":"0:0-0:0"}}
{"business_id":"N0Tk9ORpX-gtbPNR0WoznQ","name":"Tandem","address":"586 Rue Villeray","city":"Montréal","state":"QC","postal_code":"H2R 1H6","latitude":45.5424203,"longitude":-73.6220106,"stars":4.5,"review_count":11,"is_open":1,"categories":"Restaurants, Mediterranean, French","hours":{"Friday":"17:30-21:30","Saturday":"17:30-21:30","Thursday":"17:30-21:30","Tuesday":"17:30-21:30","Wednesday":"17:30-21:30"}}
{"business_id":"UlEPHgzjvPAD-un_m-5_fA","name":"Möcelle Edan Cosmetic Clinic","address":"Holt Renfrew Centre, Concourse Level","city":"Toronto","state":"ON","postal_code":"M4W 1A1","latitude":43.6703694,"longitude":-79.3882702,"stars":2.0,"review_count":4,"is_open":1,"categories":"Hair Removal, Beauty & Spas"}
{"business_id":"U7by1vfecuy6qF8-F4F-MQ","name":"Ronda Sushi","address":"7066 Sherbrooke Rue E","city":"Montréal","state":"QC","postal_code":"H1N 1E6","latitude":45.5874581,"longitude":-73.5398517,"stars":4.0,"review_count":4,"is_open":1,"categories":"Sushi Bars, Restaurants"}
{"business_id":"-AGPeLecG3O0JpvHjNSasQ","name":"Canadian Fingerprinting Services","address":"208-2 College St, Unit 208","city":"Toronto","state":"ON","postal_code":"M5G 1K3","latitude":43.661351,"longitude":-79.383448,"stars":5.0,"review_count":3,"is_open":1,"categories":"Professional Services","hours":{"Friday":"8:0-18:0","Monday":"8:0-18:0","Saturday":"10:0-16:0","Thursday":"8:0-18:0","Tuesday":"8:0-18:0","Wednesday":"8:0-18:0"}}
{"business_id":"LHOa9n7JQCGgnMoA1NDbbw","name":"Julieta Cuisine Latine","address":"67 Rue Beaubien East","city":"Montréal","state":"QC","postal_code":"H2S 1R1","latitude":45.5311411,"longitude":-73.6077813,"stars":4.5,"review_count":11,"is_open":0,"categories":"Latin American, Restaurants, Breakfast & Brunch","hours":{"Friday":"17:0-22:0","Monday":"17:0-22:0","Saturday":"17:0-22:0","Sunday":"10:0-15:0","Thursday":"17:0-22:0"}}
{"business_id":"k8kkV12YXfjVvl29sCz6ug","name":"The Beer Store","address":"3524 Dundas St W","city":"York","state":"ON","postal_code":"M6S 2S1","latitude":43.6660886,"longitude":-79.4891672,"stars":3.0,"review_count":3,"is_open":1,"categories":"Food, Beer, Wine & Spirits"}
{"business_id":"MqzhcwNtu2PJiDrmDbXbJA","name":"Jane Dundas Library","address":"620 Jane Street","city":"Toronto","state":"ON","postal_code":"M4W 1A7","latitude":43.6655714,"longitude":-79.4913426,"stars":3.0,"review_count":5,"is_open":1,"categories":"Public Services & Government, Libraries","hours":{"Friday":"9:0-17:0","Monday":"9:0-20:30","Saturday":"9:0-17:0","Thursday":"9:0-20:30","Tuesday":"9:0-20:30","Wednesday":"9:0-20:30"}}
{"business_id":"RSxQjwon9qYhYUcx_znsxg","name":"Island Pot","address":"3085 Hurontario Street, Unit 11B","city":"Mississauga","state":"ON","postal_code":"L5A 4E4","latitude":43.5819682,"longitude":-79.6185932,"stars":3.5,"review_count":3,"is_open":0,"categories":"Caribbean, Restaurants, Barbeque, Vegetarian","hours":{"Friday":"9:0-22:0","Monday":"10:0-21:0","Saturday":"9:0-22:0","Sunday":"9:0-18:0","Thursday":"10:0-21:0","Tuesday":"10:0-21:0","Wednesday":"10:0-21:0"}}
{"business_id":"dhh3jjlfjv9lUlWqR6wsdg","name":"Hot & Spicy","address":"7373 Decarie Boulevard","city":"Montréal","state":"QC","postal_code":"H4P 2G8","latitude":45.4946291,"longitude":-73.6518564,"stars":3.5,"review_count":3,"is_open":0,"categories":"Restaurants, Chinese"}
{"business_id":"sA2M8z2W-gsfvjLCdfB8MA","name":"Domino's Pizza","address":"1053 Canyon Meadows Drive SW","city":"Calgary","state":"AB","postal_code":"T2W 5V3","latitude":50.9386093,"longitude":-114.0837092,"stars":3.5,"review_count":3,"is_open":1,"categories":"Restaurants, Pizza","hours":{"Friday":"11:0-2:0","Monday":"11:0-0:0","Saturday":"11:0-2:0","Sunday":"11:0-0:0","Thursday":"11:0-0:0","Tuesday":"11:0-0:0","Wednesday":"11:0-0:0"}}
{"business_id":"W4sUcmp8VDB_RMgj9ps0yg","name":"Tan Tan Kat","address":"3920 Rue Saint-Denis","city":"Montréal","state":"QC","postal_code":"H2W 2M2","latitude":45.5199186,"longitude":-73.57435,"stars":4.5,"review_count":3,"is_open":1,"categories":"Flowers & Gifts, Beauty & Spas, Cosmetics & Beauty Supply, Shopping, Gift Shops","hours":{"Friday":"12:0-19:0","Saturday":"12:0-19:0","Sunday":"12:0-17:0","Thursday":"12:0-19:0","Tuesday":"12:0-19:0","Wednesday":"12:0-19:0"}}
{"business_id":"CgyzY1Xk3yWwAjYCtEEE3w","name":"Martino Brothers Collision","address":"3379 Dundas Street W","city":"York","state":"ON","postal_code":"M6S 2R9","latitude":43.6654056,"longitude":-79.482912,"stars":2.0,"review_count":5,"is_open":1,"categories":"Body Shops, Automotive, Auto Repair","hours":{"Friday":"8:0-17:30","Monday":"8:0-17:30","Saturday":"9:0-12:0","Thursday":"8:0-17:30","Tuesday":"8:0-17:30","Wednesday":"8:0-17:30"}}
{"business_id":"hyXD6UdfrnixcPyrH-nZqA","name":"Pont Champlain Bridge","address":"","city":"Montréal","state":"QC","postal_code":"J4Y 1A2","latitude":45.4688487366,"longitude":-73.5210131127,"stars":3.5,"review_count":5,"is_open":1,"categories":"Landmarks & Historical Buildings, Local Flavor, Public Services & Government"}
{"business_id":"HdsnvJdRGHEE4qFum2Nqug","name":"Sushi Shop - Riocan Yonge Eglinton Centre","address":"2300 Yonge Street","city":"Toronto","state":"ON","postal_code":"M4P 1E4","latitude":43.7072761,"longitude":-79.3996009,"stars":4.0,"review_count":8,"is_open":1,"categories":"Restaurants, Sushi Bars","hours":{"Friday":"11:0-20:0","Monday":"11:0-20:0","Saturday":"11:0-18:0","Thursday":"11:0-20:0","Tuesday":"11:0-20:0","Wednesday":"11:0-20:0"}}
{"business_id":"U8mNpPrXO6P3VGdUj9dFbQ","name":"Butter Baker","address":"120 Dundas Street W","city":"Toronto","state":"ON","postal_code":"M5G 1C3","latitude":43.6558371,"longitude":-79.3844562,"stars":4.0,"review_count":102,"is_open":1,"categories":"Desserts, Patisserie/Cake Shop, Food, Bakeries, Coffee & Tea","hours":{"Friday":"8:0-22:0","Monday":"10:0-21:0","Saturday":"9:0-22:0","Sunday":"9:0-22:0","Thursday":"8:0-21:0","Tuesday":"8:0-21:0","Wednesday":"8:0-21:0"}}
{"business_id":"BDCSaCKVEuQNtfgayiqbUg","name":"Harvey's & Swiss Chalet Combo","address":"1 Henderson Dr, Unit 4","city":"Aurora","state":"ON","postal_code":"L4G 4J7","latitude":43.9825373,"longitude":-79.4644997,"stars":3.5,"review_count":9,"is_open":1,"categories":"Burgers, Canadian (New), Restaurants, American (Traditional), Fast Food","hours":{"Friday":"11:0-22:0","Monday":"11:0-22:0","Saturday":"11:0-22:0","Sunday":"11:0-21:30","Thursday":"11:0-22:0","Tuesday":"11:0-22:0","Wednesday":"11:0-22:0"}}
{"business_id":"KfuHr7dYyEaDrHtQpFdNUw","name":"Revival Bridal Boutique","address":"7007 Islington Avenue, Unit 3","city":"Woodbridge","state":"ON","postal_code":"L4L 4T5","latitude":43.7644147,"longitude":-79.5747969,"stars":5.0,"review_count":4,"is_open":0,"categories":"Bridal, Shopping, Sewing & Alterations, Local Services","hours":{"Friday":"16:0-20:0","Saturday":"11:0-17:0","Sunday":"11:0-17:0","Thursday":"16:0-20:0"}}
{"business_id":"yMtZDKeiEmwrC_HjIX9KAQ","name":"Kensingtons","address":"181 Baldwin St","city":"Toronto","state":"ON","postal_code":"M5T 1L9","latitude":43.6548249,"longitude":-79.400634,"stars":1.5,"review_count":28,"is_open":0,"categories":"Food, Coffee & Tea","hours":{"Friday":"9:0-19:0","Monday":"9:0-19:0","Saturday":"9:0-19:0","Sunday":"9:0-19:0","Thursday":"9:0-19:0","Tuesday":"9:0-19:0","Wednesday":"9:0-19:0"}}
{"business_id":"PsatZ8lzKEXOc_hImnYNNA","name":"Rôtisserie St-Hubert","address":"960 Boulevard du Seminaire N","city":"Saint-Jean-sur-Richelieu","state":"QC","postal_code":"J3A 1L2","latitude":45.3346351,"longitude":-73.2686358,"stars":3.5,"review_count":3,"is_open":1,"categories":"Barbeque, Restaurants, Chicken Shop, Canadian (New)","hours":{"Friday":"11:0-23:0","Monday":"11:0-22:0","Saturday":"10:0-23:0","Sunday":"10:0-22:0","Thursday":"11:0-23:0","Tuesday":"11:0-22:0","Wednesday":"11:0-22:0"}}
{"business_id":"lwlyvOPo9X3u4bkaWhFD7A","name":"Leone Fine Foods","address":"8655 Weston Road","city":"Vaughan","state":"ON","postal_code":"L4L 9R6","latitude":43.8129549,"longitude":-79.5521779,"stars":4.0,"review_count":5,"is_open":1,"categories":"Butcher, Food","hours":{"Friday":"9:0-18:0","Monday":"9:0-17:0","Saturday":"9:0-17:0","Thursday":"9:0-18:0","Tuesday":"9:0-17:0","Wednesday":"9:0-17:0"}}
{"business_id":"-Fg5j5-rNdp5Hc1rmA5hkQ","name":"Souto Farms","address":"520 77 Avenue Southeast","city":"Calgary","state":"AB","postal_code":"T2H 1C3","latitude":50.9860787,"longitude":-114.0515721,"stars":4.5,"review_count":3,"is_open":0,"categories":"Farmers Market, Food"}
{"business_id":"86Cq7KrcFUo1LGtNORfo1w","name":"KazaMaza","address":"4629 Avenue du Parc","city":"Montréal","state":"QC","postal_code":"H2V 4E4","latitude":45.517858,"longitude":-73.591312,"stars":4.0,"review_count":103,"is_open":1,"categories":"Restaurants, Middle Eastern","hours":{"Friday":"17:30-23:0","Saturday":"13:0-23:0","Sunday":"13:0-22:0","Thursday":"17:30-22:0","Tuesday":"17:30-22:0","Wednesday":"17:30-22:0"}}
{"business_id":"9S_cyyNQMv-hmSKaoSYzpQ","name":"Thomas Fisher Rare Book Library","address":"120 St. George Street","city":"Toronto","state":"ON","postal_code":"M5S 3H1","latitude":43.6640736,"longitude":-79.3989838,"stars":4.0,"review_count":5,"is_open":1,"categories":"Libraries, Public Services & Government","hours":{"Friday":"9:0-17:0","Monday":"9:0-17:0","Thursday":"9:0-17:0","Tuesday":"9:0-17:0","Wednesday":"9:0-17:0"}}
{"business_id":"pRwh3BEM-dhixAGJl_TgUA","name":"Ten Ren Tea Company","address":"454 Dundas St W","city":"Toronto","state":"ON","postal_code":"M5T 1G9","latitude":43.653409,"longitude":-79.396344,"stars":3.0,"review_count":34,"is_open":1,"categories":"Restaurants, Chinese, Coffee & Tea, Food","hours":{"Monday":"10:0-20:0","Tuesday":"10:0-20:0","Wednesday":"10:0-20:0"}}
{"business_id":"LqbWGHDW43ZsJaYS8RJvOQ","name":"Blowdry Lounge","address":"1788 Avenue Road","city":"Toronto","state":"ON","postal_code":"M5M 3Y9","latitude":43.7299490239,"longitude":-79.4188812375,"stars":5.0,"review_count":3,"is_open":1,"categories":"Beauty & Spas, Blow Dry/Out Services, Hair Salons","hours":{"Friday":"8:0-21:0","Monday":"8:0-19:0","Saturday":"9:0-18:0","Sunday":"11:0-16:0","Thursday":"8:0-21:0","Tuesday":"8:0-19:0","Wednesday":"8:0-19:0"}}
{"business_id":"0Ovh4Vn9ntMt5Ara-ZP2sA","name":"Cinquecento Trattoria","address":"Liberty Village, 109 Atlantic Ave","city":"Toronto","state":"ON","postal_code":"M6K 1X4","latitude":43.6401061,"longitude":-79.4212152,"stars":3.5,"review_count":12,"is_open":0,"categories":"Italian, Restaurants","hours":{"Friday":"11:30-23:0","Monday":"11:30-15:0","Saturday":"12:0-23:0","Thursday":"11:30-22:0","Tuesday":"11:30-22:0","Wednesday":"11:30-22:0"}}
{"business_id":"VJWPjxk4Tkndx_3xYwnlag","name":"CosmoProf","address":"2387 Danforth Ave","city":"Toronto","state":"ON","postal_code":"M4C 1K8","latitude":43.6871566,"longitude":-79.3052752,"stars":2.0,"review_count":6,"is_open":1,"categories":"Beauty & Spas, Cosmetics & Beauty Supply, Shopping","hours":{"Friday":"8:30-18:0","Monday":"8:30-20:0","Saturday":"8:30-16:0","Thursday":"8:30-18:0","Tuesday":"8:30-18:0","Wednesday":"8:30-18:0"}}
{"business_id":"o1XlLenc3b_QWRM5u5dtyw","name":"Porter Moving and Storage","address":"1815 Meyerside Drive","city":"Mississauga","state":"ON","postal_code":"L5T 1G3","latitude":43.6675142,"longitude":-79.6473158,"stars":2.0,"review_count":4,"is_open":1,"categories":"Local Services, Movers, Home Services, Self Storage","hours":{"Friday":"8:0-18:0","Monday":"8:0-18:0","Saturday":"8:0-18:0","Sunday":"12:0-17:0","Thursday":"8:0-18:0","Tuesday":"8:0-18:0","Wednesday":"8:0-18:0"}}
{"business_id":"KHqij5fQzVasYs2Q9mDddg","name":"Sport Chek Square One","address":"199 Rathburn Road W","city":"Mississauga","state":"ON","postal_code":"L5B 4C1","latitude":43.5937692829,"longitude":-79.6435080926,"stars":4.0,"review_count":4,"is_open":0,"categories":"Sporting Goods, Shopping"}
{"business_id":"BdYEbF9z2IqaJ7R5bduxJw","name":"Taverna","address":"195 Rue de Bellechasse","city":"Montréal","state":"QC","postal_code":"H2S 1W3","latitude":45.530406,"longitude":-73.604014,"stars":4.5,"review_count":3,"is_open":1,"categories":"Wine Bars, Nightlife, Bars","hours":{"Friday":"16:0-3:0","Saturday":"16:0-3:0","Sunday":"16:0-21:0","Thursday":"16:0-2:0","Tuesday":"16:0-23:0","Wednesday":"16:0-23:0"}}
{"business_id":"RnyuG8Ngt1rr3mFD3oYicw","name":"Green Grotto Tea Room","address":"4981 Highway 7 E, Unit 11","city":"Markham","state":"ON","postal_code":"L3R 1N1","latitude":43.8647681,"longitude":-79.2925506,"stars":3.0,"review_count":42,"is_open":1,"categories":"Taiwanese, Restaurants, Food, Bubble Tea","hours":{"Friday":"11:0-2:0","Monday":"11:0-1:0","Saturday":"11:0-2:0","Sunday":"11:0-1:0","Thursday":"11:0-1:0","Tuesday":"11:0-1:0","Wednesday":"11:0-1:0"}}
{"business_id":"tCbGpGg5VMzH5RBp4Hc-LA","name":"Tiffany & Co.","address":"6455 Macleod Trl SW","city":"Calgary","state":"AB","postal_code":"T2H 0L1","latitude":50.995893,"longitude":-114.071809,"stars":4.0,"review_count":12,"is_open":1,"categories":"Shopping, Jewelry"}
{"business_id":"GD99qIgZ-QeIY4thevw9Iw","name":"Avocado","address":"1105 Bay Street","city":"Toronto","state":"ON","postal_code":"M5S 2B3","latitude":43.6676864,"longitude":-79.3885969,"stars":3.5,"review_count":14,"is_open":0,"categories":"Restaurants, Sushi Bars, Vegetarian, Japanese","hours":{"Friday":"11:30-22:0","Monday":"11:30-22:0","Saturday":"12:0-22:0","Sunday":"15:0-21:0","Thursday":"11:30-22:0","Tuesday":"11:30-22:0","Wednesday":"11:30-22:0"}}
{"business_id":"d09Vmq6yDqFvtGooyfid_g","name":"EvelineCharles Salon, Spa & Beauty MD","address":"3625 Shagnappi Terrace","city":"Calgary","state":"AB","postal_code":"T3A 0E1","latitude":51.085435,"longitude":-114.152942,"stars":2.5,"review_count":3,"is_open":0,"categories":"Hair Salons, Beauty & Spas, Day Spas, Nail Salons, Health & Medical, Medical Spas","hours":{"Friday":"9:0-21:0","Monday":"9:0-21:0","Saturday":"9:0-21:0","Sunday":"11:0-18:0","Thursday":"9:0-21:0","Tuesday":"9:0-21:0","Wednesday":"9:0-21:0"}}
{"business_id":"P1toOu4A_i3J8NxUJamvZg","name":"Hair Addictions","address":"2308 Queen Street E","city":"Toronto","state":"ON","postal_code":"M4E 1G8","latitude":43.6735856,"longitude":-79.2836318,"stars":5.0,"review_count":3,"is_open":1,"categories":"Beauty & Spas, Hair Salons, Barbers"}
{"business_id":"y1AM7MeCN3HaS7SHnxcBfQ","name":"Il Mulino","address":"1060 Eglinton Avenue W","city":"Toronto","state":"ON","postal_code":"M6C 2C5","latitude":43.7001105,"longitude":-79.4307194,"stars":4.0,"review_count":60,"is_open":0,"categories":"Restaurants, Italian","hours":{"Friday":"17:0-23:0","Monday":"17:0-23:0","Saturday":"17:0-23:0","Sunday":"17:0-23:0","Thursday":"17:0-23:0","Tuesday":"17:0-23:0","Wednesday":"17:0-23:0"}}
{"business_id":"1RJqFVKWm_xMqQ4WcURFSA","name":"Tim Hortons","address":"6966 Financial Drive","city":"Mississauga","state":"ON","postal_code":"L5N 8J4","latitude":43.6096480444,"longitude":-79.7497275565,"stars":2.5,"review_count":12,"is_open":1,"categories":"Coffee & Tea, Donuts, Restaurants, Bakeries, Breakfast & Brunch, Food","hours":{"Friday":"0:0-0:0","Monday":"0:0-0:0","Saturday":"0:0-0:0","Sunday":"0:0-0:0","Thursday":"0:0-0:0","Tuesday":"0:0-0:0","Wednesday":"0:0-0:0"}}
{"business_id":"muroxJFpKgY7Ahmq7G5kcw","name":"Mama Koka","address":"2836 Lake Shore Boulevard W","city":"Etobicoke","state":"ON","postal_code":"M8V 1H7","latitude":43.6015735,"longitude":-79.501721,"stars":4.0,"review_count":6,"is_open":0,"categories":"Restaurants, Mediterranean, Halal, Arabian","hours":{"Friday":"11:0-20:0","Monday":"11:0-20:0","Saturday":"11:0-20:0","Thursday":"11:0-20:0","Tuesday":"11:0-20:0","Wednesday":"11:0-20:0"}}
{"business_id":"Bs7uwvIf3M9G2fSNP9uJdA","name":"Restaurant Les Beaux Jeudis","address":"1449 Crescent Rue","city":"Montréal","state":"QC","postal_code":"H3G 2B2","latitude":45.497894,"longitude":-73.5766957,"stars":3.5,"review_count":4,"is_open":1,"categories":"Event Planning & Services, Hotels, Venues & Event Spaces, Hotels & Travel"}
{"business_id":"x-yv0YJrE-BxFAHADsnPyQ","name":"Aristotle's Steak & Seafood","address":"6905 Millcreek Drive","city":"Mississauga","state":"ON","postal_code":"L5N 6A3","latitude":43.5960923,"longitude":-79.7567231,"stars":3.5,"review_count":23,"is_open":1,"categories":"Caterers, Salad, Steakhouses, Restaurants, Event Planning & Services, Seafood","hours":{"Friday":"17:0-23:0","Monday":"17:0-22:0","Saturday":"17:0-23:0","Sunday":"17:0-22:0","Thursday":"17:0-23:0","Tuesday":"17:0-22:0","Wednesday":"17:0-22:0"}}
{"business_id":"Oxz7xIKw2iJhxU-V_jpX7A","name":"La Piazzetta","address":"1101 Rue Sainte-Catherine Est","city":"Montréal","state":"QC","postal_code":"H2L 2G6","latitude":45.5176262617,"longitude":-73.5571291311,"stars":3.5,"review_count":35,"is_open":1,"categories":"Restaurants, Pizza, Italian","hours":{"Friday":"11:0-0:0","Monday":"11:0-23:0","Saturday":"11:0-0:0","Sunday":"11:30-23:0","Thursday":"11:0-0:0","Tuesday":"11:0-23:0","Wednesday":"11:0-23:0"}}
{"business_id":"Vwv0Db2gvyvQsM_1FkSDPA","name":"Cube","address":"314 Queen Street West","city":"Toronto","state":"ON","postal_code":"M5V 2A2","latitude":43.6494766,"longitude":-79.3942329,"stars":2.0,"review_count":51,"is_open":1,"categories":"Dance Clubs, Nightlife, Bars, Party & Event Planning, Lounges, Cocktail Bars, Event Planning & Services","hours":{"Friday":"22:0-3:0","Saturday":"22:0-3:0"}}
{"business_id":"HNQzWfhR8kIgTsoxLKCcSw","name":"Balsam Inn","address":"1237 Rue Metcalfe","city":"Montréal","state":"QC","postal_code":"H3B 2V5","latitude":45.5006178,"longitude":-73.5713817,"stars":4.0,"review_count":64,"is_open":1,"categories":"Bars, Cocktail Bars, Nightlife, Italian, Restaurants","hours":{"Friday":"11:30-23:0","Saturday":"16:30-23:0","Thursday":"11:30-23:0","Tuesday":"11:30-23:0","Wednesday":"11:30-23:0"}}
{"business_id":"F8faeZhtFmBskuW4f-FF2w","name":"Glenbow Museum","address":"130 9th Avenue SE","city":"Calgary","state":"AB","postal_code":"T2G 0P3","latitude":51.0449777,"longitude":-114.0611335,"stars":4.0,"review_count":33,"is_open":1,"categories":"Art Museums, Libraries, Shopping, Public Services & Government, Museums, Arts & Entertainment, Art Galleries","hours":{"Friday":"9:0-17:0","Monday":"0:0-0:0","Saturday":"9:0-17:0","Sunday":"12:0-17:0","Thursday":"9:0-21:0","Tuesday":"9:0-17:0","Wednesday":"9:0-17:0"}}
{"business_id":"_NA8hAIn30R-25KucMZsvA","name":"Art Sense","address":"7510 C 5th Street SE","city":"Calgary","state":"AB","postal_code":"T2H 2L9","latitude":50.9865298,"longitude":-114.0495637,"stars":5.0,"review_count":3,"is_open":1,"categories":"Shopping, Printing Services, Home Decor, Local Services, Art Galleries, Arts & Entertainment, Arts & Crafts, Home & Garden, Framing","hours":{"Friday":"9:30-17:30","Monday":"9:30-17:30","Saturday":"9:30-17:30","Sunday":"11:0-16:0","Thursday":"9:30-17:30","Tuesday":"9:30-17:30","Wednesday":"9:30-17:30"}}
