{"business_id":"w6niunkFF3NbPNN5BJBnHQ","name":"Joe Rockhead's Climbing Gym","address":"29 Fraser Ave","city":"Toronto","state":"ON","postal_code":"M6K 1Y7","latitude":43.6364129,"longitude":-79.4231353,"stars":3.5,"review_count":27,"is_open":1,"categories":"Trainers, Specialty Schools, Active Life, Climbing, Education, Fitness & Instruction","hours":{"Friday":"10:0-23:0","Monday":"10:0-23:0","Saturday":"10:0-22:0","Sunday":"10:0-22:0","Thursday":"10:0-23:0","Tuesday":"10:0-23:0","Wednesday":"10:0-23:0"}}
{"business_id":"E1WG9lbypCMKlKhAjzWRsQ","name":"520 BBQ House","address":"3290 Midland Avenue, Unit 1","city":"Toronto","state":"ON","postal_code":"M1V 3Z9","latitude":43.8064588,"longitude":-79.2894695,"stars":3.0,"review_count":10,"is_open":0,"categories":"Barbeque, Chinese, Restaurants","hours":{"Friday":"12:0-3:0","Monday":"16:0-3:0","Saturday":"12:0-3:0","Sunday":"12:0-3:0","Thursday":"16:0-3:0","Tuesday":"16:0-3:0","Wednesday":"16:0-3:0"}}
{"business_id":"U-HyHH-Uk1BiYpWTbtCfGg","name":"Impark","address":"10th Avenue SE, Suite 112","city":"Calgary","state":"AB","postal_code":"T2G 0R1","latitude":51.0432853,"longitude":-114.0621953,"stars":1.5,"review_count":6,"is_open":1,"categories":"Automotive, Parking","hours":{"Friday":"8:0-17:0","Monday":"8:0-17:0","Thursday":"8:0-17:0","Tuesday":"8:0-17:0","Wednesday":"8:0-17:0"}}
{"business_id":"kirWG47L6MdidzJKY5RTXQ","name":"Dollarama","address":"100 City Centre Drive","city":"Mississauga","state":"ON","postal_code":"L5B 2C9","latitude":43.5930784,"longitude":-79.6424911,"stars":3.5,"review_count":6,"is_open":1,"categories":"Shopping, Discount Store"}
{"business_id":"dTqPQDMzzUBNsKre6Hk6eA","name":"Kapetan Restaurant & Salle de Reception","address":"576 Avenue Victoria","city":"Saint-Lambert","state":"QC","postal_code":"J4P 2J5","latitude":45.5009522,"longitude":-73.5097853,"stars":3.5,"review_count":3,"is_open":1,"categories":"Breakfast & Brunch, Comfort Food, Restaurants, Event Planning & Services, Venues & Event Spaces, Canadian (New)","hours":{"Friday":"6:30-23:0","Monday":"6:30-22:0","Saturday":"6:30-0:0","Sunday":"7:0-22:0","Thursday":"6:30-23:0","Tuesday":"6:30-22:0","Wednesday":"6:30-22:0"}}
{"business_id":"XHLosZpY3N827hAYmtoj2A","name":"The Keg Steakhouse & Bar","address":"3300 Rutherford Road","city":"Concord","state":"ON","postal_code":"L4K 5Z2","latitude":43.8296783449,"longitude":-79.5398973991,"stars":3.5,"review_count":61,"is_open":1,"categories":"Steakhouses, Bars, Restaurants, Nightlife, Seafood","hours":{"Friday":"16:0-1:0","Monday":"16:0-0:0","Saturday":"15:0-1:0","Sunday":"12:0-23:0","Thursday":"16:0-1:0","Tuesday":"16:0-0:0","Wednesday":"16:0-0:0"}}
{"business_id":"FuYcbqKT2JKD05RYvvELaw","name":"Foonzo","address":"1245 Rue Drummond","city":"Montréal","state":"QC","postal_code":"H3G 1V8","latitude":45.4985817,"longitude":-73.5739275,"stars":4.0,"review_count":36,"is_open":1,"categories":"Food, Arts & Entertainment, Arcades, Bars, Shopping, Coffee & Tea, Nightlife, Dive Bars, Tabletop Games, Lounges, Fitness & Instruction, Active Life","hours":{"Friday":"17:0-3:0","Monday":"17:0-1:0","Saturday":"17:0-3:0","Sunday":"17:0-1:0","Thursday":"17:0-1:0","Tuesday":"17:0-1:0","Wednesday":"17:0-1:0"}}
{"business_id":"Pumz9xgviOv3KSTXsNNtqw","name":"Hair by Lena Unisex","address":"1003 Bloor Street W","city":"Toronto","state":"ON","postal_code":"M6H 1M1","latitude":43.6607998,"longitude":-79.4302732,"stars":2.5,"review_count":3,"is_open":1,"categories":"Hair Salons, Beauty & Spas","hours":{"Friday":"10:0-19:0","Monday":"10:0-19:0","Saturday":"10:0-18:0","Thursday":"10:0-19:0","Tuesday":"10:0-19:0","Wednesday":"10:0-19:0"}}
{"business_id":"VF6al3kAVLMtXNnscPJahA","name":"Bellwoods Brewery","address":"20 Hafis Road","city":"Toronto","state":"ON","postal_code":"M6M 2V6","latitude":43.7065588,"longitude":-79.4692901,"stars":4.5,"review_count":12,"is_open":1,"categories":"Restaurants, Food, Canadian (New), Breweries","hours":{"Friday":"12:0-19:0","Monday":"12:0-19:0","Saturday":"12:0-19:0","Sunday":"12:0-19:0","Thursday":"12:0-19:0","Tuesday":"12:0-19:0","Wednesday":"12:0-19:0"}}
{"business_id":"zzjKekzQ6i4iR-qpo405Pw","name":"Restaurant Hoya","address":"305 Avenue du Mont-Royal E","city":"Montréal","state":"QC","postal_code":"H2T 1P8","latitude":45.5230871,"longitude":-73.5838585,"stars":4.0,"review_count":20,"is_open":1,"categories":"Restaurants, Korean","hours":{"Friday":"11:30-22:0","Monday":"17:0-22:0","Saturday":"17:0-22:0","Sunday":"17:0-22:0","Thursday":"11:30-22:0","Tuesday":"11:30-22:0","Wednesday":"11:30-22:0"}}
{"business_id":"nyZ9-KTtfq_ntD6M1G79iQ","name":"Henrietta Lane Cafe & Drinkery","address":"394 King Street E","city":"Toronto","state":"ON","postal_code":"M5A 1K9","latitude":43.6540661,"longitude":-79.361267,"stars":4.5,"review_count":4,"is_open":1,"categories":"Wine Bars, Bars, Breakfast & Brunch, Beer Bar, Cafes, Restaurants, Nightlife"}
{"business_id":"HGfpMtazoIB6-JBEcq7b_g","name":"Z1 Cycletech","address":"47 Algie Avenue","city":"Toronto","state":"ON","postal_code":"M8Z 5J9","latitude":43.6179079,"longitude":-79.5362167,"stars":5.0,"review_count":3,"is_open":1,"categories":"Motorcycle Dealers, Auto Parts & Supplies, Motorcycle Repair, Automotive","hours":{"Friday":"10:0-18:30","Monday":"10:0-18:30","Saturday":"11:0-15:0","Thursday":"10:0-18:30","Tuesday":"10:0-18:30","Wednesday":"10:0-18:30"}}
{"business_id":"87fqG0MCkrx5wu332-LUSg","name":"Camp Tournesol","address":"25-366 Revus Avenue","city":"Mississauga","state":"ON","postal_code":"L5G 4S4","latitude":43.5650408,"longitude":-79.5759219,"stars":4.0,"review_count":4,"is_open":1,"categories":"Day Camps, Active Life, Education, Local Services, Summer Camps, Child Care & Day Care, Private Tutors","hours":{"Friday":"8:30-17:30","Monday":"0:0-0:0","Thursday":"8:30-17:30","Tuesday":"8:30-17:30","Wednesday":"8:30-17:30"}}
{"business_id":"zhx7x3GG5cVqlWTtA-6xSA","name":"Royal Care Optical","address":"4300 Steeles Avenue E, Suite B29","city":"Markham","state":"ON","postal_code":"L3R 0Y5","latitude":43.8250037,"longitude":-79.3058147,"stars":2.5,"review_count":3,"is_open":1,"categories":"Eyewear & Opticians, Health & Medical, Shopping","hours":{"Friday":"11:0-20:0","Monday":"11:0-20:0","Saturday":"11:0-20:0","Sunday":"11:0-19:0","Thursday":"11:0-20:0","Tuesday":"11:0-20:0","Wednesday":"11:0-20:0"}}
{"business_id":"xyCDuLRuVRH5HBMzVEuYrw","name":"Nutrition House Hudson Bay Center","address":"2 Bloor Street E","city":"Toronto","state":"ON","postal_code":"M4W 1A8","latitude":43.6710978,"longitude":-79.386063,"stars":3.5,"review_count":3,"is_open":1,"categories":"Health Markets, Specialty Food, Food, Shopping"}
{"business_id":"h-Il9oq7rJKkRTIEg9uIOw","name":"Big Pita","address":"115 Front Street","city":"Toronto","state":"ON","postal_code":"M5A 4S5","latitude":43.6494481,"longitude":-79.3707486,"stars":3.5,"review_count":10,"is_open":1,"categories":"Halal, Food, Restaurants, Greek, Donairs, Mediterranean, Middle Eastern","hours":{"Friday":"11:0-21:0","Monday":"11:0-21:0","Saturday":"11:0-21:0","Sunday":"11:0-21:0","Thursday":"11:0-21:0","Tuesday":"11:0-21:0","Wednesday":"11:0-21:0"}}
{"business_id":"lpnuObNKbkH8usnUSqNcjg","name":"Cafellini","address":"758 Rue Beaubien Est","city":"Montréal","state":"QC","postal_code":"H2S 1S7","latitude":45.5355890431,"longitude":-73.6033840477,"stars":4.0,"review_count":21,"is_open":1,"categories":"Coffee & Tea, Food, Restaurants, Cafes","hours":{"Friday":"7:0-18:0","Monday":"7:0-18:0","Saturday":"8:0-18:0","Sunday":"9:0-18:0","Thursday":"7:0-18:0","Tuesday":"7:0-18:0","Wednesday":"7:0-18:0"}}
{"business_id":"uChTCA6MsLAciDRklpO-Fw","name":"Makkal Chon","address":"1979 Lawrence Avenue E","city":"Toronto","state":"ON","postal_code":"M1R 2Z2","latitude":43.7446409,"longitude":-79.296277,"stars":4.0,"review_count":275,"is_open":1,"categories":"Restaurants, Greek, Korean","hours":{"Friday":"11:0-22:0","Monday":"11:0-22:0","Saturday":"11:0-22:0","Sunday":"12:0-22:0","Thursday":"11:0-22:0","Tuesday":"11:0-22:0","Wednesday":"11:0-22:0"}}
{"business_id":"xiTY7XLMRta2u1uNSYQIOA","name":"Southern Spice Cuisine","address":"4655 54 Avenue NE, Unit 102","city":"Calgary","state":"AB","postal_code":"T2C 2L9","latitude":51.102051,"longitude":-113.967793,"stars":3.0,"review_count":8,"is_open":0,"categories":"Pakistani, Indian, Restaurants","hours":{"Friday":"11:0-22:0","Saturday":"10:0-22:0","Sunday":"10:0-22:0","Thursday":"11:0-22:0","Tuesday":"11:0-22:0","Wednesday":"11:0-22:0"}}
{"business_id":"uTzZFspcDwLCQtSQg6sEYQ","name":"Danforth Neighbourhood Dental Centre","address":"643 Danforth Avenue","city":"Toronto","state":"ON","postal_code":"M4K 1R2","latitude":43.6786812,"longitude":-79.3451437,"stars":3.0,"review_count":9,"is_open":1,"categories":"Health & Medical, Dentists, General Dentistry","hours":{"Friday":"8:0-20:0","Monday":"8:0-20:0","Saturday":"8:30-16:0","Thursday":"8:0-20:0","Tuesday":"8:0-20:0","Wednesday":"8:0-20:0"}}
{"business_id":"lWLJWyvhUHcRABDt-g77sQ","name":"Toys R US","address":"200 Windflower Gate","city":"Woodbridge","state":"ON","postal_code":"L4L 9L3","latitude":43.7902251064,"longitude":-79.5551362513,"stars":4.0,"review_count":3,"is_open":0,"categories":"Children's Clothing, Shopping, Fashion, Toy Stores, Baby Gear & Furniture","hours":{"Friday":"10:0-21:0","Monday":"10:0-21:0","Saturday":"9:30-19:0","Sunday":"10:0-18:0","Thursday":"10:0-21:0","Tuesday":"10:0-21:0","Wednesday":"10:0-21:0"}}
{"business_id":"EV6UA0gE_CB6FLC1XYB-7Q","name":"Canadian Tire","address":"607 Danforth Avenue","city":"Toronto","state":"ON","postal_code":"M4K 1R2","latitude":43.6784704,"longitude":-79.3459495,"stars":3.0,"review_count":4,"is_open":0,"categories":"Department Stores, Tires, Shopping, Automotive, Fashion","hours":{"Friday":"9:0-21:0","Monday":"9:0-21:0","Saturday":"9:0-19:0","Sunday":"10:0-19:0","Thursday":"9:0-21:0","Tuesday":"9:0-21:0","Wednesday":"9:0-21:0"}}
{"business_id":"Xf1nakITB5k6LzAHcLFNzA","name":"Tim Hortons","address":"4841 Yonge Street","city":"Toronto","state":"ON","postal_code":"M2N 5X2","latitude":43.7618192357,"longitude":-79.4102453596,"stars":2.0,"review_count":14,"is_open":1,"categories":"Coffee & Tea, Food"}
{"business_id":"M24wqNAlRcAq73t2RsFysg","name":"Colalillo Automotive Services","address":"626 Burnhamthorpe Road W","city":"Mississauga","state":"ON","postal_code":"L5B 2C4","latitude":43.5802575,"longitude":-79.6499701,"stars":1.0,"review_count":3,"is_open":1,"categories":"Auto Repair, Automotive","hours":{"Friday":"8:0-18:0","Monday":"8:0-18:0","Saturday":"8:0-13:0","Thursday":"8:0-18:0","Tuesday":"8:0-18:0","Wednesday":"8:0-18:0"}}
{"business_id":"EEIz44ewHhOKmfTloAK13g","name":"Alo Restaurant","address":"163 Spadina Avenue, 3rd Floor","city":"Toronto","state":"ON","postal_code":"M5V 2A5","latitude":43.6485391,"longitude":-79.3959372,"stars":4.5,"review_count":231,"is_open":1,"categories":"Bars, Nightlife, Restaurants, French","hours":{"Friday":"17:0-0:45","Saturday":"17:0-0:45","Thursday":"17:0-0:45","Tuesday":"17:0-0:45","Wednesday":"17:0-0:45"}}
{"business_id":"XrAL-lnnzC3j_dE0NmfB-Q","name":"Marché Tau","address":"2335 Autoroute Transcanadienne","city":"Communauté-Urbaine-de-Montréal","state":"QC","postal_code":"H9R 5Z5","latitude":45.480249,"longitude":-73.796409,"stars":4.5,"review_count":5,"is_open":1,"categories":"Grocery, Food, Organic Stores","hours":{"Friday":"9:0-21:0","Monday":"9:0-21:0","Saturday":"9:0-19:0","Sunday":"9:0-19:0","Thursday":"9:0-21:0","Tuesday":"9:0-21:0","Wednesday":"9:0-21:0"}}
{"business_id":"fQ4nfWP8RYwdUchpiWhGcg","name":"H & M","address":"Market Mall, 3625 Shaganappi Trl NW","city":"Calgary","state":"AB","postal_code":"T3A 0E2","latitude":51.0849495489,"longitude":-114.1560970731,"stars":3.0,"review_count":9,"is_open":0,"categories":"Shopping, Fashion, Department Stores, Women's Clothing","hours":{"Friday":"9:30-20:0","Monday":"9:30-18:0","Saturday":"9:30-18:0","Sunday":"12:0-17:0","Thursday":"9:30-20:0","Tuesday":"9:30-18:0","Wednesday":"9:30-18:0"}}
{"business_id":"wyKd4F1fAfDCA1rTxSoT_A","name":"Dolcetto & Co","address":"151 Saint-Paul W","city":"Montréal","state":"QC","postal_code":"H2Y 1Z6","latitude":45.5034797,"longitude":-73.5549591,"stars":3.5,"review_count":110,"is_open":0,"categories":"Italian, Restaurants","hours":{"Friday":"18:0-0:0","Monday":"18:0-23:0","Saturday":"18:0-0:0","Sunday":"18:0-23:0","Thursday":"18:0-0:0","Tuesday":"18:0-23:0","Wednesday":"18:0-23:0"}}
{"business_id":"ps-T9NYHXg4_pP0Tyc8Ntg","name":"Toronto TAPS","address":"1020 Lawrence Avenue W","city":"Toronto","state":"ON","postal_code":"M6A 1C8","latitude":43.7130886,"longitude":-79.4621264,"stars":3.5,"review_count":3,"is_open":1,"categories":"Shopping, Home & Garden, Kitchen & Bath, Home Decor, Shades & Blinds, Home Services","hours":{"Friday":"9:0-20:0","Monday":"9:0-17:0","Saturday":"9:30-17:0","Thursday":"9:0-20:0","Tuesday":"9:0-17:0","Wednesday":"9:0-17:0"}}
{"business_id":"GiNGyJIrpzHqsu3GxB5vpg","name":"Our Crepe","address":"377 Burnhamthorpe Rd E","city":"Mississauga","state":"ON","postal_code":"L5A 3Y1","latitude":43.6022071838,"longitude":-79.6263580322,"stars":3.5,"review_count":49,"is_open":0,"categories":"Restaurants, Creperies","hours":{"Friday":"9:0-21:0","Monday":"9:0-21:0","Saturday":"9:0-21:0","Sunday":"9:0-21:0","Thursday":"9:0-21:0","Tuesday":"9:0-21:0","Wednesday":"9:0-21:0"}}
{"business_id":"tvxI5iRImLnPdLbiI1HXhA","name":"Panera Bread","address":"2530 Winston Park Drive","city":"Oakville","state":"ON","postal_code":"L6H 7E5","latitude":43.5166744333,"longitude":-79.6869475767,"stars":3.0,"review_count":25,"is_open":1,"categories":"Breakfast & Brunch, Food, Soup, Restaurants, Salad, Sandwiches, Bagels","hours":{"Friday":"6:30-21:0","Monday":"6:30-21:0","Saturday":"6:30-21:0","Sunday":"7:0-20:0","Thursday":"6:30-21:0","Tuesday":"6:30-21:0","Wednesday":"6:30-21:0"}}
{"business_id":"miNFkqIAV1L-H_oYtr3ADw","name":"Lise Watier Institut De Beaute","address":"392, Avenue Laurier Ouest","city":"Montréal","state":"QC","postal_code":"H2V 2K7","latitude":45.5189122,"longitude":-73.5962814,"stars":1.0,"review_count":3,"is_open":1,"categories":"Hair Salons, Beauty & Spas, Blow Dry/Out Services","hours":{"Friday":"8:0-21:0","Monday":"8:30-17:0","Saturday":"8:0-17:0","Sunday":"10:0-17:0","Thursday":"8:0-21:0","Tuesday":"8:0-18:0","Wednesday":"8:0-18:0"}}
{"business_id":"tBDkO-vfXrXMnLJu2sF0Hw","name":"Sichuan Ren","address":"5195 Yonge Street","city":"Toronto","state":"ON","postal_code":"M2N 5P7","latitude":43.7690881779,"longitude":-79.413045086,"stars":2.0,"review_count":15,"is_open":0,"categories":"Restaurants, Chinese"}
{"business_id":"3tGO2W5SUZp9BLD3hfdQvQ","name":"Annex Pet Supplies","address":"718 Bathurst Street","city":"Toronto","state":"ON","postal_code":"M5S 2R4","latitude":43.6630905,"longitude":-79.4106549,"stars":4.0,"review_count":5,"is_open":1,"categories":"Pets, Pet Stores","hours":{"Friday":"9:0-20:0","Monday":"9:0-19:0","Saturday":"9:0-18:0","Sunday":"12:0-17:0","Thursday":"9:0-20:0","Tuesday":"9:0-19:0","Wednesday":"9:0-19:0"}}
{"business_id":"HAjWBS5DEFkmcn6pe9Ljug","name":"Restaurant Sake","address":"180 Avenue 25E","city":"Saint-Eustache","state":"QC","postal_code":"J7P 2V2","latitude":45.5749083,"longitude":-73.8751791,"stars":4.5,"review_count":4,"is_open":1,"categories":"Canadian (New), Sushi Bars, Restaurants","hours":{"Friday":"16:0-22:0","Saturday":"16:0-22:0","Sunday":"16:0-20:0","Thursday":"16:0-21:30","Tuesday":"16:0-21:0","Wednesday":"16:0-21:0"}}
{"business_id":"FAXMNSTj7GsEGRGTKBXNUA","name":"Beirut Street Food","address":"7220 Fairmount Drive SE, Bay C","city":"Calgary","state":"AB","postal_code":"T2H 0X7","latitude":50.9885255785,"longitude":-114.0633053397,"stars":5.0,"review_count":18,"is_open":1,"categories":"Mediterranean, Falafel, Lebanese, Donairs, Food, Restaurants, Middle Eastern","hours":{"Friday":"10:0-19:0","Monday":"10:0-18:30","Saturday":"10:0-19:0","Thursday":"10:0-18:30","Tuesday":"10:0-18:30","Wednesday":"10:0-18:30"}}
{"business_id":"0SOLmRkzF0UNXQ4ppSvbrw","name":"Looney Bazaar","address":"5055 Plantation Place","city":"Mississauga","state":"ON","postal_code":"L5M 6J3","latitude":43.5527358756,"longitude":-79.7157192427,"stars":2.5,"review_count":3,"is_open":1,"categories":"Discount Store, Shopping"}
{"business_id":"v5iwQIWvbJVslnxV-_BXww","name":"Sushihwa","address":"270 Dupont Street","city":"Toronto","state":"ON","postal_code":"M5R 1V7","latitude":43.6750118041,"longitude":-79.4069091976,"stars":3.5,"review_count":12,"is_open":1,"categories":"Restaurants, Sushi Bars, Japanese","hours":{"Friday":"11:30-23:0","Monday":"11:30-22:0","Saturday":"12:0-23:0","Sunday":"12:0-22:0","Thursday":"11:30-22:0","Wednesday":"11:30-22:0"}}
{"business_id":"eiPTQd9O1qubdmfE2g1H6g","name":"Omer Deserres","address":"1515 Rue Sainte-Catherine O","city":"Montréal","state":"QC","postal_code":"H3G 2W1","latitude":45.495413,"longitude":-73.577693,"stars":3.0,"review_count":3,"is_open":0,"categories":"Art Supplies, Arts & Crafts, Shopping","hours":{"Friday":"9:30-18:30","Monday":"9:30-18:30","Saturday":"10:0-17:0","Sunday":"12:0-17:0","Thursday":"9:30-18:30","Tuesday":"9:30-18:30","Wednesday":"9:30-18:30"}}
{"business_id":"RyVzLLAy8k7M6oNaioAtpg","name":"Moksha Yoga Calgary West","address":"333 Aspen Glen Landing SW","city":"Calgary","state":"AB","postal_code":"T3H 3Z8","latitude":51.0459834,"longitude":-114.2019589,"stars":3.5,"review_count":9,"is_open":0,"categories":"Fitness & Instruction, Active Life, Yoga"}
{"business_id":"5voAwkY0nmyDS-yluKc_qg","name":"Mylk Uncookies","address":"253 Gerrard Street E","city":"Toronto","state":"ON","postal_code":"M5A 2G1","latitude":43.6619012,"longitude":-79.369075,"stars":4.0,"review_count":22,"is_open":0,"categories":"Food, Desserts, Coffee & Tea","hours":{"Friday":"8:0-18:0","Monday":"8:0-18:0","Saturday":"9:0-17:0","Sunday":"10:0-17:0","Thursday":"8:0-18:0","Tuesday":"8:0-18:0","Wednesday":"8:0-18:0"}}
{"business_id":"se_Wm2uZx2GOcc_m_h9mEg","name":"Andiamo Pasta Plus","address":"135 Queen Street S","city":"Mississauga","state":"ON","postal_code":"L5M 1K8","latitude":43.5832900044,"longitude":-79.7156857699,"stars":4.0,"review_count":47,"is_open":1,"categories":"Italian, Restaurants","hours":{"Friday":"4:30-22:30","Saturday":"4:0-22:30","Sunday":"4:0-22:0","Thursday":"4:30-22:0","Tuesday":"4:30-22:0","Wednesday":"4:30-22:0"}}
{"business_id":"fk3mvrOYrs3A571hirBWfg","name":"Pier 1","address":"3630 Brentwood Rd NW, 700","city":"Calgary","state":"AB","postal_code":"T2L 1K8","latitude":51.086146718,"longitude":-114.1270467639,"stars":3.5,"review_count":5,"is_open":1,"categories":"Home & Garden, Shopping, Furniture Stores, Home Decor, Candle Stores","hours":{"Friday":"10:0-21:0","Monday":"10:0-21:0","Saturday":"9:30-18:30","Sunday":"11:0-18:0","Thursday":"10:0-21:0","Tuesday":"10:0-21:0","Wednesday":"10:0-21:0"}}
{"business_id":"D3i077c0ent3XJVi-eQ1Sw","name":"EB Games","address":"Fairview Mall, 1800 Sheppard Avenue E","city":"Toronto","state":"ON","postal_code":"M2J 5A7","latitude":43.7779901,"longitude":-79.3440914,"stars":2.0,"review_count":4,"is_open":1,"categories":"Video Game Stores, Shopping, Books, Mags, Music & Video","hours":{"Friday":"10:0-21:0","Monday":"10:0-21:0","Saturday":"9:30-21:0","Sunday":"11:0-19:0","Thursday":"10:0-21:0","Tuesday":"10:0-21:0","Wednesday":"10:0-21:0"}}
{"business_id":"8C56VCsV9s1AZdO0j-WOYA","name":"Outhouse Panini Espresso Bar","address":"393 Jane Street","city":"Toronto","state":"ON","postal_code":"M6S 2E2","latitude":43.6582394,"longitude":-79.4880565,"stars":4.0,"review_count":9,"is_open":0,"categories":"Food, Nightlife, Cafes, Juice Bars & Smoothies, Sandwiches, Coffee & Tea, Restaurants, Bars","hours":{"Friday":"9:0-18:0","Monday":"9:0-17:0","Saturday":"9:0-16:0","Sunday":"10:0-16:0","Thursday":"9:0-18:0","Tuesday":"9:0-17:0","Wednesday":"9:0-17:0"}}
{"business_id":"_i2KbUK_m3A_2A7ySXYJJw","name":"Tim Horton's","address":"7331 Kingston Road","city":"Toronto","state":"ON","postal_code":"M1B 5S3","latitude":43.7996867954,"longitude":-79.1445521955,"stars":3.0,"review_count":7,"is_open":1,"categories":"Coffee & Tea, Food, Donuts"}
{"business_id":"4Bs-aIKHYp0yC0ily4j0JQ","name":"KFC","address":"1000 20 Crowfoot Crescent NW","city":"Calgary","state":"AB","postal_code":"T3G 2P6","latitude":51.1248360632,"longitude":-114.1982993388,"stars":1.5,"review_count":5,"is_open":1,"categories":"Chicken Shop, Chicken Wings, Restaurants, American (Traditional), Fast Food","hours":{"Friday":"10:30-22:0","Monday":"10:30-22:0","Saturday":"10:30-22:0","Sunday":"10:30-22:0","Thursday":"10:30-22:0","Tuesday":"10:30-22:0","Wednesday":"10:30-22:0"}}
{"business_id":"H7NF_AMUxEbAwQ2594fkDQ","name":"Good Earth Cafes","address":"707 7 Ave SW","city":"Calgary","state":"AB","postal_code":"T2P 3H6","latitude":51.0465931,"longitude":-114.0766912,"stars":2.0,"review_count":8,"is_open":1,"categories":"Coffee & Tea, Food"}
{"business_id":"KdP-3Ilrt6bwHjrCualw6A","name":"Swirlyz Yogurt Cafe","address":"3221 Derry Road W, Unit 21","city":"Mississauga","state":"ON","postal_code":"L5N 7L7","latitude":43.5835462,"longitude":-79.7786889,"stars":3.5,"review_count":3,"is_open":0,"categories":"Ice Cream & Frozen Yogurt, Food, Desserts"}
{"business_id":"zoeOP-t0QR_1b4iDC6j2HQ","name":"Auberge de jeunesse Le Sous-bois/Underwood Hostel for Youth","address":"431 Rue Saint-Vincent","city":"Montréal","state":"QC","postal_code":"H2Y 3A6","latitude":45.5073152,"longitude":-73.5536368,"stars":4.0,"review_count":5,"is_open":0,"categories":"Hostels, Hotels & Travel"}
{"business_id":"-u_szds3YvenCm4Hjp5rhA","name":"Pet Planet","address":"100 Beddington Boulevard NE","city":"Calgary","state":"AB","postal_code":"T3K 2E2","latitude":51.1252451,"longitude":-114.0684695,"stars":3.5,"review_count":5,"is_open":1,"categories":"Pets, Pet Stores"}
{"business_id":"j2ylpi_0ByksVQiq4GiTYA","name":"Indigo Books Music & More","address":"5570 Signal Hill Center SW","city":"Calgary","state":"AB","postal_code":"T3H 3P8","latitude":51.0203981661,"longitude":-114.1689623147,"stars":3.5,"review_count":7,"is_open":1,"categories":"Bookstores, Shopping, Books, Mags, Music & Video","hours":{"Friday":"9:0-21:0","Monday":"9:0-21:0","Saturday":"9:0-21:0","Sunday":"10:0-20:0","Thursday":"9:0-21:0","Tuesday":"9:0-21:0","Wednesday":"9:0-21:0"}}
{"business_id":"Lv0F5D4WWEKd2b_BC_sl4w","name":"Base Electronics Depot","address":"3928 Edmonton Trail NE","city":"Calgary","state":"AB","postal_code":"T2E 3P6","latitude":51.0874632643,"longitude":-114.0512403214,"stars":3.5,"review_count":3,"is_open":1,"categories":"Electronics, Home Theatre Installation, Security Systems, Home Services, Shopping","hours":{"Friday":"9:0-17:0","Monday":"0:0-0:0","Saturday":"10:0-16:0","Thursday":"9:0-17:0","Tuesday":"9:0-17:0","Wednesday":"9:0-17:0"}}
{"business_id":"WrvIr0MfU8ebCL7BmTM5gA","name":"Brampton Library, Springdale Branch","address":"10705 Bramalea Rd","city":"Brampton","state":"ON","postal_code":"L6R 0C1","latitude":43.7590242,"longitude":-79.7638405,"stars":5.0,"review_count":6,"is_open":1,"categories":"Libraries, Public Services & Government","hours":{"Friday":"10:0-18:0","Monday":"10:0-21:0","Saturday":"10:0-17:0","Sunday":"13:0-17:0","Thursday":"10:0-21:0","Tuesday":"10:0-21:0","Wednesday":"10:0-21:0"}}
{"business_id":"XqJFn-UYOIoZxea0xTjzAQ","name":"La Gel Nails","address":"15340 Bayview Avenue, Unit 5","city":"Aurora","state":"ON","postal_code":"L4G 7J1","latitude":44.00661,"longitude":-79.444633,"stars":2.5,"review_count":3,"is_open":1,"categories":"Nail Salons, Beauty & Spas","hours":{"Friday":"9:30-19:30","Monday":"9:30-19:30","Saturday":"9:30-19:30","Sunday":"10:0-17:0","Thursday":"9:30-19:30","Tuesday":"9:30-19:30","Wednesday":"9:30-19:30"}}
{"business_id":"AkQPw4Rm_pFn-kPFVwXDIA","name":"Popeyes Louisiana Kitchen","address":"1 Rossland Road W","city":"Ajax","state":"ON","postal_code":"L1T 4J9","latitude":43.8796226,"longitude":-79.0272737,"stars":2.0,"review_count":7,"is_open":1,"categories":"Fast Food, Chicken Wings, Food, Restaurants"}
{"business_id":"nT16Y6AsJDwEpUB1JICKzg","name":"St Lawrence Market","address":"93-95 Front Street E","city":"Toronto","state":"ON","postal_code":"M5E 1C3","latitude":43.6487301,"longitude":-79.3715409,"stars":4.5,"review_count":496,"is_open":1,"categories":"Farmers Market, Restaurants, Grocery, Sandwiches, Food","hours":{"Friday":"8:0-19:0","Monday":"9:0-15:0","Saturday":"5:0-17:0","Thursday":"8:0-18:0","Tuesday":"8:0-18:0","Wednesday":"8:0-18:0"}}
{"business_id":"RDSbB26nedd-B-znfgjZjw","name":"Beddington's Bed & Bath","address":"2383 Bloor Street West","city":"Toronto","state":"ON","postal_code":"M6S 1P6","latitude":43.6495689,"longitude":-79.4821936,"stars":4.0,"review_count":3,"is_open":0,"categories":"Home & Garden, Kitchen & Bath, Home Decor, Shopping","hours":{"Friday":"10:0-20:0","Monday":"10:0-19:0","Saturday":"10:0-18:0","Sunday":"11:0-18:0","Thursday":"10:0-20:0","Tuesday":"10:0-19:0","Wednesday":"10:0-19:0"}}
{"business_id":"HSt5-55yDNqNmkkkBXbbSw","name":"Appliance Repair Guys","address":"300 Connie Cresent, Unit B","city":"Vaughan","state":"ON","postal_code":"L4K 5W6","latitude":43.8202697,"longitude":-79.482786,"stars":1.0,"review_count":11,"is_open":1,"categories":"Appliances & Repair, Local Services"}
{"business_id":"O_gFUKt36GiBkG4HpZMZhw","name":"Pink Avenue Aesthetics","address":"85 Collier Street, 2nd Floor","city":"Toronto","state":"ON","postal_code":"M4W 1M1","latitude":43.6723372,"longitude":-79.3852493,"stars":5.0,"review_count":4,"is_open":1,"categories":"Hair Salons, Skin Care, Beauty & Spas","hours":{"Friday":"10:0-18:0","Saturday":"9:0-16:30","Thursday":"10:0-18:0","Tuesday":"10:0-17:0","Wednesday":"10:0-18:0"}}
{"business_id":"1e6FzPXVxOOrMfgplBDEJg","name":"Kathy's Corner","address":"139 Dundas Street E","city":"Toronto","state":"ON","postal_code":"M5B 2N6","latitude":43.6566562,"longitude":-79.3757629,"stars":4.0,"review_count":17,"is_open":1,"categories":"Canadian (New), Restaurants, Sandwiches","hours":{"Friday":"7:30-19:0","Monday":"7:30-19:0","Saturday":"9:0-18:0","Thursday":"7:30-19:0","Tuesday":"7:30-19:0","Wednesday":"7:30-19:0"}}
{"business_id":"385IqefNgIukaXvyPmHdTw","name":"L'Armoire à Glaces","address":"Plaza Saint-Hubert, 6220 Rue Saint-Hubert","city":"Montréal","state":"QC","postal_code":"H2S 2M2","latitude":45.5348293,"longitude":-73.6002691,"stars":4.5,"review_count":31,"is_open":1,"categories":"Coffee & Tea, Food, Ice Cream & Frozen Yogurt","hours":{"Friday":"10:30-22:0","Monday":"10:30-21:30","Saturday":"10:30-22:0","Sunday":"11:30-21:30","Thursday":"10:30-22:0","Tuesday":"10:30-21:30","Wednesday":"10:30-21:30"}}
{"business_id":"2tHWNuSOkKCpRdEVLaRGmA","name":"CIK Telecom","address":"241 Whitehall Drive","city":"Markham","state":"ON","postal_code":"L3R 5G5","latitude":43.8599402,"longitude":-79.3410237,"stars":1.5,"review_count":24,"is_open":1,"categories":"Professional Services, Home Services, Telecommunications, Internet Service Providers, IT Services & Computer Repair, Television Service Providers, Local Services","hours":{"Friday":"9:30-18:0","Monday":"9:30-18:0","Saturday":"9:30-18:0","Sunday":"9:30-18:0","Thursday":"9:30-18:0","Tuesday":"9:30-18:0","Wednesday":"9:30-18:0"}}
{"business_id":"Payl1AoDwqT3TYbZ9eZKMQ","name":"Anna Pretty Nails","address":"1132 Av Eglinton O","city":"Toronto","state":"ON","postal_code":"M6C 2E2","latitude":43.6996942,"longitude":-79.4323793,"stars":3.5,"review_count":5,"is_open":1,"categories":"Nail Salons, Beauty & Spas"}
{"business_id":"8U5L98aNqFjPm9WAVX4lGg","name":"Holt Renfrew","address":"1300 Sherbrooke Street West","city":"Montreal","state":"QC","postal_code":"H3G 1H9","latitude":45.499329,"longitude":-73.578529,"stars":3.0,"review_count":21,"is_open":1,"categories":"Men's Clothing, Department Stores, Fashion, Lingerie, Shopping, Accessories, Women's Clothing, Shoe Stores","hours":{"Friday":"9:0-22:0","Monday":"0:0-0:0","Saturday":"9:30-18:30","Sunday":"10:0-17:0","Thursday":"9:0-22:0","Tuesday":"10:0-18:0","Wednesday":"9:0-21:0"}}
{"business_id":"RLqR8BKwidfP-ZslhfeeJQ","name":"Maxim's Café & Patisserie","address":"676 Finch Avenue E","city":"North York","state":"ON","postal_code":"M2K 2E6","latitude":43.7883102,"longitude":-79.3772154,"stars":2.5,"review_count":73,"is_open":1,"categories":"Food, Cafes, Bakeries, Restaurants","hours":{"Friday":"11:30-1:0","Monday":"11:30-22:30","Saturday":"11:30-23:0","Sunday":"11:30-23:0","Thursday":"11:30-22:30","Tuesday":"11:30-22:30","Wednesday":"11:30-22:30"}}
{"business_id":"Fdo6FCeelQBPCY191_MNbg","name":"Nostos","address":"9540 Boulevard de l'Acadie","city":"Montréal","state":"QC","postal_code":"H4N 1L8","latitude":45.534296,"longitude":-73.66139,"stars":4.0,"review_count":29,"is_open":1,"categories":"Salad, Bars, Wine Bars, Nightlife, Greek, Restaurants","hours":{"Friday":"11:0-22:0","Monday":"11:0-21:0","Saturday":"11:0-22:0","Sunday":"12:0-21:0","Thursday":"11:0-21:30","Tuesday":"11:0-21:0","Wednesday":"11:0-21:0"}}
{"business_id":"fp8N9mBkq_72fyv5ZQtF6Q","name":"Cartwright Lighting","address":"7301 11 Street SE","city":"Calgary","state":"AB","postal_code":"T2H 2S1","latitude":50.9886267,"longitude":-114.0400191,"stars":2.5,"review_count":3,"is_open":1,"categories":"Home Decor, Home Services, Electricians, Home & Garden, Lighting Fixtures & Equipment, Shopping","hours":{"Friday":"9:0-18:0","Monday":"9:0-18:0","Saturday":"9:0-17:30","Thursday":"9:0-21:0","Tuesday":"9:0-18:0","Wednesday":"9:0-18:0"}}
{"business_id":"MYJn_lLVUt6Ud3ZUvPJ8AQ","name":"Melly's Bakery & Cafe","address":"112- 6800 Memorial Dr NE","city":"Calgary","state":"AB","postal_code":"T2A 6V3","latitude":51.052594,"longitude":-113.941064,"stars":4.0,"review_count":6,"is_open":1,"categories":"Bakeries, Food","hours":{"Friday":"10:0-20:0","Saturday":"10:0-20:0","Sunday":"10:0-19:0","Thursday":"10:0-20:0","Tuesday":"10:0-20:0","Wednesday":"10:0-20:0"}}
{"business_id":"Gf5Mn_XTGI58Hfxtd0zKCA","name":"La Grillia d'Oro","address":"7681 Boulevard Newman","city":"Lasalle","state":"QC","postal_code":"H8N 1X7","latitude":45.4386546,"longitude":-73.6232077,"stars":4.5,"review_count":4,"is_open":0,"categories":"Seafood, Steakhouses, Restaurants, Italian","hours":{"Friday":"11:0-23:0","Saturday":"17:0-23:0","Sunday":"16:0-21:0","Thursday":"11:0-22:0","Tuesday":"11:0-22:0","Wednesday":"11:0-22:0"}}
{"business_id":"xAA1F61cCgpJtQR4tSgwuA","name":"Sense of Independence","address":"526 Lawrence Avenue W, Unit 16D","city":"Toronto","state":"ON","postal_code":"M6A 1A1","latitude":43.7200395,"longitude":-79.432294,"stars":3.5,"review_count":3,"is_open":1,"categories":"Women's Clothing, Accessories, Shopping, Fashion","hours":{"Friday":"10:0-19:0","Monday":"10:0-19:0","Saturday":"10:0-18:0","Sunday":"10:0-18:0","Thursday":"10:0-19:0","Tuesday":"10:0-19:0","Wednesday":"10:0-19:0"}}
{"business_id":"heLF99lVDRf2Z-1kCWpHdQ","name":"Ding-Ho Chinese Food","address":"2873 Lawrence Avenue E","city":"Scarborough","state":"ON","postal_code":"M1P 2S8","latitude":43.7534551,"longitude":-79.2534705,"stars":2.5,"review_count":13,"is_open":1,"categories":"Restaurants, Ethnic Food, Chinese, Food, Specialty Food","hours":{"Friday":"15:30-23:0","Monday":"15:30-23:0","Saturday":"15:30-23:0","Sunday":"15:30-23:0","Thursday":"15:30-23:0","Tuesday":"15:30-23:0","Wednesday":"15:30-23:0"}}
{"business_id":"5v_nv9JgJtWHLPw8grPn-w","name":"Michael's West Indian Flavor","address":"3067 Lake Shore Boulevard","city":"Toronto","state":"ON","postal_code":"M8V 4C9","latitude":43.5995201976,"longitude":-79.5102864872,"stars":4.0,"review_count":8,"is_open":1,"categories":"Restaurants, Canadian (New), Indian, Caribbean, Ethnic Food, Food, Specialty Food, Imported Food","hours":{"Friday":"8:0-22:0","Monday":"10:0-21:0","Saturday":"8:0-22:0","Thursday":"10:0-21:0","Tuesday":"10:0-21:0","Wednesday":"10:0-21:0"}}
{"business_id":"aZOrA7zXHlZsvNwg4CWg5w","name":"Paradise Banquet & Convention Centre","address":"7601 Jane St","city":"Concord","state":"ON","postal_code":"L4K 1X2","latitude":43.7912212,"longitude":-79.5225805,"stars":4.0,"review_count":12,"is_open":1,"categories":"Event Planning & Services, Venues & Event Spaces","hours":{"Friday":"9:0-21:0","Monday":"9:0-21:0","Saturday":"10:0-18:0","Sunday":"10:0-18:0","Thursday":"9:0-21:0","Tuesday":"9:0-21:0","Wednesday":"9:0-21:0"}}
{"business_id":"xu2I9EBWXV7SGHDbXA38iw","name":"Hina Sushi","address":"769 the Queensway","city":"Toronto","state":"ON","postal_code":"M8Z 1N1","latitude":43.62582,"longitude":-79.504395,"stars":4.0,"review_count":66,"is_open":1,"categories":"Japanese, Restaurants","hours":{"Friday":"11:30-22:30","Saturday":"12:0-22:30","Sunday":"15:0-21:30","Thursday":"11:30-22:0","Tuesday":"11:30-22:0","Wednesday":"11:30-22:0"}}
{"business_id":"kCNRJTy8moUMbE6IAHgbbA","name":"Buffet Vichy Lasalle","address":"7205 Newman Boulevard","city":"Lasalle","state":"QC","postal_code":"H8N 2K3","latitude":45.443011,"longitude":-73.6171883,"stars":3.0,"review_count":19,"is_open":1,"categories":"Buffets, Restaurants","hours":{"Friday":"16:0-21:0","Monday":"16:0-21:0","Saturday":"16:0-21:30","Sunday":"16:0-21:0","Thursday":"16:0-21:0","Tuesday":"16:0-21:0","Wednesday":"16:0-21:0"}}
{"business_id":"WtFiIRFyyemKtS1x6TfuKA","name":"Bacchus Roti Shop","address":"1376 Queen Street W","city":"Toronto","state":"ON","postal_code":"M6K 1L7","latitude":43.6414885,"longitude":-79.4332219,"stars":4.0,"review_count":58,"is_open":1,"categories":"Restaurants, Indian, Caribbean","hours":{"Friday":"15:0-21:0","Thursday":"15:0-21:0","Tuesday":"15:0-21:0","Wednesday":"15:0-21:0"}}
{"business_id":"u24ETMGIMK7smqEXHlGkXw","name":"Montreal Deli","address":"115 York Boulevard, Unit 7","city":"Richmond Hill","state":"ON","postal_code":"L4B 3M3","latitude":43.8474465215,"longitude":-79.377844063,"stars":4.0,"review_count":13,"is_open":0,"categories":"Mediterranean, Sandwiches, Delis, Greek, Restaurants","hours":{"Friday":"8:0-16:0","Monday":"8:0-18:0","Thursday":"8:0-18:0","Tuesday":"8:0-18:0","Wednesday":"8:0-18:0"}}
{"business_id":"udpTDuGuWMc60UpoVP1c4Q","name":"889 Yoga","address":"Thompson Hotel, 550 Wellington Street W, 3rd Floor","city":"Toronto","state":"ON","postal_code":"M5V 2V4","latitude":43.6431205,"longitude":-79.4008409,"stars":4.0,"review_count":5,"is_open":0,"categories":"Beauty & Spas, Yoga, Active Life, Shopping, Massage, Fitness & Instruction"}
{"business_id":"3Dv-WQpSmdKhrDKiX9iOkA","name":"La Cage Aux Sports","address":"114 rue St-Paul est","city":"Montréal","state":"QC","postal_code":"H2Y 1G6","latitude":45.50679,"longitude":-73.552638,"stars":3.0,"review_count":79,"is_open":1,"categories":"Burgers, Restaurants, Chicken Wings, Sandwiches","hours":{"Friday":"11:0-0:0","Monday":"11:0-22:0","Saturday":"11:0-0:0","Sunday":"11:0-21:0","Thursday":"11:0-0:0","Tuesday":"11:0-22:0","Wednesday":"11:0-22:0"}}
{"business_id":"YMHgCH552sy4vnjcDnSEbg","name":"Diamond Taxi","address":"251 Queen Street E","city":"Toronto","state":"ON","postal_code":"M5A 1S6","latitude":43.6545374,"longitude":-79.3684427,"stars":1.5,"review_count":9,"is_open":1,"categories":"Airports, Taxis, Transportation, Airport Shuttles, Hotels & Travel"}
{"business_id":"aGkrN4ETzJjojKQzJBiQNw","name":"lululemon athletica","address":"1708 4th Street SW","city":"Calgary","state":"AB","postal_code":"T2S 3A8","latitude":51.0373865014,"longitude":-114.0712706827,"stars":3.0,"review_count":13,"is_open":1,"categories":"Sports Wear, Active Life, Shopping, Fitness & Instruction, Fashion, Women's Clothing, Yoga, Sporting Goods","hours":{"Friday":"10:0-19:0","Monday":"10:0-19:0","Saturday":"10:0-18:0","Sunday":"11:0-17:0","Thursday":"10:0-19:0","Tuesday":"10:0-19:0","Wednesday":"10:0-19:0"}}
{"business_id":"ntG6ZrYhA3L5CHxn7NL0hw","name":"A&W","address":"150 8th Avenue SE","city":"Calgary","state":"AB","postal_code":"T2G 0K6","latitude":51.0454613,"longitude":-114.0607224,"stars":2.0,"review_count":4,"is_open":1,"categories":"Fast Food, Burgers, Restaurants","hours":{"Friday":"7:30-19:0","Monday":"7:30-19:0","Saturday":"9:0-17:0","Sunday":"10:0-17:0","Thursday":"7:30-19:0","Tuesday":"7:30-19:0","Wednesday":"7:30-19:0"}}
{"business_id":"4Roa2w8g0aZsSr6lruFrfg","name":"Hammam Retreat & Spa","address":"8500 Macleod Trail SE, Suite 167N","city":"Calgary","state":"AB","postal_code":"T2H 2N1","latitude":50.976548,"longitude":-114.0706163,"stars":4.5,"review_count":6,"is_open":1,"categories":"Massage Therapy, Hotels & Travel, Health & Medical, Day Spas, Health Retreats, Beauty & Spas, Skin Care","hours":{"Friday":"10:0-19:0","Saturday":"10:0-19:0","Thursday":"10:0-19:0","Tuesday":"10:0-19:0","Wednesday":"10:0-19:0"}}
{"business_id":"uN2oZDJGO078ExbbV_DGmA","name":"BarBurrito - Sheppard","address":"4918 Yonge St","city":"Toronto","state":"ON","postal_code":"M2N 5N5","latitude":43.7642671,"longitude":-79.4120327,"stars":2.5,"review_count":40,"is_open":1,"categories":"Mexican, Restaurants, Fast Food","hours":{"Friday":"11:0-23:0","Monday":"11:0-22:0","Saturday":"11:0-23:0","Sunday":"11:30-22:0","Thursday":"11:0-22:30","Tuesday":"11:0-22:0","Wednesday":"11:0-22:0"}}
{"business_id":"vSHpYNhhUrKwjT8fYTDwMw","name":"Café Prague","address":"1317 Avenue Van Horne","city":"Montréal","state":"QC","postal_code":"H2V 1K7","latitude":45.5211382474,"longitude":-73.6145463779,"stars":4.5,"review_count":14,"is_open":1,"categories":"Cafes, Restaurants","hours":{"Friday":"7:0-19:0","Monday":"7:0-19:0","Saturday":"7:0-18:0","Thursday":"7:0-19:0","Tuesday":"7:0-19:0","Wednesday":"7:0-19:0"}}
{"business_id":"LBHYAEi8GvbSj6GQ54bA4w","name":"Pizza Depot","address":"2013 Lawrence Avenue W","city":"Toronto","state":"ON","postal_code":"M9N 1H4","latitude":43.701107,"longitude":-79.510939,"stars":2.5,"review_count":6,"is_open":1,"categories":"Food, Restaurants, Pizza"}
{"business_id":"C1DrdIfzOFJ0pNm2_IZCBg","name":"Dragon Magnifique","address":"5444 Jean-Talon East","city":"Montréal","state":"QC","postal_code":"H1S 9Y7","latitude":45.5805025,"longitude":-73.581234,"stars":3.0,"review_count":6,"is_open":1,"categories":"Asian Fusion, Restaurants"}
{"business_id":"GE0OgaPz42hvKuSLKo42WQ","name":"Richtree Market Restaurants","address":"42 Yonge Street","city":"Toronto","state":"ON","postal_code":"M5E 1T1","latitude":43.6475443,"longitude":-79.3773804,"stars":3.0,"review_count":37,"is_open":0,"categories":"Restaurants, Buffets, Canadian (New), American (New)","hours":{"Friday":"7:0-22:0","Monday":"7:0-22:0","Saturday":"7:0-22:0","Sunday":"7:0-20:0","Thursday":"7:0-22:0","Tuesday":"7:0-22:0","Wednesday":"7:0-22:0"}}
{"business_id":"WC5eWcwLGMV-wVgN5LZi0A","name":"Reid's","address":"710-17 Avenue SW","city":"Calgary","state":"AB","postal_code":"T2S 0B7","latitude":51.037967,"longitude":-114.07754,"stars":4.0,"review_count":14,"is_open":1,"categories":"Event Planning & Services, Shopping, Arts & Crafts, Cards & Stationery, Office Equipment, Flowers & Gifts, Costumes","hours":{"Friday":"9:30-18:0","Monday":"9:30-18:0","Saturday":"10:0-17:30","Thursday":"9:30-18:0","Tuesday":"9:30-18:0","Wednesday":"9:30-18:0"}}
{"business_id":"5PM5THfRcUcljcKRWozeOg","name":"Fisshu","address":"537 Rue Sainte-Catherine O","city":"Montréal","state":"QC","postal_code":"H3B 1B2","latitude":45.5045284,"longitude":-73.5687467,"stars":2.5,"review_count":78,"is_open":1,"categories":"Restaurants, Sushi Bars","hours":{"Friday":"11:30-22:30","Monday":"17:0-22:30","Saturday":"11:30-22:30","Sunday":"11:30-22:30","Thursday":"17:0-22:30","Tuesday":"17:0-22:30","Wednesday":"17:0-22:30"}}
{"business_id":"iH2rDJxeGiHOutYJadQYog","name":"Red Carpet On Queen","address":"660 Queen Street W","city":"Toronto","state":"ON","postal_code":"M6J 1E5","latitude":43.6468118,"longitude":-79.4069383,"stars":5.0,"review_count":3,"is_open":1,"categories":"Massage, Waxing, Laser Hair Removal, Hair Removal, Beauty & Spas, Skin Care","hours":{"Friday":"10:0-19:0","Monday":"10:0-19:0","Saturday":"10:0-18:0","Thursday":"10:0-19:0","Tuesday":"10:0-19:0","Wednesday":"10:0-19:0"}}
{"business_id":"I9Yb-EcMNcI1NVUGer3pYA","name":"John Spanos Barber Shop & Hairstylists","address":"1907 Ellesmere Road","city":"Scarborough","state":"ON","postal_code":"M1H 2W5","latitude":43.7744188,"longitude":-79.2411326,"stars":4.5,"review_count":8,"is_open":0,"categories":"Barbers, Beauty & Spas, Hair Salons"}
{"business_id":"CxEk19RBwfD0Ochgo4Q5UA","name":"Chef Burger","address":"8910 Yonge Street, Unit 4","city":"Richmond Hill","state":"ON","postal_code":"L4C 0L7","latitude":43.844838,"longitude":-79.431584,"stars":3.5,"review_count":31,"is_open":1,"categories":"Restaurants, Burgers, Food, Coffee & Tea","hours":{"Friday":"10:0-23:0","Monday":"10:0-22:0","Saturday":"10:0-23:0","Sunday":"10:0-22:0","Thursday":"10:0-22:0","Tuesday":"10:0-22:0","Wednesday":"10:0-22:0"}}
{"business_id":"cepfJZIv0iLj1fDs8LdYZg","name":"Queen Margherita Pizza","address":"1402 Queen Street E, Unit 8","city":"Toronto","state":"ON","postal_code":"M4L 1C9","latitude":43.664969,"longitude":-79.324168,"stars":3.5,"review_count":156,"is_open":1,"categories":"Pizza, Restaurants","hours":{"Friday":"12:0-23:0","Monday":"12:0-22:0","Saturday":"12:0-23:0","Sunday":"12:0-22:0","Thursday":"12:0-22:0","Tuesday":"12:0-22:0","Wednesday":"12:0-22:0"}}
{"business_id":"8i-_zo5hCtlaqWMQaY3qoA","name":"Fantastic Hair Design & Fade","address":"10097 Yonge Street, Unit 8","city":"Richmond Hill","state":"ON","postal_code":"L4C 1T7","latitude":43.873061,"longitude":-79.437402,"stars":3.0,"review_count":3,"is_open":1,"categories":"Beauty & Spas, Barbers"}
{"business_id":"djVzd-9vZWisUKYDnn1TWA","name":"Eden Chinese Food","address":"1025 Coxwell Ave","city":"East York","state":"ON","postal_code":"M4C 3G4","latitude":43.6971843,"longitude":-79.3289854,"stars":2.0,"review_count":14,"is_open":1,"categories":"Event Planning & Services, Chinese, Ethnic Food, Specialty Food, Food, Caterers, Restaurants"}
{"business_id":"Ps-m4xYjx1dydW9EFIpi-w","name":"Tops Pizza & Chicken","address":"15-7595 Markham Road","city":"Markham","state":"ON","postal_code":"L3S 0B6","latitude":43.8507974,"longitude":-79.2538693,"stars":5.0,"review_count":3,"is_open":0,"categories":"Pizza, Kebab, Afghan, Chicken Wings, Restaurants, Burgers, Halal","hours":{"Friday":"11:0-23:0","Monday":"11:0-23:0","Saturday":"11:0-23:0","Sunday":"11:0-23:0","Thursday":"11:0-23:0","Tuesday":"11:0-23:0","Wednesday":"11:0-23:0"}}
{"business_id":"Q-Jt1qSh9j8V0DqWFeiJ2g","name":"The Golf Lounge","address":"115 York Boulevard, Unit 10","city":"Richmond Hill","state":"ON","postal_code":"L4B 3B4","latitude":43.8469385,"longitude":-79.3781746,"stars":4.5,"review_count":12,"is_open":1,"categories":"Bars, Nightlife, Desserts, Venues & Event Spaces, Lounges, Food, Active Life, Golf, Event Planning & Services","hours":{"Friday":"10:0-0:0","Monday":"10:0-23:0","Saturday":"9:0-0:0","Sunday":"9:0-20:0","Thursday":"10:0-23:0","Tuesday":"10:0-23:0","Wednesday":"10:0-23:0"}}
{"business_id":"8pewDasd0KjSHI90hFo8xw","name":"Churrasqueira Vira's BBQ","address":"1969 Davenport Road","city":"Toronto","state":"ON","postal_code":"M6N 1C3","latitude":43.6702099759,"longitude":-79.4568988681,"stars":4.0,"review_count":7,"is_open":1,"categories":"Restaurants, Portuguese","hours":{"Friday":"11:30-20:0","Monday":"11:30-20:0","Saturday":"11:30-20:0","Thursday":"11:30-20:0","Tuesday":"11:30-20:0","Wednesday":"11:30-20:0"}}
{"business_id":"0Yh6U06nGLjAMwCw6l9-DA","name":"Yang's BBQ Restaurant","address":"4186 Finch Avenue E","city":"Toronto","state":"ON","postal_code":"M1S 5C9","latitude":43.8042008789,"longitude":-79.2884373665,"stars":3.0,"review_count":93,"is_open":1,"categories":"Barbeque, Restaurants","hours":{"Friday":"12:0-2:0","Monday":"12:0-2:0","Saturday":"12:0-2:0","Sunday":"12:0-2:0","Thursday":"12:0-2:0","Tuesday":"12:0-2:0","Wednesday":"12:0-2:0"}}
{"business_id":"bFMTeuprcBmp6-g5LXTZJA","name":"Calgary International BeerFest","address":"1410 Olympic Way SE","city":"Calgary","state":"AB","postal_code":"T2G 2W1","latitude":51.038804,"longitude":-114.0536386,"stars":4.0,"review_count":13,"is_open":1,"categories":"Arts & Entertainment, Festivals"}
{"business_id":"B13_8wxUtqlnPKA4BCE7GQ","name":"Studio Brillantine","address":"1518 Queen Street W","city":"Toronto","state":"ON","postal_code":"M6R 1A4","latitude":43.6403542,"longitude":-79.4386714,"stars":3.5,"review_count":8,"is_open":1,"categories":"Kitchen & Bath, Toy Stores, Fashion, Furniture Stores, Accessories, Shopping, Home & Garden, Flowers & Gifts, Home Decor, Gift Shops","hours":{"Friday":"11:0-18:0","Monday":"11:0-18:0","Saturday":"11:0-18:0","Sunday":"12:0-17:0","Thursday":"11:0-18:0","Tuesday":"11:0-18:0","Wednesday":"11:0-18:0"}}
{"business_id":"IVSLNhvMr_S1z1oCi4-NaA","name":"Shaganappi Grocers Store","address":"3919 17 Avenue SW","city":"Calgary","state":"AB","postal_code":"T3E 0C3","latitude":51.036873,"longitude":-114.1437061,"stars":4.0,"review_count":3,"is_open":1,"categories":"Grocery, Food, Restaurants, Mediterranean","hours":{"Friday":"10:0-22:0","Monday":"10:0-22:0","Saturday":"10:0-22:0","Sunday":"10:0-22:0","Thursday":"10:0-22:0","Tuesday":"10:0-22:0","Wednesday":"10:0-22:0"}}
{"business_id":"hz9wj60VulYDXxMUuIn7Pw","name":"Olam Interieur","address":"5333 Boulevard Saint-Laurent","city":"Montréal","state":"QC","postal_code":"H2T 1S5","latitude":45.5248994,"longitude":-73.5964199,"stars":3.5,"review_count":3,"is_open":1,"categories":"Shopping, Restaurants, Furniture Stores, Bistros, Home & Garden"}
{"business_id":"VJ40hXDJFGbhSV6hZcHbIw","name":"Eastside Chevrolet Oldsmobile","address":"8435 Woodbine Ave","city":"Markham","state":"ON","postal_code":"L3R 2P4","latitude":43.8485543,"longitude":-79.3569841,"stars":1.0,"review_count":3,"is_open":1,"categories":"Car Dealers, Automotive","hours":{"Friday":"9:0-18:0","Monday":"9:0-21:0","Saturday":"9:0-18:0","Thursday":"9:0-21:0","Tuesday":"9:0-21:0","Wednesday":"9:0-21:0"}}
{"business_id":"_SK4Tw8SMDt4VRyn3fpUSA","name":"Dreams Hair Salon","address":"5460 Yonge Street, Suite 105","city":"Toronto","state":"ON","postal_code":"M2N 7L3","latitude":43.7776261856,"longitude":-79.4152576038,"stars":4.0,"review_count":10,"is_open":1,"categories":"Beauty & Spas, Hair Salons, Hair Stylists","hours":{"Friday":"13:0-20:30","Monday":"13:0-20:30","Saturday":"13:0-20:30","Sunday":"13:0-20:30","Thursday":"13:0-20:30","Tuesday":"13:0-20:30","Wednesday":"13:0-20:30"}}
{"business_id":"eH2qJx-mKayso1NRH9cQag","name":"Sleep Country","address":"2100 Bloor Street W","city":"Toronto","state":"ON","postal_code":"M6S 1M7","latitude":43.6526147,"longitude":-79.4710037,"stars":2.0,"review_count":3,"is_open":1,"categories":"Home & Garden, Furniture Stores, Shopping, Mattresses","hours":{"Friday":"10:0-21:0","Monday":"10:0-21:0","Saturday":"9:30-18:0","Sunday":"11:0-17:0","Thursday":"10:0-21:0","Tuesday":"10:0-21:0","Wednesday":"10:0-21:0"}}
{"business_id":"PtPhcIR41oeXKyyol12MBg","name":"Brock St Brewing Company","address":"1501 Hopkins Street, Unit 3","city":"Whitby","state":"ON","postal_code":"L1N 5Z9","latitude":43.8703467,"longitude":-78.9156745,"stars":4.5,"review_count":3,"is_open":1,"categories":"Breweries, Food","hours":{"Friday":"9:0-21:0","Monday":"9:0-20:0","Saturday":"9:0-21:0","Sunday":"11:0-18:0","Thursday":"9:0-21:0","Tuesday":"9:0-20:0","Wednesday":"9:0-20:0"}}
{"business_id":"BCzZbgOjJFexYbGfSd6UZg","name":"T & D Steak-Burger","address":"701 Rossland Road E","city":"Whitby","state":"ON","postal_code":"L1N 8Y9","latitude":43.8995341,"longitude":-78.9384357,"stars":2.5,"review_count":3,"is_open":1,"categories":"Burgers, Restaurants, Hot Dogs"}
{"business_id":"Nl4v432g8ZdnZhAlShj8Sw","name":"977 Cafe","address":"977 O'Connor","city":"Toronto","state":"ON","postal_code":"M4B 2T1","latitude":43.7088259068,"longitude":-79.3098655343,"stars":2.5,"review_count":5,"is_open":1,"categories":"Restaurants, Chinese"}
{"business_id":"9uQovNZDmIXAP9EJLvo4RA","name":"Need a Plumber Canada - Calgary","address":"4176-2919 49 Avenue SE","city":"Calgary","state":"AB","postal_code":"T2B 3J3","latitude":51.009432,"longitude":-113.990662,"stars":1.5,"review_count":14,"is_open":1,"categories":"Plumbing, Hardware Stores, Home Services, Water Heater Installation/Repair, Heating & Air Conditioning/HVAC, Home & Garden, Contractors, Shopping","hours":{"Friday":"0:0-0:0","Monday":"0:0-0:0","Saturday":"0:0-0:0","Sunday":"0:0-0:0","Thursday":"0:0-0:0","Tuesday":"0:0-0:0","Wednesday":"0:0-0:0"}}
{"business_id":"UbqEN2TEtWI1xXPno4Rlxw","name":"Twisted Element","address":"1006 11 Avenue SW","city":"Calgary","state":"AB","postal_code":"T2R 0G3","latitude":51.0432445,"longitude":-114.0844272,"stars":3.0,"review_count":20,"is_open":1,"categories":"Bars, Dance Clubs, Nightlife, Karaoke, Gay Bars","hours":{"Friday":"21:0-3:0","Saturday":"21:0-3:0","Sunday":"21:0-3:0","Thursday":"21:0-3:0","Wednesday":"21:0-2:0"}}
{"business_id":"NXpvhD0NRrk4Tx1AOhpZ8A","name":"Wild Wing","address":"2071 Steeles Avenue","city":"Toronto","state":"ON","postal_code":"M3J 3N2","latitude":43.7862701416,"longitude":-79.4735412598,"stars":2.5,"review_count":15,"is_open":1,"categories":"Restaurants, Chicken Wings, Food"}
{"business_id":"MnBBwQtpoHiAHfG9mlCMYQ","name":"La Salamandre","address":"4350 Rue de la Roche","city":"Montréal","state":"QC","postal_code":"H2J 3J1","latitude":45.5276497,"longitude":-73.5763559,"stars":5.0,"review_count":3,"is_open":0,"categories":"Restaurants, French"}
{"business_id":"Scr5yat-dbLWja9yi0JJNQ","name":"Model Citizen","address":"300 17th Avenue","city":"Calgary","state":"AB","postal_code":"T2S 0A8","latitude":51.0379536,"longitude":-114.0688642,"stars":3.0,"review_count":5,"is_open":1,"categories":"Speakeasies, Bars, Cocktail Bars, Nightlife"}
{"business_id":"fxLr7-Z4WwKPTslghkszCA","name":"Victoria's Secret","address":"300 Borough Dr","city":"Scarborough","state":"ON","postal_code":"M1P 4P5","latitude":43.775386,"longitude":-79.258176,"stars":3.0,"review_count":7,"is_open":1,"categories":"Shopping, Lingerie, Fashion"}
{"business_id":"NvRSrEfcdIn24F6XfhFOOg","name":"Tim Hortons","address":"9100 Jane Street","city":"Vaughan","state":"ON","postal_code":"L4K 0A4","latitude":43.8291203583,"longitude":-79.532974153,"stars":2.5,"review_count":7,"is_open":1,"categories":"Breakfast & Brunch, Food, Canadian (New), Sandwiches, Coffee & Tea, Restaurants","hours":{"Friday":"0:0-0:0","Monday":"0:0-0:0","Saturday":"0:0-0:0","Sunday":"0:0-0:0","Thursday":"0:0-0:0","Tuesday":"0:0-0:0","Wednesday":"0:0-0:0"}}
{"business_id":"zbgniGsw-fCx3GFBI5Vxng","name":"La Silmo's Optical","address":"Oriental Centre, 4438 Sheppard Avenue E, Unit 118","city":"Scarborough","state":"ON","postal_code":"M1S 5V9","latitude":43.7881972,"longitude":-79.2681072,"stars":2.5,"review_count":4,"is_open":1,"categories":"Eyewear & Opticians, Shopping","hours":{"Friday":"11:0-19:0","Monday":"11:0-19:0","Saturday":"11:0-19:0","Sunday":"11:30-18:30","Thursday":"11:0-19:0","Wednesday":"11:0-19:0"}}
{"business_id":"udKD_WVoQZYww1sDYdebPw","name":"Golden Wok Restaurant","address":"120 Eringate Drive","city":"Etobicoke","state":"ON","postal_code":"M9C 3Z8","latitude":43.6606313,"longitude":-79.5822484,"stars":2.5,"review_count":15,"is_open":1,"categories":"Restaurants, Food, Chinese, Specialty Food, Ethnic Food"}
{"business_id":"xKCbzu0PFnssZkryxR7NKA","name":"Mississauga Chinese Centre","address":"888 Dundas Street E","city":"Mississauga","state":"ON","postal_code":"L4Y 4G6","latitude":43.5978634,"longitude":-79.5946016,"stars":3.0,"review_count":11,"is_open":1,"categories":"Shopping, Shopping Centers, Local Flavor","hours":{"Friday":"9:0-17:0","Monday":"9:0-17:0","Saturday":"11:0-16:0","Thursday":"9:0-17:0","Tuesday":"9:0-17:0","Wednesday":"9:0-17:0"}}
{"business_id":"wCEIvbgs9p7RYapa-34wIw","name":"Bazille","address":"3401 Dufferin Street, Unit 500","city":"Toronto","state":"ON","postal_code":"M6A 2T9","latitude":43.7246843,"longitude":-79.4541729,"stars":4.0,"review_count":33,"is_open":1,"categories":"French, American (New), Restaurants, Bars, Nightlife, Brasseries, Cocktail Bars, Canadian (New)","hours":{"Friday":"11:0-21:0","Monday":"11:0-21:0","Saturday":"11:0-21:0","Sunday":"11:0-19:0","Thursday":"11:0-21:0","Tuesday":"11:0-21:0","Wednesday":"11:0-21:0"}}
{"business_id":"5nKE8ROzvgfbPzrglIapUg","name":"Rocket Fireworks","address":"14 Advance Road","city":"Toronto","state":"ON","postal_code":"M8Z 2T4","latitude":43.6336181,"longitude":-79.5317684,"stars":4.0,"review_count":6,"is_open":1,"categories":"Fireworks, Party Supplies, Shopping, Outlet Stores, Paintball, Event Planning & Services, Active Life, Airsoft","hours":{"Friday":"10:0-19:0","Monday":"10:0-19:0","Saturday":"10:0-18:0","Sunday":"11:0-18:0","Thursday":"10:0-19:0","Tuesday":"10:0-19:0","Wednesday":"10:0-19:0"}}
{"business_id":"6dyBgHjHelgb3ujJp1dCUQ","name":"Panago Pizza","address":"35 - 151 Crowfoot Terrace NW","city":"Calgary","state":"AB","postal_code":"T3G 4J8","latitude":51.1268682733,"longitude":-114.2001147158,"stars":3.5,"review_count":10,"is_open":1,"categories":"Restaurants, Pizza, Salad, Chicken Wings","hours":{"Friday":"11:0-1:0","Monday":"11:0-0:0","Saturday":"11:0-1:0","Sunday":"11:0-0:0","Thursday":"11:0-0:0","Tuesday":"11:0-0:0","Wednesday":"11:0-0:0"}}
{"business_id":"jOm2M6hn8M3BvrYwP7gV_g","name":"Taco Bell","address":"9940 Airport Rd, Lynden Pk Mall","city":"Brampton","state":"ON","postal_code":"L6S 0C5","latitude":43.7609984,"longitude":-79.7199621,"stars":2.0,"review_count":4,"is_open":1,"categories":"Fast Food, Restaurants, Mexican"}
{"business_id":"CqKa_LEbFfhwCVCmcn1Q4g","name":"Pizzeria Geppetto","address":"2504, rue Notre-Dame Ouest","city":"Montréal","state":"QC","postal_code":"H3J 1N5","latitude":45.4827350188,"longitude":-73.5752901683,"stars":3.0,"review_count":50,"is_open":1,"categories":"Pizza, Restaurants","hours":{"Friday":"11:30-23:0","Monday":"11:30-22:0","Saturday":"17:0-23:0","Sunday":"17:0-22:0","Thursday":"11:30-23:0","Tuesday":"11:30-22:0","Wednesday":"11:30-22:0"}}
{"business_id":"qbWy-amzxcZK10hqS-NLSw","name":"Get Gelled Manicure Bar","address":"12 Irwin Avenue","city":"Toronto","state":"ON","postal_code":"M4Y 1K9","latitude":43.6667123,"longitude":-79.386129,"stars":3.5,"review_count":51,"is_open":1,"categories":"Nail Salons, Beauty & Spas","hours":{"Friday":"10:30-19:0","Saturday":"10:30-19:0","Thursday":"10:30-19:0","Tuesday":"10:30-19:0","Wednesday":"10:30-19:0"}}
{"business_id":"V--bquB1Th6fCuX_gL2KyA","name":"Absolute Angels Daycare","address":"222 Salvation Rd","city":"Brampton","state":"ON","postal_code":"L7A 0G2","latitude":43.6805967,"longitude":-79.8256226,"stars":2.5,"review_count":3,"is_open":1,"categories":"Child Care & Day Care, Local Services","hours":{"Friday":"6:30-18:30","Monday":"6:30-18:30","Thursday":"6:30-18:30","Tuesday":"6:30-18:30","Wednesday":"6:30-18:30"}}
{"business_id":"sIKuBMvUCqqjN0uqI70btA","name":"Oriental Cafe","address":"9425 Leslie Street","city":"Richmond Hill","state":"ON","postal_code":"L4B 3N7","latitude":43.8662503,"longitude":-79.3864907,"stars":3.5,"review_count":5,"is_open":0,"categories":"Chinese, Restaurants"}
{"business_id":"ADmJgVJ82zdLzffdaH1gVw","name":"Planet Organic Market","address":"170 Lakeshore Rd","city":"East Mississauga","state":"ON","postal_code":"L5G 1G1","latitude":43.557103,"longitude":-79.580702,"stars":3.5,"review_count":16,"is_open":1,"categories":"Food, Health Markets, Specialty Food, Organic Stores, Grocery","hours":{"Friday":"8:0-21:0","Monday":"8:0-21:0","Saturday":"8:0-21:0","Sunday":"8:0-21:0","Thursday":"8:0-21:0","Tuesday":"8:0-21:0","Wednesday":"8:0-21:0"}}
{"business_id":"Nwk6QGvHj2YuP3GSk6B-Tw","name":"Body & Soul Tattoo Studio","address":"77 Main Street N","city":"Brampton","state":"ON","postal_code":"L6X 1M8","latitude":43.6867919,"longitude":-79.761398,"stars":2.0,"review_count":5,"is_open":1,"categories":"Beauty & Spas, Tattoo, Piercing","hours":{"Friday":"12:0-21:0","Saturday":"12:0-21:0","Sunday":"12:0-18:0","Thursday":"12:0-21:0","Tuesday":"12:0-21:0","Wednesday":"12:0-21:0"}}
{"business_id":"a8o8OMGhWg4JwbuMMnVOHQ","name":"Pepper Walk","address":"5955 Latimer Drive, Unit 7","city":"Mississauga","state":"ON","postal_code":"L5V 0B7","latitude":43.6089211,"longitude":-79.6966007,"stars":3.5,"review_count":54,"is_open":1,"categories":"Restaurants, Steakhouses, Burgers, Halal, Indian","hours":{"Friday":"12:0-23:0","Monday":"12:0-22:0","Saturday":"12:0-23:0","Sunday":"12:0-22:0","Thursday":"12:0-22:0","Tuesday":"17:0-22:0","Wednesday":"12:0-22:0"}}
{"business_id":"Smnwx7z2abtuQmSFisUiOA","name":"Shoeless Joe's Sports Grill - Stockyards","address":"1980 St Clair Ave West","city":"Toronto","state":"ON","postal_code":"M6N 0A3","latitude":43.672734,"longitude":-79.4708416,"stars":2.5,"review_count":27,"is_open":1,"categories":"Bars, Burgers, Nightlife, Sports Bars, Wigs, Beer Bar, Chicken Wings, Restaurants, Shopping","hours":{"Friday":"11:30-2:0","Monday":"11:30-23:0","Saturday":"11:30-2:0","Sunday":"11:30-23:0","Thursday":"11:30-1:0","Tuesday":"11:30-23:0","Wednesday":"11:30-23:0"}}
{"business_id":"JtrBa5-T6QLXv3y5_ACTkg","name":"Doo Roo Ae","address":"659 Bloor Street  West","city":"Toronto","state":"ON","postal_code":"M6G 1K9","latitude":43.6640738,"longitude":-79.4156109,"stars":4.0,"review_count":52,"is_open":1,"categories":"Restaurants, Korean","hours":{"Friday":"11:30-4:0","Monday":"11:30-14:0","Saturday":"11:30-3:45","Sunday":"11:30-0:0","Thursday":"11:30-2:0","Tuesday":"11:30-2:0","Wednesday":"11:30-2:0"}}
{"business_id":"mM5XynUk82upOm43mIJFHw","name":"Royal Jade","address":"2100 Steeles Avenue W, Unit 1","city":"Vaughan","state":"ON","postal_code":"L4K 2V1","latitude":43.78318,"longitude":-79.489917,"stars":4.5,"review_count":47,"is_open":1,"categories":"Thai, Restaurants, Chinese, Halal, Asian Fusion, Hakka","hours":{"Friday":"11:0-22:0","Monday":"0:0-0:0","Saturday":"12:0-22:0","Sunday":"12:0-22:0","Thursday":"11:0-22:0","Tuesday":"11:0-22:0","Wednesday":"11:0-22:0"}}
{"business_id":"ORK8DaGKl2USPjbk2BUW2A","name":"Crowfoot Print","address":"20 Crowfoot Cres NW, Unit 240","city":"Calgary","state":"AB","postal_code":"T3G 2P6","latitude":51.1255315716,"longitude":-114.1991295238,"stars":4.5,"review_count":3,"is_open":1,"categories":"Graphic Design, Local Services, Professional Services, Printing Services, Shopping, Bookbinding, Office Equipment","hours":{"Friday":"10:0-16:0","Monday":"0:0-0:0","Thursday":"10:0-16:0","Tuesday":"8:30-17:0","Wednesday":"10:0-16:0"}}
{"business_id":"paCgjLEUEVM38VZ6Sjghgg","name":"Comedy Bar","address":"945 Bloor St W","city":"Toronto","state":"ON","postal_code":"M6H 1L5","latitude":43.6613806,"longitude":-79.4278682,"stars":3.5,"review_count":96,"is_open":1,"categories":"Comedy Clubs, Nightlife","hours":{"Friday":"18:0-2:0","Monday":"18:0-2:0","Saturday":"18:0-2:0","Sunday":"18:0-2:0","Thursday":"18:0-2:0","Tuesday":"18:0-2:0","Wednesday":"18:0-2:0"}}
{"business_id":"Rpfw22oac7GykS-G7nqhIg","name":"KFC","address":"4559 Hurontario Street","city":"Mississauga","state":"ON","postal_code":"L4Z 3L9","latitude":43.608063354,"longitude":-79.650081673,"stars":3.0,"review_count":6,"is_open":1,"categories":"Restaurants, Chicken Wings, Fast Food, Chicken Shop, American (Traditional)","hours":{"Friday":"11:0-23:0","Monday":"11:0-22:0","Saturday":"11:0-23:0","Sunday":"11:0-22:0","Thursday":"11:0-22:0","Tuesday":"11:0-22:0","Wednesday":"11:0-22:0"}}
{"business_id":"YCsLfBVdLFeN2Necw1HPSA","name":"Stussy","address":"1000 Queen Street W","city":"Toronto","state":"ON","postal_code":"M6J 1H1","latitude":43.644258153,"longitude":-79.4188293813,"stars":2.0,"review_count":5,"is_open":0,"categories":"Fashion, Men's Clothing, Shoe Stores, Shopping"}
{"business_id":"g9g0fLPzznUeAXt-B626oQ","name":"The Lid Lounge","address":"115B Church Street","city":"Toronto","state":"ON","postal_code":"M5C 2G5","latitude":43.6526963,"longitude":-79.3753453,"stars":4.5,"review_count":11,"is_open":0,"categories":"Hair Salons, Beauty & Spas","hours":{"Friday":"10:0-19:0","Monday":"10:0-19:0","Saturday":"10:0-18:0","Thursday":"10:0-19:0","Tuesday":"10:0-19:0","Wednesday":"10:0-19:0"}}
{"business_id":"CoACClz2tcPKNhEhkHaauQ","name":"Sushitto On the Road","address":"598 College Street","city":"Toronto","state":"ON","postal_code":"M6G 1B4","latitude":43.655245,"longitude":-79.414143,"stars":4.0,"review_count":39,"is_open":0,"categories":"Food, Restaurants, Food Trucks, Asian Fusion","hours":{"Friday":"12:0-2:0","Monday":"12:0-23:0","Saturday":"12:0-2:0","Sunday":"12:0-23:0","Thursday":"12:0-23:0","Tuesday":"12:0-23:0","Wednesday":"12:0-23:0"}}
{"business_id":"loWCXoqVS1OVdDmmgV9ZYw","name":"Shoppers Drug Mart","address":"1323 Centre St NW","city":"Calgary","state":"AB","postal_code":"T2E 2R5","latitude":51.0640396,"longitude":-114.0628089,"stars":4.0,"review_count":5,"is_open":1,"categories":"Beauty & Spas, Shopping, Drugstores"}
{"business_id":"K7szuaFnuV6nz4w_i-bLPg","name":"Ma Poule Mouillée","address":"969 Rue Rachel Est","city":"Montréal","state":"QC","postal_code":"H2J 2J4","latitude":45.5252188,"longitude":-73.5750686,"stars":4.5,"review_count":327,"is_open":1,"categories":"Restaurants, Portuguese","hours":{"Friday":"9:0-22:0","Monday":"9:0-22:0","Saturday":"9:0-22:0","Sunday":"9:0-22:0","Thursday":"9:0-22:0","Tuesday":"9:0-22:0","Wednesday":"9:0-22:0"}}
{"business_id":"kWp5-84f_V8jfGydRiZzmg","name":"Tea Shop","address":"377 Yonge Street","city":"Toronto","state":"ON","postal_code":"M5B 1S1","latitude":43.658915,"longitude":-79.381889,"stars":2.5,"review_count":31,"is_open":0,"categories":"Tea Rooms, Bubble Tea, Food, Coffee & Tea","hours":{"Friday":"12:0-2:0","Monday":"12:0-1:0","Saturday":"12:0-2:0","Sunday":"12:0-1:0","Thursday":"12:0-1:0","Tuesday":"12:0-1:0","Wednesday":"12:0-1:0"}}
{"business_id":"YGH_JV6EWnUX9V1SO-zajg","name":"Nana Sushi","address":"4-670 Eglinton Avenue W","city":"Mississauga","state":"ON","postal_code":"L5R 3V2","latitude":43.5920557,"longitude":-79.6679843,"stars":3.5,"review_count":14,"is_open":1,"categories":"Sushi Bars, Japanese, Restaurants","hours":{"Friday":"11:30-22:0","Monday":"11:30-22:0","Saturday":"11:30-22:0","Sunday":"11:30-21:0","Thursday":"11:30-22:0","Wednesday":"11:30-22:0"}}
{"business_id":"qOjuJAxsqAGYNAr5o83eaw","name":"Le Cheval Blanc","address":"809 rue Ontario Est","city":"Montréal","state":"QC","postal_code":"H2L 1P1","latitude":45.5181511,"longitude":-73.5643073,"stars":4.0,"review_count":48,"is_open":1,"categories":"Breweries, Nightlife, Restaurants, Food, Brasseries","hours":{"Friday":"15:0-3:0","Monday":"15:0-3:0","Saturday":"15:0-3:0","Sunday":"15:0-3:0","Thursday":"15:0-3:0","Tuesday":"15:0-3:0","Wednesday":"15:0-3:0"}}
{"business_id":"cgjgt391crp-NMm4lGCTfA","name":"Orléans Express","address":"Terminus Intermodal de Longueuil, 120 Place Charles-le Moyne","city":"Longueuil","state":"QC","postal_code":"J4K 2T4","latitude":45.525443,"longitude":-73.518966,"stars":2.5,"review_count":4,"is_open":1,"categories":"Hotels & Travel, Transportation, Buses"}
{"business_id":"x8eZMhRs3tSGzdwpPB4QdQ","name":"Tutti Fruitti","address":"402 Bloor Street W","city":"Toronto","state":"ON","postal_code":"M5S 1X5","latitude":43.6658929,"longitude":-79.4075736,"stars":3.5,"review_count":8,"is_open":0,"categories":"Food, Candy Stores, Specialty Food"}
{"business_id":"lvktk05PDgwbhJAPcNHXBw","name":"GoodLife Fitness","address":"4525 Kingston Rd","city":"Scarborough","state":"ON","postal_code":"M1E 2P1","latitude":43.7707478,"longitude":-79.1840402,"stars":3.5,"review_count":3,"is_open":1,"categories":"Fitness & Instruction, Gyms, Sports Clubs, Active Life, Trainers","hours":{"Friday":"6:0-22:0","Monday":"6:0-23:0","Saturday":"8:0-18:0","Sunday":"8:0-18:0","Thursday":"6:0-23:0","Tuesday":"6:0-23:0","Wednesday":"6:0-23:0"}}
{"business_id":"RYQNot_eDQwduNzpctosRg","name":"Weed Man","address":"3619 Blackburn Rd SE","city":"Calgary","state":"AB","postal_code":"T2G 4A3","latitude":51.0225853,"longitude":-114.0552564,"stars":2.0,"review_count":3,"is_open":1,"categories":"Gardeners, Home Services"}
{"business_id":"vH5EXOjJrfi1hwqz279hrw","name":"The Manor Hair Lounge","address":"584 Church St","city":"Toronto","state":"ON","postal_code":"M4Y 1L5","latitude":43.6669543,"longitude":-79.3817154,"stars":3.5,"review_count":7,"is_open":0,"categories":"Tanning, Hair Salons, Day Spas, Beauty & Spas","hours":{"Friday":"10:0-20:0","Monday":"11:0-19:0","Saturday":"10:0-18:0","Sunday":"12:0-18:0","Thursday":"10:0-20:0","Tuesday":"10:0-20:0","Wednesday":"10:0-20:0"}}
{"business_id":"E4wiOHWrUzQibEHt2Rohhw","name":"Cherry Cola's Rock N' Rolla Cabaret Lounge","address":"200 Bathurst Street","city":"Toronto","state":"ON","postal_code":"M5T 2R7","latitude":43.6478436,"longitude":-79.4043708,"stars":3.5,"review_count":26,"is_open":1,"categories":"Bars, Nightlife","hours":{"Friday":"21:0-3:0","Saturday":"21:0-3:0","Sunday":"21:0-3:0","Thursday":"21:0-3:0","Tuesday":"21:0-3:0","Wednesday":"21:0-3:0"}}
{"business_id":"4CDBiS3Q1JPk4WicswFPnA","name":"De Floured","address":"1250 College Street","city":"Toronto","state":"ON","postal_code":"M6H 1C2","latitude":43.6515336,"longitude":-79.4383577,"stars":5.0,"review_count":8,"is_open":1,"categories":"Coffee & Tea, Local Services, Food, IT Services & Computer Repair, Mobile Phone Repair, Gluten-Free, Restaurants, Bakeries","hours":{"Friday":"9:30-17:0","Saturday":"9:30-17:0","Sunday":"11:0-17:0","Thursday":"9:30-17:0","Wednesday":"9:30-17:0"}}
{"business_id":"V3gCqDlgMA7bkswtZ9Uuww","name":"LCBO","address":"10 Scrivener Square","city":"Toronto","state":"ON","postal_code":"M4W 3Y9","latitude":43.6809635597,"longitude":-79.3905542135,"stars":4.5,"review_count":49,"is_open":1,"categories":"Beer, Wine & Spirits, Food","hours":{"Friday":"10:0-22:0","Monday":"10:0-22:0","Saturday":"9:0-22:0","Sunday":"11:0-18:0","Thursday":"10:0-22:0","Tuesday":"10:0-22:0","Wednesday":"10:0-22:0"}}
{"business_id":"PhN6PToHePTKbEgdedUlyQ","name":"The House Coffee & Sanctuary","address":"126 10 Street NW","city":"Calgary","state":"AB","postal_code":"T2N 1V3","latitude":51.0529734,"longitude":-114.0856362,"stars":4.0,"review_count":16,"is_open":0,"categories":"Coffee & Tea, Food","hours":{"Friday":"9:0-21:0","Monday":"9:0-21:0","Saturday":"9:0-22:0","Sunday":"9:0-21:0","Thursday":"9:0-21:0","Tuesday":"9:0-21:0","Wednesday":"9:0-21:0"}}
{"business_id":"TS5e4N5ySggYQV5eK5tk1A","name":"Mint Leaf","address":"A-526 4 Avenue SW","city":"Calgary","state":"AB","postal_code":"T2P 0J6","latitude":51.0500223012,"longitude":-114.0723950788,"stars":4.0,"review_count":21,"is_open":1,"categories":"Restaurants, Vietnamese, Noodles, Seafood","hours":{"Friday":"11:0-21:0","Monday":"11:0-20:0","Saturday":"11:0-21:0","Sunday":"11:0-20:0","Thursday":"11:0-20:0","Tuesday":"11:0-20:0","Wednesday":"11:0-20:0"}}
{"business_id":"GxMwUyAu_Px2cFkLUAIX0w","name":"Pour Beer Wine Food","address":"2060 Symons Valley Parkway NW, Suite 3018","city":"Calgary","state":"AB","postal_code":"T3P 0M9","latitude":51.1739614397,"longitude":-114.108559303,"stars":2.5,"review_count":11,"is_open":0,"categories":"Nightlife, Gastropubs, Beer, Wine & Spirits, Restaurants, Food, Bars","hours":{"Friday":"11:0-2:0","Monday":"11:0-0:0","Saturday":"11:0-2:0","Sunday":"10:0-0:0","Thursday":"11:0-1:0","Tuesday":"11:0-0:0","Wednesday":"11:0-1:0"}}
{"business_id":"tpmMELSsUxS2x1FdM6k9nQ","name":"Wu's Garden Buffet","address":"3560 Victoria Park Avenue","city":"Toronto","state":"ON","postal_code":"M2H 2N5","latitude":43.805803,"longitude":-79.338328,"stars":2.5,"review_count":11,"is_open":0,"categories":"Buffets, Chinese, Restaurants"}
{"business_id":"vZT8FyPWsLEY-7BETi5iCQ","name":"Boston Pizza","address":"2100 Av Pierre-Peladeau","city":"Laval","state":"QC","postal_code":"H7T 3C2","latitude":45.560628,"longitude":-73.741411,"stars":3.0,"review_count":8,"is_open":0,"categories":"Pizza, Restaurants"}
{"business_id":"GY2VyNBxX5H_8kilGCAjUA","name":"Elephant & Castle","address":"212 King St West","city":"Toronto","state":"ON","postal_code":"M5H 1K5","latitude":43.6475556,"longitude":-79.3864149,"stars":3.0,"review_count":129,"is_open":1,"categories":"Pubs, Bars, Nightlife, Restaurants, British","hours":{"Friday":"11:0-2:0","Monday":"11:0-23:0","Saturday":"11:0-2:0","Sunday":"11:0-23:0","Thursday":"11:0-2:0","Tuesday":"11:0-1:0","Wednesday":"11:0-1:0"}}
{"business_id":"FVKtmwaI19glmbUgaIcphg","name":"Shell","address":"730 Avenue Sheppard E","city":"North York","state":"ON","postal_code":"M2K 1C3","latitude":43.7697446,"longitude":-79.3763249,"stars":1.5,"review_count":3,"is_open":1,"categories":"Automotive, Gas Stations"}
{"business_id":"SCklYa_jhihWAcfIn-_chg","name":"Bonjour Brioche","address":"812 Queen Street E","city":"Toronto","state":"ON","postal_code":"M4M 1H7","latitude":43.6597952,"longitude":-79.3462868,"stars":3.5,"review_count":273,"is_open":1,"categories":"Restaurants, French, Food, Breakfast & Brunch, Coffee & Tea","hours":{"Friday":"8:0-16:0","Saturday":"8:0-16:0","Sunday":"8:0-16:0","Thursday":"8:0-16:0","Tuesday":"8:0-16:0","Wednesday":"8:0-16:0"}}
{"business_id":"SgwyIg9sFQpSsu-nkOdETA","name":"Aurora Toyota","address":"14785 Yonge Street","city":"Aurora","state":"ON","postal_code":"L4G 1N1","latitude":43.9885608,"longitude":-79.4648935,"stars":4.0,"review_count":4,"is_open":0,"categories":"Automotive, Auto Repair, Car Dealers","hours":{"Friday":"9:0-18:0","Monday":"9:0-21:0","Saturday":"9:0-18:0","Thursday":"9:0-21:0","Tuesday":"9:0-21:0","Wednesday":"9:0-21:0"}}
{"business_id":"T76zx_SGL6XMyu7tq9aZpw","name":"Art Central","address":"100 7 Avenue SW","city":"Calgary","state":"AB","postal_code":"T2P 0W4","latitude":51.0464431,"longitude":-114.0632102,"stars":5.0,"review_count":8,"is_open":0,"categories":"Shopping, Event Planning & Services, Arts & Entertainment, Art Galleries, Venues & Event Spaces","hours":{"Friday":"11:0-18:0","Monday":"11:0-18:0","Saturday":"11:0-18:0","Thursday":"11:0-18:0","Tuesday":"11:0-18:0","Wednesday":"11:0-18:0"}}
{"business_id":"twt2i-TrO6fP9fh5yM3h1g","name":"McDonald's","address":"395 Bamburgh Circle","city":"Toronto","state":"ON","postal_code":"M1W 3G4","latitude":43.8159603,"longitude":-79.3230105,"stars":1.5,"review_count":17,"is_open":1,"categories":"Fast Food, Restaurants, Burgers","hours":{"Friday":"0:0-0:0","Monday":"0:0-0:0","Saturday":"0:0-0:0","Sunday":"0:0-0:0","Thursday":"0:0-0:0","Tuesday":"0:0-0:0","Wednesday":"0:0-0:0"}}
{"business_id":"9Pd-hdvW3cBosL43_Yu0qQ","name":"Revo Bistro","address":"3315 Bloor Street W","city":"Etobicoke","state":"ON","postal_code":"M8X 1E7","latitude":43.645247,"longitude":-79.5203059,"stars":3.0,"review_count":3,"is_open":1,"categories":"American (New), Restaurants, Canadian (New)"}
{"business_id":"8MhT3S_iaMzjlZT0sDs2Kg","name":"Inada Japanese Restaurant","address":"3250 Midland Avenue, Unit G128-130","city":"Toronto","state":"ON","postal_code":"M1V 4A1","latitude":43.8049179054,"longitude":-79.2873908176,"stars":3.0,"review_count":12,"is_open":0,"categories":"Japanese, Restaurants"}
{"business_id":"9_8veOtNHWndBzfTvQAQCw","name":"Burrito Boyz","address":"19 Dundas Street E","city":"Mississauga","state":"ON","postal_code":"L5A 1V9","latitude":43.5812162,"longitude":-79.6160524,"stars":3.5,"review_count":73,"is_open":1,"categories":"Restaurants, Tex-Mex, Mexican","hours":{"Friday":"11:0-1:0","Monday":"11:0-0:0","Saturday":"11:0-1:0","Sunday":"11:0-0:0","Thursday":"11:0-0:0","Tuesday":"11:0-0:0","Wednesday":"11:0-0:0"}}
{"business_id":"QsmAf5T-ZuYPLk2cXkHbGg","name":"Ruffles Hair Design","address":"5997 Bathurst Street","city":"North York","state":"ON","postal_code":"M2R 1Z3","latitude":43.7863425,"longitude":-79.445644,"stars":2.5,"review_count":18,"is_open":1,"categories":"Hair Salons, Beauty & Spas","hours":{"Saturday":"9:0-17:0","Sunday":"9:0-17:0","Thursday":"9:0-19:0","Tuesday":"9:0-17:30","Wednesday":"9:0-19:0"}}
{"business_id":"I8RopnHROzbd-9oBk2NGXw","name":"Maison Sociale","address":"5386 Boulevard Saint-Laurent","city":"Montréal","state":"QC","postal_code":"H2T 1S1","latitude":45.524993,"longitude":-73.5973419,"stars":3.0,"review_count":11,"is_open":0,"categories":"Bars, Social Clubs, Arts & Entertainment, Cafes, Nightlife, Restaurants","hours":{"Friday":"16:0-3:0","Monday":"16:0-3:0","Saturday":"16:0-3:0","Sunday":"11:0-15:0","Thursday":"16:0-3:0","Tuesday":"16:0-3:0","Wednesday":"16:0-3:0"}}
{"business_id":"dTWfATVrBfKj7Vdn0qWVWg","name":"Flavor Cuisine","address":"8 Glen Watford Drive","city":"Toronto","state":"ON","postal_code":"M1S 2C1","latitude":43.7870613,"longitude":-79.2761657,"stars":3.0,"review_count":6,"is_open":1,"categories":"Chinese, Restaurants, Food Court","hours":{"Friday":"11:0-21:0","Monday":"11:0-21:0","Saturday":"11:0-21:0","Sunday":"11:0-21:0","Thursday":"11:0-21:0","Wednesday":"11:0-21:0"}}
{"business_id":"aFjl3aPOjM4yy1WNB9-FAA","name":"Club Piscine West Island","address":"14920 Boul De Pierrefonds","city":"Pierrefonds","state":"QC","postal_code":"H9H 4G2","latitude":45.4827884,"longitude":-73.860164,"stars":2.0,"review_count":3,"is_open":1,"categories":"Contractors, Shopping, Sporting Goods, Home Services"}
{"business_id":"412zay6TFdL20X7649p2xw","name":"Shoppers Drug Mart","address":"2525 36 Street NE, Unit 135","city":"Calgary","state":"AB","postal_code":"T1Y 5T4","latitude":51.0744637644,"longitude":-113.9846676324,"stars":2.5,"review_count":6,"is_open":1,"categories":"Beauty & Spas, Shopping, Drugstores","hours":{"Friday":"8:0-0:0","Monday":"8:0-0:0","Saturday":"8:0-0:0","Sunday":"8:0-0:0","Thursday":"8:0-0:0","Tuesday":"8:0-0:0","Wednesday":"8:0-0:0"}}
{"business_id":"Eecewruq14ycZwV--OdOSw","name":"Fahim Kebab House","address":"2002 Middlefield Rd, Unit 10","city":"Markham","state":"ON","postal_code":"L3S 2E4","latitude":43.8332344918,"longitude":-79.2689282391,"stars":3.0,"review_count":7,"is_open":0,"categories":"Indian, Restaurants, Halal, Pakistani"}
{"business_id":"da8s1JW9XIJZG0L4UJt8Mg","name":"Benebene Waffle & Ice Cream","address":"234 Main Street S","city":"Newmarket","state":"ON","postal_code":"L3Y 6M8","latitude":44.0522497,"longitude":-79.4568744,"stars":5.0,"review_count":17,"is_open":1,"categories":"Food, Restaurants, Ice Cream & Frozen Yogurt, Waffles, Desserts","hours":{"Friday":"11:30-21:0","Monday":"15:0-21:0","Saturday":"11:30-21:0","Sunday":"11:30-21:0","Thursday":"11:30-21:0","Tuesday":"11:30-21:0","Wednesday":"11:30-21:0"}}
{"business_id":"gI6jw_bpYeEUOX0A8_WqVw","name":"Mississauga Emission Testing","address":"5020 McLaughlin Road","city":"Mississauga","state":"ON","postal_code":"L5R 3R8","latitude":43.5972144,"longitude":-79.6646388,"stars":4.0,"review_count":5,"is_open":1,"categories":"Auto Repair, Automotive, Smog Check Stations","hours":{"Friday":"8:0-18:0","Monday":"8:0-19:0","Saturday":"8:30-16:0","Thursday":"8:0-19:0","Tuesday":"8:0-19:0","Wednesday":"8:0-19:0"}}
{"business_id":"0ejSp30s8AHL9xswgk-CIQ","name":"Bouddha Bouddha Restaurant","address":"3710 Saint-Laurent Boulevard","city":"Montréal","state":"QC","postal_code":"H2X 2V4","latitude":45.5146669,"longitude":-73.5745163,"stars":3.0,"review_count":10,"is_open":0,"categories":"Thai, Vietnamese, Restaurants"}
{"business_id":"-56TP_w4VG2oNGpauDMOOQ","name":"Peachtree Mall","address":"8380 Kennedy Road","city":"Markham","state":"ON","postal_code":"L3R 0W4","latitude":43.8605145775,"longitude":-79.3047599494,"stars":3.0,"review_count":4,"is_open":1,"categories":"Cosmetics & Beauty Supply, Shopping, Asian Fusion, Beauty & Spas, Shopping Centers, Restaurants, Flowers & Gifts"}
{"business_id":"gwOYq2vNZrLoU3gtrHusQA","name":"La Chilenita","address":"100 Rue Marie-Anne O","city":"Montréal","state":"QC","postal_code":"H2W 1B8","latitude":45.5177350286,"longitude":-73.5851814124,"stars":3.5,"review_count":16,"is_open":0,"categories":"Latin American, Restaurants, Event Planning & Services, Mexican, Caterers","hours":{"Friday":"10:30-21:0","Monday":"10:30-19:0","Saturday":"11:0-21:0","Sunday":"11:0-20:0","Thursday":"10:30-20:0","Tuesday":"10:30-19:0","Wednesday":"10:30-19:0"}}
{"business_id":"NRQSeBoEyFpiGJDf3ebtyA","name":"Basha - Des Sources","address":"3339 Boulevard des Sources","city":"Dollard-des-Ormeaux","state":"QC","postal_code":"H9B 1Z8","latitude":45.4840219594,"longitude":-73.7955109456,"stars":3.5,"review_count":8,"is_open":1,"categories":"Indian, Lebanese, Middle Eastern, Restaurants, Pakistani"}
{"business_id":"pTYEPWijgqB3H7AVcqcYjA","name":"Le Bar","address":"318A 10 Street NW","city":"Calgary","state":"AB","postal_code":"T2N 1V8","latitude":51.0548050702,"longitude":-114.0856991047,"stars":5.0,"review_count":5,"is_open":0,"categories":"Tapas Bars, Restaurants, Mexican","hours":{"Friday":"11:0-21:0","Monday":"11:0-21:0","Saturday":"11:0-21:0","Sunday":"11:0-21:0","Thursday":"11:0-21:0","Tuesday":"11:0-21:0","Wednesday":"11:0-21:0"}}
{"business_id":"F6DRP5pYYYgDOKeVzWFsBw","name":"Bun Saigon Vietnamese Restaurant","address":"252 Spadina Avenue","city":"Toronto","state":"ON","postal_code":"M5T 2C2","latitude":43.6516468,"longitude":-79.3978711,"stars":3.5,"review_count":85,"is_open":1,"categories":"Specialty Food, Ethnic Food, Vietnamese, Food, Restaurants"}
{"business_id":"QZAnjAvaMPzVNI1rNJi46w","name":"Canadian Pizza Unlimited","address":"356 Cranston Road SE, Suite 2014","city":"Calgary","state":"AB","postal_code":"T3M 0S9","latitude":50.8807839881,"longitude":-113.9774932003,"stars":4.5,"review_count":3,"is_open":1,"categories":"Pizza, Food, Donairs, Restaurants, Chicken Wings"}
{"business_id":"kw1c_s0hGGLYZDdls6Vnqg","name":"Smart Choice Foodmart","address":"4734 Jane Street","city":"Toronto","state":"ON","postal_code":"M3N 2L3","latitude":43.769269279,"longitude":-79.5218110085,"stars":2.0,"review_count":3,"is_open":1,"categories":"Grocery, Food"}
{"business_id":"Ys5qxhXBYDBynvVA-6ovCg","name":"Matthew Smith","address":"","city":"Toronto","state":"ON","postal_code":"M6J 1H9","latitude":43.6436404,"longitude":-79.4230949879,"stars":5.0,"review_count":3,"is_open":1,"categories":"Home Services, Real Estate Services, Real Estate Agents, Real Estate"}
{"business_id":"2ZQgMDAExlWGJMRgFe03GQ","name":"Belle Ny Nails Spa","address":"2810 Major MacKenzie Drive, Unit 21","city":"Maple","state":"ON","postal_code":"L6A 3L2","latitude":43.851335,"longitude":-79.534781,"stars":3.0,"review_count":5,"is_open":1,"categories":"Nail Salons, Eyelash Service, Beauty & Spas, Hair Removal, Waxing","hours":{"Friday":"10:0-20:0","Monday":"10:0-19:0","Saturday":"10:0-18:0","Sunday":"10:0-16:0","Thursday":"10:0-20:0","Tuesday":"10:0-19:0","Wednesday":"10:0-19:0"}}
{"business_id":"IjWvm2LQdPuI4Ao4r8jrEg","name":"Reginos Pizza","address":"14810 Yonge Street","city":"Aurora","state":"ON","postal_code":"L4G 1N3","latitude":43.9888002,"longitude":-79.4653749,"stars":4.0,"review_count":12,"is_open":1,"categories":"Restaurants, Pizza, Chicken Wings","hours":{"Friday":"11:0-3:0","Monday":"11:0-0:0","Saturday":"11:0-3:0","Sunday":"11:0-0:0","Thursday":"11:0-1:0","Tuesday":"11:0-0:0","Wednesday":"11:0-0:0"}}
{"business_id":"rXx38r4UXQIL_5YjkXLEyw","name":"Value Village","address":"101 Northview Boulevard","city":"Vaughan","state":"ON","postal_code":"L4L 8X9","latitude":43.791909,"longitude":-79.5429063,"stars":4.0,"review_count":5,"is_open":1,"categories":"Thrift Stores, Local Services, Shopping, Community Service/Non-Profit","hours":{"Friday":"9:0-21:0","Monday":"9:0-21:0","Saturday":"9:0-21:0","Sunday":"10:0-18:0","Thursday":"9:0-21:0","Tuesday":"9:0-21:0","Wednesday":"9:0-21:0"}}
{"business_id":"P88pNunktmdtvb__e3rqRg","name":"Zagrum","address":"1825 Fleury Rue E","city":"Montréal","state":"QC","postal_code":"H2B 1H7","latitude":45.5685204,"longitude":-73.6536005,"stars":4.0,"review_count":17,"is_open":1,"categories":"Restaurants, Breakfast & Brunch","hours":{"Friday":"7:0-15:0","Monday":"7:0-15:0","Saturday":"7:0-15:0","Sunday":"7:0-15:0","Thursday":"7:0-15:0","Tuesday":"7:0-15:0","Wednesday":"7:0-15:0"}}
{"business_id":"fA7-JYiCeDuOdpTNmatsEg","name":"McDonald's","address":"1600 90 Avenue SW","city":"Calgary","state":"AB","postal_code":"T2V 5A8","latitude":50.9736203328,"longitude":-114.0991211672,"stars":1.5,"review_count":9,"is_open":1,"categories":"Fast Food, Sandwiches, Restaurants, Burgers","hours":{"Friday":"0:0-0:0","Monday":"0:0-0:0","Saturday":"0:0-0:0","Sunday":"0:0-0:0","Thursday":"0:0-0:0","Tuesday":"0:0-0:0","Wednesday":"0:0-0:0"}}
{"business_id":"Afe_k1fOcOLUhEmaNlRipQ","name":"Steve's Music Store","address":"415 Queen Street W","city":"Toronto","state":"ON","postal_code":"M5V 2A5","latitude":43.6488318,"longitude":-79.3949037,"stars":3.0,"review_count":34,"is_open":1,"categories":"Musical Instruments & Teachers, DJs, Party & Event Planning, Musical Instrument Services, Local Services, Electronics, Shopping, Event Planning & Services","hours":{"Friday":"10:0-21:0","Monday":"10:0-18:0","Saturday":"10:0-17:30","Sunday":"12:0-17:0","Thursday":"10:0-21:0","Tuesday":"10:0-18:0","Wednesday":"10:0-18:0"}}
{"business_id":"k3T05pOtZm8j5cvx95Gmcw","name":"Murdoch's Bar & Grill","address":"1935 37th Street SW","city":"Calgary","state":"AB","postal_code":"T3E 3A4","latitude":51.037164,"longitude":-114.141267,"stars":3.0,"review_count":11,"is_open":1,"categories":"Pubs, Bars, Irish Pub, Irish, American (Traditional), British, Restaurants, Nightlife","hours":{"Friday":"10:30-2:0","Monday":"10:30-2:0","Saturday":"10:0-2:0","Sunday":"10:0-2:0","Thursday":"10:30-2:0","Tuesday":"10:30-2:0","Wednesday":"10:30-2:0"}}
{"business_id":"PkNVYBczFG4RsRM6w7hQHA","name":"La Belle & la Boeuf","address":"1 Boulevard des Promenades, Suite #330","city":"St-Bruno-de-Montarville","state":"QC","postal_code":"J3V 5J5","latitude":45.5057439582,"longitude":-73.3768551455,"stars":4.0,"review_count":14,"is_open":1,"categories":"Comfort Food, Restaurants, Poutineries, Burgers","hours":{"Friday":"11:30-0:0","Monday":"11:30-0:0","Saturday":"11:30-0:0","Sunday":"11:30-0:0","Thursday":"11:30-0:0","Tuesday":"11:30-0:0","Wednesday":"11:30-0:0"}}
{"business_id":"seDuOOv4W3_fgFD7iMKhKw","name":"Sweet Pete's Bike Shop","address":"1204 Bloor Street W","city":"Toronto","state":"ON","postal_code":"M6H 1N2","latitude":43.6593745,"longitude":-79.4383615,"stars":3.5,"review_count":61,"is_open":1,"categories":"Bikes, Bike Rentals, Active Life, Shopping, Sporting Goods, Local Services, Bike Repair/Maintenance","hours":{"Friday":"11:0-19:0","Monday":"11:0-19:0","Saturday":"10:0-18:0","Sunday":"12:0-17:0","Thursday":"11:0-19:0","Tuesday":"11:0-19:0","Wednesday":"11:0-19:0"}}
{"business_id":"mRTmgaPH6AaceHh7Ci6Mag","name":"6ixTriangles","address":"127 Jefferson Avenue","city":"Toronto","state":"ON","postal_code":"M6K 3E4","latitude":43.639513,"longitude":-79.4218402,"stars":3.0,"review_count":5,"is_open":1,"categories":"Pop-Up Restaurants, Caterers, Event Planning & Services, Restaurants, Indian","hours":{"Friday":"11:0-19:45","Monday":"0:0-0:0","Saturday":"12:0-19:45","Thursday":"11:0-19:45","Tuesday":"11:0-19:45","Wednesday":"11:0-19:45"}}
{"business_id":"yKKSH29Lym9Ys9li2Lcnqg","name":"Sahana's Srilankan and South Indian Fusion","address":"3132 26 Street NE, Suite 301","city":"Calgary","state":"AB","postal_code":"T1Y 6Z1","latitude":51.0798067,"longitude":-113.9979131,"stars":4.5,"review_count":17,"is_open":0,"categories":"Indian, Sri Lankan, Restaurants","hours":{"Friday":"17:0-22:0","Monday":"17:0-21:0","Saturday":"17:0-22:0","Sunday":"17:0-21:0","Thursday":"17:0-21:0","Wednesday":"17:0-21:0"}}
{"business_id":"9TyF1tZC-wqVMU2-tZGTiA","name":"Zane Patisserie","address":"1852 Queen Street E","city":"Toronto","state":"ON","postal_code":"M4L 1H1","latitude":43.668549,"longitude":-79.307832,"stars":4.0,"review_count":33,"is_open":1,"categories":"Bakeries, Food, Desserts","hours":{"Friday":"7:30-17:30","Monday":"7:30-17:30","Saturday":"7:30-17:30","Sunday":"7:30-17:30","Thursday":"7:30-17:30","Tuesday":"7:30-17:30","Wednesday":"7:30-17:30"}}
{"business_id":"V0tE9ajcKMQQBkI4n-is3g","name":"Green Earth Organics","address":"311 Evans Avenue","city":"Toronto","state":"ON","postal_code":"M8Z 1K2","latitude":43.6164393,"longitude":-79.5208337,"stars":1.5,"review_count":4,"is_open":1,"categories":"Specialty Food, Food, Food Delivery Services, Health Markets","hours":{"Friday":"8:0-12:0","Monday":"8:0-16:0","Thursday":"8:0-16:0","Tuesday":"8:0-16:0","Wednesday":"8:0-16:0"}}
{"business_id":"8DV7iV7ev2JGyY5vrp5wJw","name":"Liquor Depot Westhills","address":"264 Stewart Green SW","city":"Calgary","state":"AB","postal_code":"T3H 3C8","latitude":51.014203,"longitude":-114.170425,"stars":4.5,"review_count":3,"is_open":1,"categories":"Shopping Centers, Beer, Wine & Spirits, Food, Shopping","hours":{"Friday":"10:0-21:0","Monday":"0:0-0:0","Saturday":"10:0-21:0","Sunday":"11:0-19:0","Thursday":"10:0-20:0","Tuesday":"10:0-20:0","Wednesday":"10:0-20:0"}}
{"business_id":"glMQ2f-W7y5Glvx0xed19g","name":"Mr. Lube","address":"490 Dundas Street W","city":"Oakville","state":"ON","postal_code":"L6H 6Y3","latitude":43.4652212,"longitude":-79.7438212,"stars":2.0,"review_count":5,"is_open":1,"categories":"Auto Repair, Tires, Automotive, Oil Change Stations","hours":{"Friday":"7:30-20:0","Monday":"7:30-20:0","Saturday":"7:30-18:0","Sunday":"9:0-17:0","Thursday":"7:30-20:0","Tuesday":"7:30-20:0","Wednesday":"7:30-20:0"}}
{"business_id":"tE88d-oHmNngAZNdD9EHjg","name":"Avenue Open Kitchen","address":"7 Camden Street","city":"Toronto","state":"ON","postal_code":"M5V 1V2","latitude":43.647128,"longitude":-79.396451,"stars":4.5,"review_count":108,"is_open":1,"categories":"Restaurants, Delis, Sandwiches, Diners","hours":{"Friday":"7:0-16:0","Monday":"0:0-0:0","Saturday":"8:0-15:0","Thursday":"7:0-16:0","Tuesday":"7:0-16:0","Wednesday":"7:0-16:0"}}
{"business_id":"I725elRtUai4W-0cTwDoJQ","name":"Pasteizza","address":"45 Westminster Avenue N","city":"Montreal-Ouest","state":"QC","postal_code":"H4X 1Y8","latitude":45.4530189886,"longitude":-73.6453847589,"stars":3.5,"review_count":6,"is_open":1,"categories":"Salad, Pizza, Restaurants","hours":{"Friday":"11:0-23:0","Monday":"11:0-22:0","Saturday":"11:0-23:0","Sunday":"11:0-22:0","Thursday":"11:0-22:0","Tuesday":"11:0-22:0","Wednesday":"11:0-22:0"}}
{"business_id":"gaEgDDKsuBVzDFg8wsF2Ig","name":"Apache Burgers","address":"5236 Dundas Street W","city":"Etobicoke","state":"ON","postal_code":"M9B 1A7","latitude":43.6392600147,"longitude":-79.5377321559,"stars":3.0,"review_count":136,"is_open":1,"categories":"Restaurants, Hot Dogs, Burgers","hours":{"Friday":"11:0-3:0","Monday":"11:0-2:0","Saturday":"11:0-3:0","Sunday":"11:0-2:0","Thursday":"11:0-2:0","Tuesday":"11:0-2:0","Wednesday":"11:0-2:0"}}
{"business_id":"ZbRazF39WqTZmG3vn7OhNQ","name":"Elegantview Chinese Restaurant","address":"3601 Victoria Park Avenue","city":"Scarborough","state":"ON","postal_code":"M1W 3Y3","latitude":43.8037598,"longitude":-79.3359053,"stars":3.0,"review_count":4,"is_open":0,"categories":"Chinese, Restaurants"}
{"business_id":"uzQLMtX9TP_uk8s-QZjPCQ","name":"Honey Martin","address":"5916 Sherbrooke W","city":"Montréal","state":"QC","postal_code":"H4A 1X7","latitude":45.4687307,"longitude":-73.6189352,"stars":3.5,"review_count":21,"is_open":1,"categories":"Nightlife, Bars, Music Venues, Pubs, Arts & Entertainment","hours":{"Friday":"15:0-3:0","Monday":"15:0-3:0","Saturday":"15:0-3:0","Sunday":"15:0-3:0","Thursday":"15:0-3:0","Tuesday":"15:0-3:0","Wednesday":"15:0-3:0"}}
{"business_id":"Xk3nvgipbBPuEoUEXmzQ2Q","name":"Theatre Junction GRAND","address":"608 1 Street SW","city":"Calgary","state":"AB","postal_code":"T2P 1M6","latitude":51.0471522,"longitude":-114.065167,"stars":4.5,"review_count":4,"is_open":1,"categories":"Music Venues, Cinema, Performing Arts, Nightlife, Arts & Entertainment"}
{"business_id":"YuRcOWsTHP5WjROdN9gk1w","name":"Griffin Pub","address":"1205-1207 Rue Shearer","city":"Montréal","state":"QC","postal_code":"H3K 2J9","latitude":45.4831953,"longitude":-73.5624214,"stars":4.0,"review_count":4,"is_open":1,"categories":"Dive Bars, Nightlife, Bars"}
{"business_id":"OuBlNEyfJpxfq9SQgELiAA","name":"Ludger","address":"4001 Rue Notre-Dame Ouest","city":"Montréal","state":"QC","postal_code":"H4C 1R2","latitude":45.4778613313,"longitude":-73.5842836798,"stars":3.5,"review_count":41,"is_open":0,"categories":"Canadian (New), Bars, Nightlife, Restaurants, Lounges","hours":{"Friday":"17:0-23:0","Monday":"17:0-23:0","Saturday":"17:0-23:0","Sunday":"10:0-15:0","Thursday":"17:0-23:0","Tuesday":"17:0-23:0","Wednesday":"17:0-23:0"}}
{"business_id":"GHCe0r3ILhpLZuurtFt9xQ","name":"Once Upon A Child","address":"130 Davis Drive","city":"Newmarket","state":"ON","postal_code":"L3Y 2N1","latitude":44.0550795,"longitude":-79.474812,"stars":4.0,"review_count":3,"is_open":1,"categories":"Shopping, Baby Gear & Furniture, Children's Clothing, Fashion","hours":{"Friday":"9:30-20:0","Monday":"9:30-20:0","Saturday":"9:30-18:0","Sunday":"12:0-17:0","Thursday":"9:30-20:0","Tuesday":"9:30-20:0","Wednesday":"9:30-20:0"}}
{"business_id":"k2a0B5nlT3V9zzVrpgcGeQ","name":"Bar George","address":"1440 Rue Drummond","city":"Montréal","state":"QC","postal_code":"H3G 1V9","latitude":45.4991672,"longitude":-73.575678,"stars":4.5,"review_count":90,"is_open":1,"categories":"Nightlife, Restaurants, Breakfast & Brunch, British, Bars","hours":{"Friday":"7:0-3:0","Monday":"7:0-1:0","Saturday":"7:0-3:0","Sunday":"7:0-1:0","Thursday":"7:0-3:0","Tuesday":"7:0-1:0","Wednesday":"7:0-1:0"}}
{"business_id":"kBl50D_uSLrf0ooW_EbwwQ","name":"Trylon Apartments","address":"3463 Sainte-Famille","city":"Montréal","state":"QC","postal_code":"H2X 2K7","latitude":45.5106887817,"longitude":-73.572013855,"stars":4.0,"review_count":6,"is_open":1,"categories":"Real Estate, Hotels & Travel, Apartments, Home Services"}
{"business_id":"tv460aZVxuiHu1C7X2inHw","name":"Ramsden Park","address":"1020 Yonge Street","city":"Toronto","state":"ON","postal_code":"M4W 2K1","latitude":43.6764023,"longitude":-79.3896223,"stars":4.0,"review_count":7,"is_open":1,"categories":"Active Life, Skating Rinks, Tennis, Parks"}
{"business_id":"VsuUQeZWqlUvYRqOLitGTw","name":"Wicked Sammich","address":"2772 Dundas Street W","city":"Toronto","state":"ON","postal_code":"M6P 1Y3","latitude":43.6654122,"longitude":-79.4614958,"stars":2.5,"review_count":3,"is_open":0,"categories":"Sandwiches, Restaurants","hours":{"Friday":"11:0-18:0","Thursday":"11:0-18:0","Tuesday":"11:0-17:0","Wednesday":"11:0-17:0"}}
{"business_id":"Fwt0ia7H80q_mHLvrf1gzQ","name":"Spoonful","address":"499 Main Street S","city":"Brampton","state":"ON","postal_code":"L6Y 1N6","latitude":43.667819,"longitude":-79.738754,"stars":3.0,"review_count":233,"is_open":1,"categories":"Seafood, Buffets, Restaurants, Sushi Bars","hours":{"Friday":"16:30-22:30","Monday":"16:30-21:30","Saturday":"16:30-22:30","Sunday":"16:30-22:30","Thursday":"16:30-21:30","Tuesday":"16:30-21:30","Wednesday":"16:30-21:30"}}
{"business_id":"eJsZ2S_Bvj68nu2AIwO0sQ","name":"Restaurant Wan Fu","address":"2121 Boulevard Des Laurentides","city":"Laval","state":"QC","postal_code":"H7M 4M2","latitude":45.6084095,"longitude":-73.7337042,"stars":1.0,"review_count":3,"is_open":0,"categories":"Chinese, Restaurants"}
{"business_id":"2usOOBSDdo2Gx7pd5B4paQ","name":"Xam Yu Seafood Restaurant","address":"339 Spadina Avenue","city":"Toronto","state":"ON","postal_code":"M5T 2G3","latitude":43.6551013,"longitude":-79.3985989,"stars":4.0,"review_count":23,"is_open":0,"categories":"Restaurants, Seafood"}
{"business_id":"Dq4-B1lrW2y5YrbNc6kJnw","name":"EweKnit","address":"832 Bloor Street W","city":"Toronto","state":"ON","postal_code":"M6G 1M2","latitude":43.6626145,"longitude":-79.4235969,"stars":4.0,"review_count":3,"is_open":1,"categories":"Shopping, Arts & Crafts, Knitting Supplies","hours":{"Friday":"12:0-19:0","Monday":"12:0-19:0","Saturday":"10:0-18:0","Sunday":"12:0-17:0","Thursday":"12:0-21:0","Tuesday":"12:0-19:0","Wednesday":"12:0-19:0"}}
{"business_id":"uHgQgxfksSyqTzRRfRh0_w","name":"The Ice Cream Shop Woodbridge","address":"140 Woodbridge Avenue, Suite 607","city":"Vaughan","state":"ON","postal_code":"L4L 2S6","latitude":43.7836374058,"longitude":-79.591532291,"stars":3.0,"review_count":4,"is_open":1,"categories":"Desserts, Candy Stores, Ice Cream & Frozen Yogurt, Specialty Food, Food","hours":{"Friday":"10:0-21:0","Monday":"10:0-21:0","Saturday":"10:0-21:0","Sunday":"12:0-21:0","Thursday":"10:0-21:0","Tuesday":"10:0-21:0","Wednesday":"10:0-21:0"}}
{"business_id":"WbaAuSVAb2VmptO3YYhWLw","name":"New Age Physio","address":"829 Browns Line","city":"Toronto","state":"ON","postal_code":"M8W 4Z8","latitude":43.6095841,"longitude":-79.5487283,"stars":5.0,"review_count":3,"is_open":1,"categories":"Massage Therapy, Health & Medical, Acupuncture, Physical Therapy","hours":{"Friday":"10:0-19:0","Monday":"10:0-19:0","Saturday":"9:0-13:0","Thursday":"10:0-19:0","Tuesday":"10:0-19:0","Wednesday":"10:0-19:0"}}
{"business_id":"yjXBQijEWZKR88ufseOTmw","name":"Calgary Institute of Plastic Surgery","address":"1100 1 Street SE, Suite 510","city":"Calgary","state":"AB","postal_code":"T2G 1B1","latitude":51.0419955,"longitude":-114.0603212,"stars":5.0,"review_count":5,"is_open":1,"categories":"Plastic Surgeons, Health & Medical, Cosmetic Surgeons, Doctors","hours":{"Friday":"9:0-16:30","Monday":"9:0-16:30","Thursday":"9:0-16:30","Tuesday":"9:0-16:30","Wednesday":"9:0-16:30"}}
{"business_id":"G7pNVsUdBn4dXhg3WW-bUQ","name":"Wow! Wing House","address":"16635 Yonge Street, Suite 16","city":"Newmarket","state":"ON","postal_code":"L3X 1V6","latitude":44.033866,"longitude":-79.4731603,"stars":4.5,"review_count":7,"is_open":1,"categories":"Salad, Restaurants, Chicken Wings","hours":{"Friday":"12:0-0:0","Monday":"16:0-22:0","Saturday":"12:0-0:0","Sunday":"16:0-22:0","Thursday":"12:0-0:0","Tuesday":"16:0-22:0","Wednesday":"16:0-22:0"}}
{"business_id":"HU5SksxL_TkGET9R85j6cw","name":"Blooms on 9th","address":"1420 9th Avenue SE","city":"Calgary","state":"AB","postal_code":"T2G 0T5","latitude":51.0398928,"longitude":-114.0301087,"stars":5.0,"review_count":7,"is_open":1,"categories":"Shopping, Flowers & Gifts, Florists","hours":{"Friday":"9:0-17:0","Saturday":"9:0-17:0","Sunday":"11:0-16:0","Thursday":"9:0-17:0","Tuesday":"9:0-17:0","Wednesday":"9:0-17:0"}}
{"business_id":"x0ghbO1UjgSsQPvmCEBrZw","name":"Quince","address":"2110 Yonge Street","city":"Toronto","state":"ON","postal_code":"M4S 2A5","latitude":43.7028181,"longitude":-79.3977074,"stars":3.5,"review_count":33,"is_open":0,"categories":"Restaurants, Mediterranean"}
{"business_id":"bTgVYrO1vJsgJReNubHZ8Q","name":"Safeway","address":"2425 34 Avenue SW","city":"Calgary","state":"AB","postal_code":"T2T 6E3","latitude":51.0228434742,"longitude":-114.1166412939,"stars":2.0,"review_count":8,"is_open":1,"categories":"Grocery, Delis, Food, Florists, Sandwiches, Shopping, Restaurants, Flowers & Gifts"}
{"business_id":"WiVT0TEgComMYKF44GOASA","name":"Lindt Chocolate Shop - Calgary","address":"4th Street SW, Suite 1403","city":"Calgary","state":"AB","postal_code":"T2R 0Y2","latitude":51.039607413,"longitude":-114.0722235459,"stars":5.0,"review_count":16,"is_open":1,"categories":"Food, Chocolatiers & Shops, Specialty Food, Candy Stores","hours":{"Friday":"12:0-17:0","Monday":"12:0-17:0","Saturday":"10:0-18:0","Sunday":"12:0-17:0","Thursday":"9:30-20:0","Tuesday":"9:30-18:0","Wednesday":"9:30-18:0"}}
{"business_id":"cwr3rAT9uMVOU1CXGuOnCw","name":"Great Burger Kitchen","address":"9 Church Street","city":"Toronto","state":"ON","postal_code":"M5E 1M2","latitude":43.6478287,"longitude":-79.3734002,"stars":3.5,"review_count":35,"is_open":0,"categories":"Fast Food, Restaurants, Food, Bars, Burgers, Poutineries, Beer, Wine & Spirits, Nightlife","hours":{"Friday":"11:0-22:0","Monday":"11:0-22:0","Saturday":"11:0-22:0","Thursday":"11:0-22:0","Tuesday":"11:0-22:0","Wednesday":"11:0-22:0"}}
{"business_id":"qwzjHVJ11UGarNwk4Me6og","name":"Tim Hortons","address":"3650 Rutherford Road","city":"Vaughan","state":"ON","postal_code":"L4K 5Y6","latitude":43.8272581,"longitude":-79.552104,"stars":4.0,"review_count":3,"is_open":1,"categories":"Sandwiches, Food, Restaurants, Delis, Donuts, Coffee & Tea"}
{"business_id":"3o73JwZ8UXekr7scp8VeWg","name":"Buffet Casa Corfu","address":"3177 Rue Masson","city":"Montréal","state":"QC","postal_code":"H1Y 1Y2","latitude":45.5500926,"longitude":-73.573907,"stars":2.5,"review_count":24,"is_open":1,"categories":"Greek, Restaurants, Mediterranean, Buffets"}
{"business_id":"GAvEj-UyzAsdH_plkzzBeQ","name":"Elias Naan and Kabob","address":"20 Broadleaf Avenue","city":"Whitby","state":"ON","postal_code":"L1R 0B5","latitude":43.9193966,"longitude":-78.9580348,"stars":3.0,"review_count":17,"is_open":1,"categories":"Halal, Restaurants, Afghan, Kebab","hours":{"Friday":"11:0-23:0","Monday":"11:0-22:0","Saturday":"11:0-23:0","Sunday":"11:0-22:0","Thursday":"11:0-22:0","Tuesday":"11:0-22:0","Wednesday":"11:0-22:0"}}
{"business_id":"aBWyWwkxOgfVbEhz8dIQxw","name":"The Kebab House","address":"2977 Lakeshore Boulevard W","city":"Toronto","state":"ON","postal_code":"M8V 1J8","latitude":43.6003193,"longitude":-79.506907,"stars":2.5,"review_count":11,"is_open":1,"categories":"Restaurants, Middle Eastern, Food","hours":{"Friday":"11:0-21:0","Monday":"11:0-21:0","Saturday":"11:0-21:0","Sunday":"11:0-19:0","Thursday":"11:0-21:0","Tuesday":"11:0-21:0","Wednesday":"11:0-21:0"}}
{"business_id":"Sgkwj5jlFQjpZnb4ASLuxw","name":"Warby Parker","address":"684 Queen Street W","city":"Toronto","state":"ON","postal_code":"M6J 1E5","latitude":43.6466579,"longitude":-79.4075474,"stars":4.5,"review_count":13,"is_open":1,"categories":"Shopping, Health & Medical, Optometrists, Eyewear & Opticians, Sunglasses","hours":{"Friday":"11:0-19:0","Monday":"11:0-19:0","Saturday":"11:0-19:0","Sunday":"11:0-19:0","Thursday":"11:0-19:0","Tuesday":"11:0-19:0","Wednesday":"11:0-19:0"}}
{"business_id":"DEdB-wkPV1QzcSFMTTYl-w","name":"South Sea Chinese Foods","address":"162 Danforth Avenue","city":"Toronto","state":"ON","postal_code":"M4K 1N1","latitude":43.6767155,"longitude":-79.3574237,"stars":3.0,"review_count":3,"is_open":0,"categories":"Chinese, Ethnic Food, Food, Restaurants, Specialty Food","hours":{"Friday":"11:0-1:0","Monday":"11:0-21:0","Saturday":"16:0-1:0","Sunday":"16:0-0:0","Thursday":"11:0-0:0","Tuesday":"11:0-0:0","Wednesday":"11:0-0:0"}}
{"business_id":"Pl3BoXoOw6mQsauGf755xw","name":"Sao Sao","address":"7209 Boulevard Taschereau","city":"Brossard","state":"QC","postal_code":"J4Y 1T1","latitude":45.4611089,"longitude":-73.464396,"stars":3.0,"review_count":12,"is_open":1,"categories":"Vietnamese, Restaurants"}
{"business_id":"bBdCh4KoOb_EAZBvt4J2Ag","name":"Le Ngoc","address":"1975 Beaubien Rue E","city":"Montréal","state":"QC","postal_code":"H2G 1M2","latitude":45.5447056,"longitude":-73.5953826,"stars":3.5,"review_count":3,"is_open":1,"categories":"Restaurants, Vietnamese"}
{"business_id":"qkDyVDlbTbANNK3075QrUA","name":"We Bake in Heels","address":"1 Bass Pro Mills Drive, Vaughan Mills Shopping Centre","city":"Woodbridge","state":"ON","postal_code":"L4L 2V5","latitude":43.7667964,"longitude":-79.5657877,"stars":3.0,"review_count":15,"is_open":0,"categories":"Desserts, Bakeries, Food","hours":{"Friday":"10:0-21:0","Monday":"10:0-21:0","Saturday":"10:0-21:0","Thursday":"10:0-21:0","Tuesday":"10:0-21:0","Wednesday":"10:0-21:0"}}
{"business_id":"adnGiXkl8KUkhwhiGl2kng","name":"Supercuts","address":"258-388 Country Hills Blvd Ne, Northpointe At Country Hills","city":"Calgary","state":"AB","postal_code":"T3K 5J6","latitude":51.154512,"longitude":-114.066906,"stars":3.5,"review_count":3,"is_open":1,"categories":"Hair Salons, Barbers, Cosmetics & Beauty Supply, Beauty & Spas, Hair Stylists, Shopping, Men's Hair Salons","hours":{"Friday":"9:0-20:0","Monday":"9:0-20:0","Saturday":"9:0-17:0","Sunday":"11:0-17:0","Thursday":"9:0-20:0","Tuesday":"9:0-20:0","Wednesday":"9:0-20:0"}}
