{"business_id":"NFfSY_XGa5jQTk19-2l01g","name":"LCBO - St. Lawrence Market","address":"87 Front Street E","city":"Toronto","state":"ON","postal_code":"M5E 1B8","latitude":43.6488004157,"longitude":-79.3723368645,"stars":3.0,"review_count":7,"is_open":1,"categories":"Food, Beer, Wine & Spirits","hours":{"Friday":"10:0-21:0","Monday":"10:0-20:0","Saturday":"9:0-21:0","Sunday":"12:0-17:0","Thursday":"10:0-21:0","Tuesday":"10:0-20:0","Wednesday":"10:0-20:0"}}
{"business_id":"bEz3bz_SejC0GnZ_i8yM0g","name":"Taco Time","address":"4007 MacLeod Trl SW","city":"Calgary","state":"AB","postal_code":"T2G 2R6","latitude":51.0160401,"longitude":-114.0642802,"stars":3.5,"review_count":9,"is_open":0,"categories":"Mexican, Restaurants"}
{"business_id":"9OC_Thx7VC1rdfwXqsYd_w","name":"Auberge Willow Inn","address":"208 Rue Main","city":"Hudson","state":"QC","postal_code":"J0P 1H0","latitude":45.44792,"longitude":-74.108763,"stars":4.0,"review_count":4,"is_open":1,"categories":"Venues & Event Spaces, Hotels, Hotels & Travel, Event Planning & Services, Restaurants, Gastropubs","hours":{"Friday":"17:30-22:0","Saturday":"17:30-22:0","Sunday":"17:30-22:0","Thursday":"17:30-22:0","Wednesday":"17:30-22:0"}}
{"business_id":"kl-ys3nTfSXkbYCHRhfCjA","name":"Pizzaville","address":"5636 Glen Erin Drive","city":"Mississauga","state":"ON","postal_code":"L5M 6B1","latitude":43.5652182,"longitude":-79.7296761,"stars":3.5,"review_count":3,"is_open":1,"categories":"Restaurants, Pizza","hours":{"Friday":"11:0-2:0","Monday":"11:0-23:30","Saturday":"11:0-2:0","Sunday":"11:30-23:30","Thursday":"11:0-1:0","Tuesday":"11:0-23:30","Wednesday":"11:0-23:30"}}
{"business_id":"X209KCF2ex6VvNJcb1rhjQ","name":"Tuyen Restaurant","address":"4860 Yonge Street","city":"North York","state":"ON","postal_code":"M2N 5N2","latitude":43.7628587,"longitude":-79.4115097,"stars":3.5,"review_count":10,"is_open":0,"categories":"Thai, Restaurants"}
{"business_id":"aYthLDprSlCNE4XeUzYdMA","name":"Suede Master","address":"25 Connie Street","city":"North York","state":"ON","postal_code":"M6L 2H8","latitude":43.7219352,"longitude":-79.4724539,"stars":2.5,"review_count":5,"is_open":1,"categories":"Local Services, Dry Cleaning & Laundry, Laundry Services","hours":{"Friday":"8:0-17:0","Monday":"8:0-17:0","Thursday":"8:0-17:0","Tuesday":"8:0-17:0","Wednesday":"8:0-17:0"}}
{"business_id":"e0JaE8S3MdZijvrf_PAYjQ","name":"El Chapo","address":"36 Toronto Street","city":"Toronto","state":"ON","postal_code":"M5C 2C5","latitude":43.6505792,"longitude":-79.3765365,"stars":3.0,"review_count":16,"is_open":1,"categories":"Cafes, Themed Cafes, Tacos, Restaurants, Mexican","hours":{"Friday":"11:0-20:0","Monday":"11:0-20:0","Saturday":"11:0-17:0","Thursday":"11:0-20:0","Tuesday":"11:0-20:0","Wednesday":"11:0-20:0"}}
{"business_id":"NlzmYCW_sU17bXbvoenGVg","name":"Canadian Tire","address":"15400 Bayview Avenue","city":"Aurora","state":"ON","postal_code":"L4G 7J1","latitude":43.9846536269,"longitude":-79.4658319314,"stars":2.5,"review_count":7,"is_open":1,"categories":"Automotive, Tires, Fashion, Shopping, Department Stores","hours":{"Friday":"8:0-21:0","Monday":"8:0-21:0","Saturday":"8:0-19:0","Sunday":"9:0-18:0","Thursday":"8:0-21:0","Tuesday":"8:0-21:0","Wednesday":"8:0-21:0"}}
{"business_id":"W7ssYa7ETsdT8GwqVL3Iyg","name":"Pastamore","address":"3343-M Boulevard des Sources","city":"Dollard-des-Ormeaux","state":"QC","postal_code":"H9B 1Z8","latitude":45.485543,"longitude":-73.796813,"stars":4.0,"review_count":12,"is_open":1,"categories":"Italian, Food, Restaurants, Seafood","hours":{"Friday":"9:0-22:0","Monday":"9:0-21:0","Saturday":"9:0-22:0","Sunday":"9:0-21:0","Thursday":"9:0-21:0","Tuesday":"9:0-21:0","Wednesday":"9:0-21:0"}}
{"business_id":"kPtn989-8fkWLB-5Y-JJPQ","name":"Nigiriya","address":"897 Millwood Road","city":"Toronto","state":"ON","postal_code":"M4G 1X2","latitude":43.7035053,"longitude":-79.3642435,"stars":4.0,"review_count":9,"is_open":1,"categories":"Japanese, Restaurants","hours":{"Friday":"16:30-21:0","Saturday":"16:30-21:0","Sunday":"16:30-21:0","Thursday":"16:30-21:0","Tuesday":"16:30-21:0","Wednesday":"16:30-21:0"}}
{"business_id":"llGUzrlgowoYOIIcpMzFyQ","name":"St Louis Bar & Grill","address":"8290 Highway 27, Unit 1","city":"Vaughan","state":"ON","postal_code":"L4H 0S1","latitude":43.785639,"longitude":-79.6252078,"stars":3.0,"review_count":5,"is_open":1,"categories":"Burgers, Poutineries, American (Traditional), Bars, Beer Bar, Sports Bars, Restaurants, Chicken Wings, Nightlife","hours":{"Friday":"11:30-1:0","Monday":"0:0-0:0","Saturday":"11:30-1:0","Sunday":"11:30-0:0","Thursday":"11:30-1:0","Tuesday":"11:30-1:0","Wednesday":"11:30-1:0"}}
{"business_id":"zMfu7V8pSmRzGPGh08NvDA","name":"Sushi Sama","address":"1889 Rue Beaubien E","city":"Montréal","state":"QC","postal_code":"H2G 1M1","latitude":45.5441322,"longitude":-73.5958954,"stars":4.5,"review_count":19,"is_open":1,"categories":"Japanese, Sushi Bars, Food Delivery Services, Food, Restaurants, Poke","hours":{"Friday":"11:0-21:30","Monday":"11:0-21:30","Saturday":"11:0-21:30","Sunday":"16:0-21:30","Thursday":"11:0-21:30","Tuesday":"11:0-21:30","Wednesday":"11:0-21:30"}}
{"business_id":"7w0UONJh5mRe0cz0ZPotfw","name":"Taste of Korea","address":"4941 Dundas Street W","city":"Etobicoke","state":"ON","postal_code":"M9A 1B6","latitude":43.6479256,"longitude":-79.5292984,"stars":4.5,"review_count":17,"is_open":0,"categories":"Korean, Restaurants","hours":{"Friday":"11:0-21:30","Monday":"11:0-21:30","Saturday":"11:0-21:30","Sunday":"12:30-16:0","Thursday":"11:0-21:30","Tuesday":"11:0-21:30","Wednesday":"11:0-21:30"}}
{"business_id":"8p4RcBhJfoh-z37AqWL8yw","name":"Ming's Wok Xpress","address":"6208 Rundlehorn Drive NE, Suite 6","city":"Calgary","state":"AB","postal_code":"T1Y 2X1","latitude":51.0716071,"longitude":-113.9455121,"stars":3.5,"review_count":3,"is_open":1,"categories":"Chinese, Restaurants","hours":{"Friday":"16:0-22:0","Monday":"16:0-22:0","Saturday":"16:0-22:0","Sunday":"16:0-22:0","Thursday":"16:0-22:0","Tuesday":"16:0-22:0","Wednesday":"16:0-22:0"}}
{"business_id":"97V9-NPOBOpKeneLryVpzw","name":"Salon Dee's Beauty","address":"1014 Rue Jean Talon O","city":"Montréal","state":"QC","postal_code":"H3N 1T1","latitude":45.524392,"longitude":-73.625484,"stars":4.0,"review_count":15,"is_open":1,"categories":"Beauty & Spas, Hair Removal","hours":{"Friday":"10:0-19:0","Saturday":"10:0-19:0","Sunday":"10:0-19:0","Thursday":"10:0-19:0","Tuesday":"10:0-19:0","Wednesday":"10:0-19:0"}}
{"business_id":"9aukJmqOag3ypaWo-ySNLQ","name":"Esso","address":"800 Avenue Lawrence E","city":"North York","state":"ON","postal_code":"M3C 1P4","latitude":43.7351496,"longitude":-79.3556475,"stars":3.0,"review_count":3,"is_open":1,"categories":"Gas Stations, Automotive","hours":{"Friday":"0:0-0:0","Monday":"0:0-0:0","Saturday":"0:0-0:0","Sunday":"0:0-0:0","Thursday":"0:0-0:0","Tuesday":"0:0-0:0","Wednesday":"0:0-0:0"}}
{"business_id":"D6UIhxSGysLlZK8Vc7A9Xw","name":"Streetsville Village Square","address":"213 Queen Street S","city":"Mississauga","state":"ON","postal_code":"L5M 1L6","latitude":43.5810109165,"longitude":-79.7126350924,"stars":4.0,"review_count":3,"is_open":1,"categories":"Event Planning & Services, Venues & Event Spaces"}
{"business_id":"ODqL6ocC_bMqTDDbOJLzFg","name":"Adonis","address":"2001 Rue Sauvé O","city":"Montréal","state":"QC","postal_code":"H4N 3L6","latitude":45.534462,"longitude":-73.6663,"stars":4.0,"review_count":21,"is_open":1,"categories":"Grocery, Food, Bakeries, Specialty Food, Meat Shops, Fruits & Veggies","hours":{"Friday":"8:0-21:0","Monday":"8:0-20:0","Saturday":"8:0-19:0","Sunday":"8:0-19:0","Thursday":"8:0-21:0","Tuesday":"8:0-20:0","Wednesday":"8:0-20:0"}}
{"business_id":"ORnmoF2ZDldrh_70v5-xyQ","name":"Day and Night","address":"163 Sterling Road, Suite 112","city":"Toronto","state":"ON","postal_code":"M6P 0A1","latitude":43.6544623,"longitude":-79.4444077,"stars":5.0,"review_count":3,"is_open":0,"categories":"Hair Salons, Beauty & Spas","hours":{"Friday":"11:0-19:0","Saturday":"9:0-17:0","Thursday":"11:0-19:0","Wednesday":"11:0-19:0"}}
{"business_id":"nv1co1U-lM79PdIt0Qxh3w","name":"Levant Restaurant","address":"3175 Rutherford Road, Unit 37","city":"Concord","state":"ON","postal_code":"L4K 5Y6","latitude":43.829621,"longitude":-79.5386956138,"stars":4.0,"review_count":5,"is_open":0,"categories":"Moroccan, Restaurants, Food, Middle Eastern","hours":{"Friday":"12:0-23:0","Saturday":"12:0-23:0","Sunday":"12:0-22:0","Thursday":"12:0-22:0","Tuesday":"12:0-22:0","Wednesday":"12:0-22:0"}}
{"business_id":"uBpMfwQBFgF1gARse1QVJA","name":"Lg Electronics Canada","address":"160 Traders Boulevard E","city":"Mississauga","state":"ON","postal_code":"L4Z 3K7","latitude":43.6255521,"longitude":-79.6704708,"stars":1.0,"review_count":4,"is_open":1,"categories":"Local Services, Appliances & Repair"}
{"business_id":"95YcwZ3VUCq1twzGa-o2yQ","name":"Biggie Burgers","address":"855 Mulock Drive","city":"Newmarket","state":"ON","postal_code":"L3Y 8H9","latitude":44.0456798368,"longitude":-79.4365955517,"stars":3.5,"review_count":3,"is_open":0,"categories":"Burgers, Restaurants","hours":{"Friday":"11:0-20:30","Monday":"11:0-20:30","Saturday":"11:0-20:30","Thursday":"11:0-20:30","Tuesday":"11:0-20:30","Wednesday":"11:0-20:30"}}
{"business_id":"VC_67dpNS6bDk7qE47Atsg","name":"Drunken Chicken","address":"6070 Yonge Street","city":"Toronto","state":"ON","postal_code":"M2M 3W6","latitude":43.7899687,"longitude":-79.4185424,"stars":4.5,"review_count":16,"is_open":1,"categories":"Korean, Nightlife, Chicken Wings, Pubs, Restaurants, Bars","hours":{"Friday":"16:0-2:0","Monday":"16:0-1:0","Saturday":"16:0-2:0","Sunday":"16:0-1:0","Thursday":"16:0-1:0","Tuesday":"16:0-1:0","Wednesday":"16:0-1:0"}}
{"business_id":"I3UnTBoiU9HjTL6fVnWW1g","name":"Maple Leaf Vapes","address":"3638 Lawrencce Avenue E, Suite 2, 2nd Floor","city":"Toronto","state":"ON","postal_code":"M1G 1P6","latitude":43.7608042,"longitude":-79.2224032,"stars":3.5,"review_count":3,"is_open":0,"categories":"Vape Shops, Shopping","hours":{"Friday":"9:0-21:0","Monday":"9:0-21:0","Saturday":"12:0-19:0","Thursday":"9:0-21:0","Tuesday":"9:0-21:0","Wednesday":"9:0-21:0"}}
{"business_id":"5zjYmX8Cj5wHWGwag7H2hg","name":"Plaza Premium Lounge Toronto","address":"3111 Convair Drive, Terminal 1","city":"Mississauga","state":"ON","postal_code":"L4W 1S9","latitude":43.676806,"longitude":-79.611177,"stars":3.5,"review_count":47,"is_open":1,"categories":"Airport Lounges, Nightlife, Bars, Hotels & Travel","hours":{"Friday":"4:0-21:30","Monday":"4:0-21:30","Saturday":"4:0-21:30","Sunday":"4:0-21:30","Thursday":"4:0-21:30","Tuesday":"4:0-21:30","Wednesday":"4:0-21:30"}}
{"business_id":"rtp-13gU8vs6fTAtqXBlPw","name":"Train 344","address":"283 Chemin de la Grande-Côte","city":"Rosemère","state":"QC","postal_code":"J7A 1J4","latitude":45.633329,"longitude":-73.7948434,"stars":4.5,"review_count":3,"is_open":1,"categories":"Restaurants, Steakhouses, Canadian (New), Italian, Seafood","hours":{"Friday":"11:30-23:0","Monday":"0:0-0:0","Saturday":"17:0-23:0","Thursday":"11:30-22:30","Tuesday":"17:0-22:30","Wednesday":"17:0-22:30"}}
{"business_id":"zKZc8GwCaKbACaV0HZAmpg","name":"Parka Food Co","address":"424 Queen Street W","city":"Toronto","state":"ON","postal_code":"M5V 2A7","latitude":43.6484934,"longitude":-79.3981133,"stars":4.5,"review_count":36,"is_open":1,"categories":"Burgers, Restaurants, Comfort Food, American (Traditional), Vegan","hours":{"Friday":"12:0-19:0","Monday":"0:0-0:0","Saturday":"12:0-0:0","Sunday":"12:0-20:0","Thursday":"11:30-21:0","Tuesday":"12:0-15:30","Wednesday":"11:30-21:0"}}
{"business_id":"MWe2RCV1PuH1qoMAELAqxA","name":"San Francesco Foods - Queen","address":"609 Queen Street W","city":"Toronto","state":"ON","postal_code":"M5V 2B7","latitude":43.6473208,"longitude":-79.4023734,"stars":3.5,"review_count":38,"is_open":0,"categories":"Italian, Restaurants, Sandwiches, Pizza","hours":{"Friday":"11:0-21:0","Monday":"11:0-18:0","Saturday":"10:30-16:0","Sunday":"11:0-19:0","Thursday":"11:0-21:0","Tuesday":"11:0-21:0","Wednesday":"11:0-21:0"}}
{"business_id":"wZHcxfjWW0bPViAh3L3f9g","name":"Labels","address":"31 Tapscott Road","city":"Scarborough","state":"ON","postal_code":"M1B 3G7","latitude":43.8054259,"longitude":-79.2214582,"stars":1.5,"review_count":3,"is_open":1,"categories":"Children's Clothing, Fashion, Shopping, Men's Clothing, Discount Store, Women's Clothing","hours":{"Friday":"10:0-21:0","Monday":"10:0-21:0","Saturday":"9:30-18:0","Sunday":"12:0-17:0","Thursday":"10:0-21:0","Tuesday":"10:0-21:0","Wednesday":"10:0-21:0"}}
{"business_id":"FAWfhHcwPB5O4xfz70EOug","name":"Unimarket","address":"2405 Edmonton Trl","city":"Calgary","state":"AB","postal_code":"T2E 3M7","latitude":51.073503,"longitude":-114.056688,"stars":3.0,"review_count":4,"is_open":1,"categories":"Grocery, Food"}
{"business_id":"MdPJKYFQSxf0wX_hcSfRkw","name":"Thai Curry Box","address":"3 Sidford Road","city":"Brampton","state":"ON","postal_code":"L7A 0P8","latitude":43.6760451,"longitude":-79.823007,"stars":4.0,"review_count":4,"is_open":0,"categories":"Restaurants, Thai"}
{"business_id":"DgQOqU9OOHkb7xzG9Aq0fw","name":"D&D Thai Fusion","address":"670 Highway 7 E, Unit 12","city":"Richmond Hill","state":"ON","postal_code":"L4B 3P2","latitude":43.846568,"longitude":-79.379802,"stars":3.5,"review_count":10,"is_open":1,"categories":"Asian Fusion, Thai, Restaurants, Pan Asian, Chinese","hours":{"Friday":"11:0-20:30","Monday":"11:0-20:30","Saturday":"11:0-20:30","Thursday":"11:0-20:30","Tuesday":"11:0-20:30","Wednesday":"11:0-20:30"}}
{"business_id":"2XgZhlw8vz8gskGILnK8Pg","name":"Jellybeenz Indoor Playground","address":"10 Bramhurst Ave, Unit 13","city":"Brampton","state":"ON","postal_code":"L6T 5A9","latitude":43.720588,"longitude":-79.687007,"stars":5.0,"review_count":3,"is_open":1,"categories":"Active Life, Arts & Entertainment, Event Planning & Services, Indoor Playcentre, Venues & Event Spaces, Party & Event Planning, Amusement Parks, Arcades","hours":{"Friday":"10:0-16:0","Monday":"0:0-0:0","Saturday":"10:0-20:0","Sunday":"10:0-13:0","Thursday":"10:0-16:0","Tuesday":"10:0-14:0","Wednesday":"10:0-14:0"}}
{"business_id":"BRKI2YC2TS3KC0SsEsar7w","name":"Wellington Veterinary Animal Hospital","address":"1210 Castlemore Avenue","city":"Markham","state":"ON","postal_code":"L6E 0H7","latitude":43.9046863827,"longitude":-79.2693281445,"stars":2.5,"review_count":7,"is_open":1,"categories":"Pets, Veterinarians","hours":{"Friday":"8:0-18:0","Monday":"8:0-21:0","Saturday":"9:0-18:0","Sunday":"12:0-18:0","Thursday":"8:0-21:0","Tuesday":"8:0-21:0","Wednesday":"8:0-21:0"}}
{"business_id":"U0Wm6w76PiuCDc21fAP3Vg","name":"Keele Subway Station","address":"21 Keele Street","city":"Toronto","state":"ON","postal_code":"M6P 2J8","latitude":43.6555937,"longitude":-79.4600635,"stars":3.5,"review_count":4,"is_open":1,"categories":"Buses, Public Transportation, Hotels & Travel, Transportation, Train Stations"}
{"business_id":"WcHpR93GRKhyk8IAT1CFWQ","name":"Warren Group Pilates","address":"782 Yonge St","city":"Toronto","state":"ON","postal_code":"M4Y 2B6","latitude":43.669909,"longitude":-79.3867637,"stars":5.0,"review_count":3,"is_open":0,"categories":"Active Life, Pilates, Fitness & Instruction","hours":{"Friday":"19:0-20:0","Wednesday":"20:0-21:0"}}
{"business_id":"41eNUzRUDYUMso38lKELxg","name":"Budget Blinds","address":"","city":"Calgary","state":"AB","postal_code":"T2W 0A1","latitude":50.9630872,"longitude":-114.080604,"stars":3.0,"review_count":3,"is_open":1,"categories":"Shades & Blinds, Shopping, Home Decor, Home & Garden, Home Services","hours":{"Friday":"9:0-17:0","Monday":"9:0-17:0","Thursday":"9:0-17:0","Tuesday":"9:0-17:0","Wednesday":"9:0-17:0"}}
{"business_id":"nIwtGMkMyx0elLxVFs1D6A","name":"Aztec's Mine","address":"1986 Bloor Street W","city":"Toronto","state":"ON","postal_code":"M6P 3K9","latitude":43.65302,"longitude":-79.4684988,"stars":4.0,"review_count":72,"is_open":1,"categories":"Restaurants, Mexican","hours":{"Friday":"11:0-22:0","Saturday":"11:0-22:0","Sunday":"11:0-20:0","Thursday":"11:0-22:0","Tuesday":"11:0-22:0","Wednesday":"11:0-22:0"}}
{"business_id":"YBWG4INShu3tvinpD2fPOQ","name":"Sa-Fran Bistro & Sushi Bar","address":"3979 Rue Saint-Denis","city":"Montréal","state":"QC","postal_code":"H2W 2M4","latitude":45.5206537,"longitude":-73.5751227,"stars":4.5,"review_count":14,"is_open":0,"categories":"Restaurants, French, Sushi Bars","hours":{"Friday":"11:0-23:0","Saturday":"11:0-23:0","Sunday":"11:0-22:0","Thursday":"11:0-22:0","Wednesday":"11:0-22:0"}}
{"business_id":"59h1h90LO3kwe1O9RLR-4Q","name":"KA Car Care","address":"37 Yorkville Avenue, Level B2","city":"Toronto","state":"ON","postal_code":"M4W 1J5","latitude":43.6713102381,"longitude":-79.3889564138,"stars":3.5,"review_count":12,"is_open":1,"categories":"Automotive, Auto Detailing, Car Wash","hours":{"Friday":"12:0-17:0","Monday":"11:0-16:0","Saturday":"8:0-17:0","Sunday":"11:0-17:0","Thursday":"7:30-17:0","Tuesday":"7:30-17:0","Wednesday":"7:30-17:0"}}
{"business_id":"AYkSrCqXnPmiTaRW1ieW9w","name":"Ontario Consumers Home Services","address":"2525 Sheppard Avenue E","city":"Toronto","state":"ON","postal_code":"M9M 0B5","latitude":43.7555135633,"longitude":-79.4385162387,"stars":1.0,"review_count":3,"is_open":1,"categories":"Handyman, Home Services, Heating & Air Conditioning/HVAC, Contractors","hours":{"Friday":"8:0-20:0","Monday":"8:0-20:0","Saturday":"14:0-18:0","Sunday":"14:0-18:0","Thursday":"8:0-20:0","Tuesday":"8:0-20:0","Wednesday":"8:0-20:0"}}
{"business_id":"7hKgs4nKhDxqy6yLfL_j2A","name":"Starling Automotive","address":"15 Carlyle Street","city":"Toronto","state":"ON","postal_code":"M5T 2R3","latitude":43.6523901,"longitude":-79.4044911,"stars":5.0,"review_count":7,"is_open":1,"categories":"Auto Repair, Automotive"}
{"business_id":"fSdtFdU8efDI_MXTPmtYjw","name":"Pathways To Perennials","address":"4681 Lloydtown Aurora Road","city":"King","state":"ON","postal_code":"L7B 0E3","latitude":43.9928809,"longitude":-79.6295801,"stars":3.5,"review_count":3,"is_open":1,"categories":"Nurseries & Gardening, Home & Garden, Event Planning & Services, Home Services, Landscape Architects, Restaurants, Venues & Event Spaces, Shopping, Landscaping, Cafes","hours":{"Friday":"10:0-18:0","Saturday":"10:0-18:0","Thursday":"10:0-18:0","Tuesday":"10:0-18:0","Wednesday":"10:0-18:0"}}
{"business_id":"U3gBH2iJxlajlMSOP9UtNw","name":"Nguyên Huong","address":"1625 Wilson Avenue","city":"Toronto","state":"ON","postal_code":"M3L 1A5","latitude":43.7198931118,"longitude":-79.5122339644,"stars":4.5,"review_count":9,"is_open":1,"categories":"Food, Imported Food, Restaurants, Delicatessen, Sandwiches, Specialty Food, Ethnic Food, Vietnamese"}
{"business_id":"fhsWXyDPRd3gWt1aBM7Zkg","name":"Purr","address":"940 17 Ave SW","city":"Calgary","state":"AB","postal_code":"T2T 0A2","latitude":51.0380034481,"longitude":-114.0839891813,"stars":3.5,"review_count":11,"is_open":1,"categories":"Fashion, Shoe Stores, Accessories, Shopping","hours":{"Friday":"11:0-19:0","Monday":"11:0-18:0","Saturday":"11:0-18:0","Sunday":"12:0-17:0","Thursday":"11:0-19:0","Tuesday":"11:0-18:0","Wednesday":"11:0-18:0"}}
{"business_id":"N2SSurwdRZwQrOgk9OpdLw","name":"Sobeys","address":"2000-150 Millrise Boulevard SW","city":"Calgary","state":"AB","postal_code":"T2Y 5G7","latitude":50.9153127,"longitude":-114.0721812,"stars":4.5,"review_count":3,"is_open":1,"categories":"Food, Grocery","hours":{"Friday":"7:0-23:0","Monday":"7:0-23:0","Saturday":"7:0-23:0","Sunday":"7:0-23:0","Thursday":"7:0-23:0","Tuesday":"7:0-23:0","Wednesday":"7:0-23:0"}}
{"business_id":"8K8hWmeDDAy0wpyqxJxPag","name":"Midas","address":"880 Burnhamthorpe Road West","city":"Mississauga","state":"ON","postal_code":"L5C 2S3","latitude":43.5748437264,"longitude":-79.6560762693,"stars":1.0,"review_count":4,"is_open":1,"categories":"Auto Repair, Oil Change Stations, Tires, Automotive","hours":{"Friday":"8:0-18:0","Monday":"8:0-19:0","Saturday":"8:0-16:0","Thursday":"8:0-19:0","Tuesday":"8:0-18:0","Wednesday":"8:0-18:0"}}
{"business_id":"h8OBJswerV3yYdI5KwcD0A","name":"Les Jardins Sauvages","address":"17 Chemin Martin","city":"Saint-Roch-de-l'Achigan","state":"QC","postal_code":"J0K 3H0","latitude":45.8781265,"longitude":-73.5445381,"stars":4.5,"review_count":3,"is_open":1,"categories":"American (New), Restaurants, Canadian (New)"}
{"business_id":"QkaMek-K9Fdke693glOzlw","name":"Wendy's","address":"1 Queensgate Boulevard","city":"Bolton","state":"ON","postal_code":"L7E 2X7","latitude":43.8691132,"longitude":-79.7227433,"stars":3.0,"review_count":4,"is_open":1,"categories":"Burgers, Restaurants, Fast Food"}
{"business_id":"_kgk_9chyFpTWbSbPoY8YA","name":"Ahzimae Zipbap","address":"6068 Yonge Street","city":"Toronto","state":"ON","postal_code":"M2M 3W6","latitude":43.7904543,"longitude":-79.4186923,"stars":4.0,"review_count":12,"is_open":1,"categories":"Korean, Restaurants","hours":{"Friday":"11:0-0:0","Monday":"11:0-0:0","Saturday":"11:0-0:0","Sunday":"11:0-22:0","Thursday":"11:0-0:0","Tuesday":"11:0-0:0","Wednesday":"11:0-0:0"}}
{"business_id":"FocMtdk-Ap09cdQv9yUcqw","name":"Stampede Car Wash","address":"9650 Harvest Hills Boulevard NE","city":"Calgary","state":"AB","postal_code":"T3K 0B3","latitude":51.1407733,"longitude":-114.0682606,"stars":3.5,"review_count":3,"is_open":1,"categories":"Automotive, Auto Detailing, Car Wash","hours":{"Friday":"6:0-22:0","Monday":"6:0-22:0","Saturday":"6:0-22:0","Sunday":"6:0-22:0","Thursday":"6:0-22:0","Tuesday":"6:0-22:0","Wednesday":"6:0-22:0"}}
{"business_id":"eS3qUIQOUjO4shASX2hGHA","name":"Raj Palace - Midlake Plaza","address":"15425 Bannister Road SE,, Unit 1","city":"Calgary","state":"AB","postal_code":"T2X 3E9","latitude":50.9148736,"longitude":-114.0669643,"stars":4.5,"review_count":34,"is_open":1,"categories":"Restaurants, Gluten-Free, Kebab, Indian, Sri Lankan","hours":{"Friday":"11:0-22:0","Monday":"11:0-21:30","Saturday":"11:0-22:0","Sunday":"10:45-22:0","Thursday":"11:0-21:30","Tuesday":"11:0-21:30","Wednesday":"11:0-21:30"}}
{"business_id":"Jhz_aUT4i84Wt8KAZVGXVA","name":"Casa de Mateo","address":"438 Rue Saint-Francois-Xavier","city":"Montréal","state":"QC","postal_code":"H2Y 2T3","latitude":45.503289,"longitude":-73.5562895,"stars":3.0,"review_count":20,"is_open":0,"categories":"Restaurants, Mexican","hours":{"Friday":"11:0-23:0","Monday":"15:0-23:0","Saturday":"11:0-23:0","Sunday":"11:0-23:0","Thursday":"11:0-23:0","Tuesday":"16:0-23:0","Wednesday":"11:0-23:0"}}
{"business_id":"D87tFO-R6U8f4-e0r4Zq_g","name":"Yorkville Crepes","address":"18 Yorkville Avenue, Unit 1","city":"Toronto","state":"ON","postal_code":"M4W 3Y8","latitude":43.6721931,"longitude":-79.3878664,"stars":3.5,"review_count":160,"is_open":1,"categories":"Creperies, Cafes, French, Restaurants, Desserts, Food","hours":{"Friday":"10:0-18:0","Monday":"10:0-18:0","Saturday":"10:0-18:0","Sunday":"10:0-18:0","Thursday":"10:0-18:0","Tuesday":"10:0-18:0","Wednesday":"10:0-19:30"}}
{"business_id":"QHdOjx9arMtCVY4zoV1oVg","name":"Zigarren","address":"6-7112 Macleod Trail SE","city":"Calgary","state":"AB","postal_code":"T2H 0L3","latitude":50.9900909,"longitude":-114.0705957,"stars":4.5,"review_count":13,"is_open":1,"categories":"Tobacco Shops, Shopping","hours":{"Friday":"9:30-20:0","Monday":"9:30-20:0","Saturday":"9:30-19:0","Sunday":"11:0-17:0","Thursday":"9:30-20:0","Tuesday":"9:30-20:0","Wednesday":"9:30-20:0"}}
{"business_id":"L59nO3aUpawXNfkPeawg1g","name":"Professional Shoe & Leather Care","address":"372 Highway 7, Unit 109B","city":"Richmond Hill","state":"ON","postal_code":"L4B 0C6","latitude":43.8420093835,"longitude":-79.3944165638,"stars":5.0,"review_count":14,"is_open":1,"categories":"Sewing & Alterations, Local Services, Leather Goods, Shoe Stores, Shoe Repair, Shopping, Shoe Shine, Knife Sharpening, Fashion, Home Services, Keys & Locksmiths","hours":{"Friday":"8:30-19:30","Monday":"8:30-19:30","Saturday":"8:30-19:0","Sunday":"12:30-16:30","Thursday":"8:30-19:30","Tuesday":"8:30-19:30","Wednesday":"8:30-19:30"}}
{"business_id":"jztJ83rtqanw_ss29oY_sQ","name":"Teriyaki Experience","address":"90 Edgeley Boulevard","city":"Vaughan","state":"ON","postal_code":"L4K 5W7","latitude":43.7966646,"longitude":-79.5330762,"stars":2.5,"review_count":6,"is_open":1,"categories":"Japanese, Restaurants"}
{"business_id":"h-4BCEM4U0SM77G6DnAxJA","name":"Marky & Sparky's Smokehouse","address":"520 Annette Street","city":"Toronto","state":"ON","postal_code":"M6P 1S3","latitude":43.660199,"longitude":-79.4797899,"stars":3.5,"review_count":29,"is_open":0,"categories":"Barbeque, Restaurants","hours":{"Friday":"12:0-21:0","Saturday":"12:0-21:0","Sunday":"16:0-21:0","Thursday":"12:0-21:0","Tuesday":"12:0-21:0","Wednesday":"12:0-21:0"}}
{"business_id":"B2uv_PI7yHj__C20rXpVIQ","name":"Golden Star","address":"6620 Finch Ave W, Unit 2","city":"Toronto","state":"ON","postal_code":"M9V 5H7","latitude":43.7348874,"longitude":-79.6022411,"stars":4.0,"review_count":4,"is_open":1,"categories":"Hakka, Chinese, Restaurants, Caribbean","hours":{"Friday":"11:30-2:0","Monday":"11:30-23:0","Saturday":"11:30-2:0","Sunday":"12:0-2:0","Thursday":"11:30-23:0","Tuesday":"11:30-23:0","Wednesday":"11:30-23:0"}}
{"business_id":"zXAH-mQyIj9ErATOQwcaIQ","name":"Sephora","address":"77 Bloor Street W","city":"Toronto","state":"ON","postal_code":"M5S 2B4","latitude":43.6695374808,"longitude":-79.3896646053,"stars":4.0,"review_count":37,"is_open":1,"categories":"Beauty & Spas, Shopping, Makeup Artists, Cosmetics & Beauty Supply","hours":{"Friday":"10:0-20:0","Monday":"10:0-20:0","Saturday":"10:0-19:0","Sunday":"12:0-18:0","Thursday":"10:0-20:0","Tuesday":"10:0-20:0","Wednesday":"10:0-20:0"}}
{"business_id":"n3sGL6_mJZQy-cdjx1-Bgw","name":"Las Fronteras Restaurant","address":"2300 Finch Avenue W","city":"North York","state":"ON","postal_code":"M9M 2Y3","latitude":43.7531004,"longitude":-79.542035,"stars":1.5,"review_count":3,"is_open":1,"categories":"Latin American, Restaurants"}
{"business_id":"oR0a8o24L237PWYCRAF4cQ","name":"Restaurant L'espiegle","address":"1834 Rue Des Cascades","city":"Saint-Hyacinthe","state":"QC","postal_code":"J2S 3J3","latitude":45.6235241,"longitude":-72.9475161,"stars":4.0,"review_count":6,"is_open":1,"categories":"French, Restaurants","hours":{"Friday":"11:0-22:0","Monday":"11:0-21:0","Saturday":"11:0-22:0","Sunday":"11:0-21:0","Thursday":"11:0-22:0","Tuesday":"11:0-21:0","Wednesday":"11:0-21:0"}}
{"business_id":"6Jzej28nC91nk9gxigljLQ","name":"Mr. Stucco","address":"2009 Lawrence Avenue W, Unit 5","city":"Toronto","state":"ON","postal_code":"M9N 3V2","latitude":43.7008129,"longitude":-79.511854,"stars":4.5,"review_count":3,"is_open":1,"categories":"Stucco Services, Contractors, Local Services, Home Services","hours":{"Friday":"9:0-17:0","Monday":"9:0-17:0","Saturday":"9:0-17:0","Sunday":"9:0-17:0","Thursday":"9:0-17:0","Tuesday":"9:0-17:0","Wednesday":"9:0-17:0"}}
{"business_id":"r0tkO_ekXqzy5SPwGVJ7mQ","name":"Fox & Fiddle-Finch","address":"1285 Finch Avenue W","city":"North York","state":"ON","postal_code":"M3J 2G5","latitude":43.7636959,"longitude":-79.4885361,"stars":3.5,"review_count":29,"is_open":1,"categories":"Pubs, Burgers, Nightlife, Bars, Restaurants","hours":{"Friday":"11:0-2:0","Monday":"11:0-2:0","Saturday":"11:0-2:0","Sunday":"11:0-2:0","Thursday":"11:0-2:0","Tuesday":"11:0-2:0","Wednesday":"11:0-2:0"}}
{"business_id":"oN1OJKwW4EX2frr9I03WCw","name":"El Gitano","address":"3507Avenue  du Parc","city":"Montréal","state":"QC","postal_code":"H2X 2H8","latitude":45.5096299,"longitude":-73.5739223,"stars":3.5,"review_count":16,"is_open":0,"categories":"Basque, Restaurants, Portuguese, Spanish","hours":{"Friday":"12:0-22:30","Monday":"12:0-22:0","Saturday":"17:0-22:30","Thursday":"12:0-22:0","Tuesday":"12:0-22:0","Wednesday":"12:0-22:0"}}
{"business_id":"6WCV0C4TxKk1kwuwDOtIng","name":"Mr Lube","address":"70 Grand Marshall Drive","city":"Toronto","state":"ON","postal_code":"M1B 5N7","latitude":43.8026811156,"longitude":-79.1949594093,"stars":2.0,"review_count":3,"is_open":1,"categories":"Automotive, Auto Glass Services, Oil Change Stations, Auto Repair","hours":{"Friday":"8:0-20:0","Monday":"8:0-20:0","Saturday":"8:0-18:0","Sunday":"9:0-17:0","Thursday":"8:0-20:0","Tuesday":"8:0-20:0","Wednesday":"8:0-20:0"}}
{"business_id":"mXCHOyOKJsEXsDXj18MJtg","name":"Miss Choco","address":"Mont-Royal E","city":"Montréal","state":"QC","postal_code":"H2J 2N5","latitude":45.5283773,"longitude":-73.5788892,"stars":5.0,"review_count":20,"is_open":0,"categories":"Desserts, Food, Chocolatiers & Shops, Specialty Food"}
{"business_id":"KMoGrkbhRsy1jYlwiZx7kQ","name":"Better and Better Bakery and Cafe","address":"586 Bloor Street W","city":"Toronto","state":"ON","postal_code":"M6G 1K4","latitude":43.6648309,"longitude":-79.4126283,"stars":4.0,"review_count":8,"is_open":0,"categories":"Coffee & Tea, Food"}
{"business_id":"S0TaUFOPrmDPjU0zgluOlQ","name":"Vivid Nails on Bloor","address":"3349 Bloor Street W","city":"Toronto","state":"ON","postal_code":"M8X 1E9","latitude":43.6447656,"longitude":-79.5219217,"stars":4.5,"review_count":6,"is_open":0,"categories":"Beauty & Spas, Nail Salons, Day Spas","hours":{"Friday":"10:0-19:0","Monday":"10:0-19:0","Saturday":"10:0-19:0","Sunday":"11:0-16:0","Thursday":"10:0-19:0","Tuesday":"10:0-19:0","Wednesday":"10:0-19:0"}}
{"business_id":"c96vs0P8dhj507NWT-dLYA","name":"Canadas Best Value Inn-Calgary Chinook Station","address":"5307 Macleod Trail SW","city":"Calgary","state":"AB","postal_code":"T2H 0J3","latitude":51.0066234,"longitude":-114.0698625,"stars":1.0,"review_count":5,"is_open":1,"categories":"Hotels & Travel, Event Planning & Services, Hotels","hours":{"Friday":"0:0-0:0","Monday":"0:0-0:0","Saturday":"0:0-0:0","Sunday":"0:0-0:0","Thursday":"0:0-0:0","Tuesday":"0:0-0:0","Wednesday":"0:0-0:0"}}
{"business_id":"hclsSmP0NoQSBVKuEXSCNg","name":"SickKids","address":"555 University Avenue","city":"Toronto","state":"ON","postal_code":"M5G 1X8","latitude":43.6570696352,"longitude":-79.3873143188,"stars":4.5,"review_count":10,"is_open":1,"categories":"Doctors, Hospitals, Pediatricians, Health & Medical, Medical Centers","hours":{"Friday":"0:0-0:0","Monday":"0:0-0:0","Saturday":"0:0-0:0","Sunday":"0:0-0:0","Thursday":"0:0-0:0","Tuesday":"0:0-0:0","Wednesday":"0:0-0:0"}}
{"business_id":"73dYY0DY0_4WV7O-5P6wOw","name":"Pace Pharmacy","address":"14 Isabella Street","city":"Toronto","state":"ON","postal_code":"M4Y 1N1","latitude":43.667813388,"longitude":-79.3850284955,"stars":4.5,"review_count":12,"is_open":1,"categories":"Health & Medical, Drugstores, Pharmacy, Shopping","hours":{"Friday":"9:0-18:0","Monday":"9:0-18:0","Saturday":"10:0-17:0","Thursday":"9:0-18:0","Tuesday":"9:0-18:0","Wednesday":"9:0-18:0"}}
{"business_id":"8ROhtPKm-KxsgHII2JAoNA","name":"Sushi And Rolls","address":"Unit 105 Bayly Street W","city":"Ajax","state":"ON","postal_code":"L1S 7K8","latitude":43.8417620794,"longitude":-79.0238448489,"stars":2.5,"review_count":15,"is_open":1,"categories":"Sushi Bars, Restaurants, Japanese"}
{"business_id":"RL6cDHhdiNHXQSQBOnGWLg","name":"Global Pet Foods","address":"5990 16th Avenue, Suite 208","city":"Markham","state":"ON","postal_code":"L3P 7R2","latitude":43.8920358,"longitude":-79.26543,"stars":4.0,"review_count":8,"is_open":1,"categories":"Pets, Pet Stores","hours":{"Friday":"9:0-21:0","Monday":"9:0-21:0","Saturday":"9:0-18:0","Sunday":"10:0-17:0","Thursday":"9:0-21:0","Tuesday":"9:0-21:0","Wednesday":"9:0-21:0"}}
{"business_id":"ZnSh1g3lTVbAvAAbR7IljA","name":"Moon Moo Life","address":"688 Denison Street","city":"Markham","state":"ON","postal_code":"L3R 1C1","latitude":43.8246451,"longitude":-79.3388195,"stars":4.0,"review_count":6,"is_open":0,"categories":"Yoga, Art Classes, Summer Camps, Dance Studios, Dance Schools, Active Life, Martial Arts, Fitness & Instruction, Art Schools, Specialty Schools, Education","hours":{"Friday":"13:0-20:0","Monday":"13:0-20:0","Saturday":"12:0-17:0","Sunday":"10:0-17:0","Thursday":"13:0-20:0","Tuesday":"13:0-20:0","Wednesday":"13:0-20:0"}}
{"business_id":"Dkl9SNBwzxVnQcS3XmotHg","name":"Nickel's Deli and Bar","address":"6955 Rue Saint-hubert","city":"Montréal","state":"QC","postal_code":"H2S 3R6","latitude":45.5395329,"longitude":-73.6100815,"stars":3.0,"review_count":12,"is_open":1,"categories":"Delis, Food, American (Traditional), Restaurants"}
{"business_id":"5Frm9ztGntReMKmG6UZJtQ","name":"Mr. Lube","address":"1725 - 32nd Avenue NE, #143","city":"Calgary","state":"AB","postal_code":"T2E 7C8","latitude":51.0804793,"longitude":-114.0173933,"stars":2.5,"review_count":4,"is_open":1,"categories":"Auto Repair, Tires, Oil Change Stations, Automotive, Auto Glass Services","hours":{"Friday":"8:0-18:0","Monday":"8:0-18:0","Saturday":"8:0-17:0","Thursday":"8:0-18:0","Tuesday":"8:0-18:0","Wednesday":"8:0-18:0"}}
{"business_id":"uHbuPcVayLnu5Dh4-HHT3g","name":"Hard Knox","address":"3645 Rue Notre-Dame O","city":"Montréal","state":"QC","postal_code":"H4C 1P6","latitude":45.4795894,"longitude":-73.5813999,"stars":5.0,"review_count":4,"is_open":1,"categories":"Sports Clubs, Fitness & Instruction, Boxing, Trainers, Active Life, Gyms","hours":{"Friday":"9:0-21:0","Monday":"9:0-21:0","Saturday":"9:0-21:0","Thursday":"9:0-21:0","Tuesday":"9:0-21:0","Wednesday":"9:0-21:0"}}
{"business_id":"GHB9hgrZDWfyeXQDUrATdA","name":"Quality Suites Toronto Airport","address":"262 Carlingview Drive","city":"Etobicoke","state":"ON","postal_code":"M9W 5G1","latitude":43.6877301,"longitude":-79.5963803,"stars":2.5,"review_count":24,"is_open":0,"categories":"Event Planning & Services, Hotels, Hotels & Travel","hours":{"Friday":"9:0-9:0","Monday":"9:0-9:0","Saturday":"9:0-9:0","Sunday":"9:0-9:0","Thursday":"9:0-9:0","Tuesday":"9:0-9:0","Wednesday":"9:0-9:0"}}
{"business_id":"e6g-8RB8DcxUSZaPX6J2Vg","name":"Taco Bell","address":"230 Queen Street E","city":"Brampton","state":"ON","postal_code":"L6V 1B8","latitude":43.69552,"longitude":-79.750311,"stars":1.5,"review_count":3,"is_open":0,"categories":"Restaurants, Fast Food, Mexican","hours":{"Friday":"9:0-0:0","Monday":"9:0-0:0","Saturday":"9:0-0:0","Sunday":"9:0-0:0","Thursday":"9:0-0:0","Tuesday":"9:0-0:0","Wednesday":"9:0-0:0"}}
{"business_id":"LHLueJBiFkQhbKzdsLh0Hw","name":"Rôtisserie Kiri-Piri","address":"4495 Boulevard Saint-Laurent","city":"Montréal","state":"QC","postal_code":"H2T 1R4","latitude":45.5201491517,"longitude":-73.5861530313,"stars":3.0,"review_count":8,"is_open":0,"categories":"Portuguese, Barbeque, Restaurants","hours":{"Friday":"10:0-22:0","Monday":"10:0-22:0","Saturday":"10:0-22:0","Sunday":"10:0-22:0","Thursday":"10:0-22:0","Tuesday":"10:0-22:0","Wednesday":"10:0-22:0"}}
{"business_id":"vjlWTAOCfE0akCCeG_tVVQ","name":"Extreme Pita","address":"3120 Rutherford Road","city":"Vaughan","state":"ON","postal_code":"L6A 3W7","latitude":43.8315110897,"longitude":-79.5349806547,"stars":1.5,"review_count":3,"is_open":1,"categories":"Sandwiches, Restaurants"}
{"business_id":"FyIWjM-tVX682ENJLagbdQ","name":"Restaurant Zone D'asie","address":"2106 Rue Jean-Talon E","city":"Montréal","state":"QC","postal_code":"H2E 1V3","latitude":45.5503432,"longitude":-73.6047153,"stars":4.0,"review_count":9,"is_open":1,"categories":"Restaurants, Vietnamese"}
{"business_id":"doj3kl6iJTrKJqEFp4nYZg","name":"Toshi Japanese Restaurant","address":"10 Gillingham Dr","city":"Brampton","state":"ON","postal_code":"L6X 5A5","latitude":43.703302782,"longitude":-79.78456823,"stars":4.0,"review_count":85,"is_open":1,"categories":"Sushi Bars, Restaurants, Japanese","hours":{"Friday":"17:0-22:30","Monday":"17:0-21:30","Saturday":"17:0-22:30","Thursday":"17:0-21:30","Tuesday":"17:0-21:30","Wednesday":"17:0-21:30"}}
{"business_id":"Ahquy7Ga9YAFA2JF5vpD3w","name":"Baga Car and Truck Rentals","address":"374 Dupont Street","city":"Toronto","state":"ON","postal_code":"M5R 1V9","latitude":43.6742197,"longitude":-79.4105377,"stars":1.0,"review_count":3,"is_open":1,"categories":"Automotive, Truck Rental, Hotels & Travel, Car Rental","hours":{"Friday":"9:0-18:0","Monday":"9:0-18:0","Saturday":"9:0-16:0","Thursday":"9:0-18:0","Tuesday":"9:0-18:0","Wednesday":"9:0-18:0"}}
{"business_id":"0DIt3Q2UzWXfMSfPwva1ww","name":"Ranchman's Cookhouse & Dancehall","address":"9615 Macleod Trail SW","city":"Calgary","state":"AB","postal_code":"T2J 0P6","latitude":50.9697307,"longitude":-114.0727229,"stars":3.0,"review_count":16,"is_open":1,"categories":"Nightlife, Bars, Caterers, Music Venues, Pubs, Event Planning & Services, Steakhouses, Restaurants, Arts & Entertainment","hours":{"Friday":"16:0-2:0","Saturday":"16:0-2:0","Thursday":"16:0-2:0","Tuesday":"16:0-2:0","Wednesday":"16:0-2:0"}}
{"business_id":"xrA53WYhRCml2bMfpQ_Hig","name":"La Palma","address":"849 Dundas Street W","city":"Toronto","state":"ON","postal_code":"M6J 1V6","latitude":43.6512918,"longitude":-79.4101199,"stars":3.5,"review_count":122,"is_open":1,"categories":"Italian, Restaurants","hours":{"Friday":"11:30-23:0","Monday":"11:30-23:0","Saturday":"9:0-23:0","Sunday":"9:0-23:0","Thursday":"11:30-23:0","Tuesday":"11:30-23:0","Wednesday":"11:30-23:0"}}
{"business_id":"oEnPGp5vUkULFUygUxTGJA","name":"Kids U - McKnight","address":"5220 4 Street NE","city":"Calgary","state":"AB","postal_code":"T2K 6J5","latitude":51.0975772,"longitude":-114.0539014,"stars":1.5,"review_count":3,"is_open":1,"categories":"Preschools, Child Care & Day Care, Elementary Schools, Education, Local Services","hours":{"Friday":"7:0-17:30","Monday":"7:0-17:30","Thursday":"7:0-17:30","Tuesday":"7:0-17:30","Wednesday":"7:0-17:30"}}
{"business_id":"6JiZ1R0pQUbtfFpBkOCx-g","name":"Salon Bespoke","address":"130 Cumberland Street, 2nd Floor","city":"Toronto","state":"ON","postal_code":"M5R 1A6","latitude":43.6702822,"longitude":-79.3923026,"stars":5.0,"review_count":5,"is_open":1,"categories":"Hair Salons, Skin Care, Beauty & Spas","hours":{"Friday":"10:0-20:0","Saturday":"9:0-18:0","Thursday":"10:0-20:0","Tuesday":"10:0-20:0","Wednesday":"10:0-20:0"}}
{"business_id":"nIVaBqL3-BgSkop8Fpp42Q","name":"La Casa Latina Restaurant","address":"3503 17 Avenue SE","city":"Calgary","state":"AB","postal_code":"T2A 0R5","latitude":51.0377607,"longitude":-113.9842465,"stars":3.5,"review_count":7,"is_open":0,"categories":"Latin American, Restaurants"}
{"business_id":"gju80t2hbwvCx6-JExZF3g","name":"Sfizio Pizzeria & Wine Bar","address":"401 Bloor Street E","city":"Toronto","state":"ON","postal_code":"M4W 1H7","latitude":43.6721292,"longitude":-79.3774052,"stars":4.0,"review_count":35,"is_open":0,"categories":"Pizza, Nightlife, Bars, Wine Bars, Restaurants, Italian","hours":{"Monday":"11:0-22:0","Saturday":"14:0-23:0","Thursday":"11:0-22:0","Tuesday":"11:0-22:0","Wednesday":"11:0-22:0"}}
{"business_id":"K4UwwxYCAh23TDKhtrVRHA","name":"El Tio Luis","address":"93 Rue du Marché","city":"Salaberry-de-Valleyfield","state":"QC","postal_code":"J6T 1P6","latitude":45.2536156633,"longitude":-74.1354642436,"stars":5.0,"review_count":6,"is_open":1,"categories":"Restaurants, Mexican","hours":{"Friday":"11:0-21:0","Saturday":"17:0-21:0","Thursday":"11:0-21:0","Wednesday":"11:0-20:0"}}
{"business_id":"YfeTH4jtz_gpWz0QRYJFnQ","name":"Sugar Marmalade","address":"3255 Highway 7, Unit 19-20","city":"Markham","state":"ON","postal_code":"L3R 3P9","latitude":43.848596,"longitude":-79.348161,"stars":3.5,"review_count":127,"is_open":1,"categories":"Chinese, Taiwanese, Food, Desserts, Restaurants","hours":{"Friday":"12:0-2:0","Monday":"12:0-1:0","Saturday":"12:0-2:0","Sunday":"12:0-1:0","Thursday":"12:0-1:0","Tuesday":"12:0-1:0","Wednesday":"12:0-1:0"}}
{"business_id":"X4afViYlMbvxpyzhgPXEyw","name":"Herbivores","address":"3842 Rue Saint-Denis","city":"Montréal","state":"QC","postal_code":"H2W 2M2","latitude":45.519437,"longitude":-73.5735005,"stars":4.0,"review_count":12,"is_open":1,"categories":"Food, Specialty Food, Health Markets, Grocery","hours":{"Friday":"12:0-21:0","Monday":"12:0-21:0","Saturday":"12:0-21:0","Sunday":"12:0-21:0","Thursday":"12:0-21:0","Tuesday":"12:0-21:0","Wednesday":"12:0-21:0"}}
{"business_id":"7FOiVlIuzme6yOl0uDb47A","name":"Lowe's","address":"3003 Danforth Avenue","city":"Toronto","state":"ON","postal_code":"M4C 1N1","latitude":43.6897355849,"longitude":-79.2925024062,"stars":2.0,"review_count":5,"is_open":1,"categories":"Home & Garden, Shopping, Hardware Stores, Furniture Stores, Home Decor","hours":{"Friday":"6:0-22:0","Monday":"6:0-22:0","Saturday":"7:0-21:0","Sunday":"8:0-20:0","Thursday":"6:0-22:0","Tuesday":"6:0-22:0","Wednesday":"6:0-22:0"}}
{"business_id":"8Moo70rNhVb8Ji9PQNS3iw","name":"Sushi Sushi","address":"9830 Markham Road, Unit R-03","city":"Markham","state":"ON","postal_code":"L6E 0H7","latitude":43.9050284041,"longitude":-79.2678125489,"stars":2.5,"review_count":30,"is_open":1,"categories":"Restaurants, Sushi Bars","hours":{"Friday":"11:0-22:0","Monday":"11:0-22:0","Saturday":"11:0-22:0","Sunday":"11:0-22:0","Thursday":"11:0-22:0","Tuesday":"11:0-22:0","Wednesday":"11:0-22:0"}}
{"business_id":"gbGjSfc9ZuRYl7Scg1p75w","name":"Candyland Indoor Play Centre","address":"311 Cityview Boulevard, Suite 3","city":"Vaughan","state":"ON","postal_code":"L4H 3S7","latitude":43.8541697933,"longitude":-79.5525842158,"stars":3.5,"review_count":11,"is_open":1,"categories":"Playgrounds, Active Life","hours":{"Friday":"10:0-20:0","Monday":"10:0-20:0","Saturday":"9:30-20:0","Sunday":"9:30-20:0","Thursday":"10:0-20:0","Tuesday":"10:0-20:0","Wednesday":"10:0-20:0"}}
{"business_id":"__knKZ9CUX3L9JBPVwAXEg","name":"Lunch Bag","address":"2601 Matheson Boulevard E","city":"Mississauga","state":"ON","postal_code":"L4W 5A8","latitude":43.6600982,"longitude":-79.6002859,"stars":3.0,"review_count":3,"is_open":1,"categories":"Caterers, Event Planning & Services"}
{"business_id":"BetAakT3gsJg327i6r76rQ","name":"Fiorio Bayview","address":"1541 Bayview Ave","city":"Toronto","state":"ON","postal_code":"M4G 3B5","latitude":43.705084,"longitude":-79.3747108,"stars":4.0,"review_count":5,"is_open":1,"categories":"Hair Salons, Beauty & Spas","hours":{"Friday":"9:0-20:0","Monday":"10:0-19:0","Saturday":"9:0-18:0","Thursday":"9:0-20:0","Tuesday":"9:0-19:0","Wednesday":"9:0-20:0"}}
{"business_id":"nPOOZSOfoCbSs6jQcU0PaA","name":"Les Deux Copains","address":"2201 Rue Fleury E","city":"Montréal","state":"QC","postal_code":"H2B 1K5","latitude":45.5726630824,"longitude":-73.6500528082,"stars":4.5,"review_count":3,"is_open":1,"categories":"Burgers, Restaurants, Soup"}
{"business_id":"4GD8CguXrkwOKi-XxFRESw","name":"Strangelove","address":"627 Queen Street West","city":"Toronto","state":"ON","postal_code":"M5V 2B7","latitude":43.6472468,"longitude":-79.4030504,"stars":3.5,"review_count":3,"is_open":1,"categories":"Coffee Roasteries, Restaurants, Coffee & Tea Supplies, Food, Cafes, Coffee & Tea","hours":{"Friday":"8:30-19:0","Monday":"8:30-19:0","Saturday":"10:0-19:0","Sunday":"10:0-19:0","Thursday":"8:30-19:0","Tuesday":"8:30-19:0","Wednesday":"8:30-19:0"}}
{"business_id":"9B8CwOtI2KHXg1_ONF1feg","name":"Cluck Grunt & Low","address":"362 Bloor St W","city":"Toronto","state":"ON","postal_code":"M5S 1X2","latitude":43.6662901,"longitude":-79.4057808,"stars":3.5,"review_count":9,"is_open":0,"categories":"Southern, Restaurants, Barbeque","hours":{"Friday":"11:0-22:30","Monday":"11:0-22:30","Saturday":"11:0-23:30","Sunday":"11:0-21:0","Thursday":"11:0-22:30","Tuesday":"11:0-22:30","Wednesday":"11:0-22:30"}}
{"business_id":"peTpZPLkW99CDPB2dWnO7g","name":"416-SO-CLEAN","address":"3459 Yonge Street","city":"Toronto","state":"ON","postal_code":"M4N 2N4","latitude":43.7340663,"longitude":-79.4043763,"stars":4.0,"review_count":5,"is_open":1,"categories":"Carpet Installation, Carpet Cleaning, Local Services, Home Services","hours":{"Friday":"8:0-20:0","Monday":"8:0-20:0","Saturday":"8:0-20:0","Sunday":"8:0-20:0","Thursday":"8:0-20:0","Tuesday":"8:0-20:0","Wednesday":"8:0-20:0"}}
{"business_id":"J_emobGc_U3Qhqgwm65fTA","name":"Julia Permanent Makeup","address":"104-6036 3 Street SW","city":"Calgary","state":"AB","postal_code":"T2H 0H9","latitude":50.9992985,"longitude":-114.0691366,"stars":5.0,"review_count":3,"is_open":1,"categories":"Eyelash Service, Eyebrow Services, Health & Medical, Medical Spas, Makeup Artists, Tattoo, Beauty & Spas","hours":{"Friday":"10:0-19:0","Monday":"0:0-0:0","Saturday":"10:0-16:0","Thursday":"10:0-19:0","Tuesday":"10:0-19:0","Wednesday":"10:0-19:0"}}
{"business_id":"F6jPL9DUEIdglvD0Fq23xg","name":"Subs 'n' Bubbles","address":"7 - 7204 Fairmount Drive SE","city":"Calgary","state":"AB","postal_code":"T2H 1Z1","latitude":50.9891698913,"longitude":-114.0632832278,"stars":4.5,"review_count":21,"is_open":1,"categories":"Farmers Market, Food, Restaurants, Food Trucks, Vietnamese, Coffee & Tea","hours":{"Friday":"11:0-19:0","Monday":"11:0-19:0","Saturday":"11:0-19:0","Thursday":"11:0-19:0","Tuesday":"11:0-19:0","Wednesday":"11:0-19:0"}}
{"business_id":"udqlpTFFy_vDt3jShRr8oQ","name":"Orangetheory Fitness Mississauga - Creekside Crossing","address":"1476 Dundas Street East","city":"Mississauga","state":"ON","postal_code":"L4X 1L4","latitude":43.6110946,"longitude":-79.5817941,"stars":3.5,"review_count":3,"is_open":1,"categories":"Active Life, Fitness & Instruction, Gyms, Cardio Classes, Trainers","hours":{"Friday":"5:0-20:30","Monday":"5:0-21:30","Saturday":"6:30-13:30","Sunday":"7:30-13:30","Thursday":"5:0-21:30","Tuesday":"5:0-21:30","Wednesday":"5:0-21:30"}}
{"business_id":"MVWDrEz05nMbtDubRtp3tw","name":"car2go Calgary","address":"1107 8th St SW","city":"Calgary","state":"AB","postal_code":"T2R 0J3","latitude":51.0422608031,"longitude":-114.0816937742,"stars":3.0,"review_count":21,"is_open":1,"categories":"Transportation, Hotels & Travel, Public Transportation, Automotive, Car Rental, Car Share Services","hours":{"Friday":"10:0-18:0","Monday":"10:0-18:0","Thursday":"10:0-18:0","Tuesday":"10:0-18:0","Wednesday":"10:0-18:0"}}
{"business_id":"FiTnRmbrWAKVdqrI1RrSbg","name":"Soo Ling Beads & Beading Company","address":"1162 Dundas Street W","city":"Toronto","state":"ON","postal_code":"M6J 1X4","latitude":43.6495409,"longitude":-79.4215524,"stars":2.5,"review_count":3,"is_open":1,"categories":"Shopping, Art Supplies, Arts & Crafts"}
{"business_id":"UqVqvLZtd6hDoa2H7-KqKg","name":"Magpie Taproom","address":"831 Dundas St W","city":"Toronto","state":"ON","postal_code":"M6J 1V4","latitude":43.6515576,"longitude":-79.4091801,"stars":3.5,"review_count":24,"is_open":0,"categories":"Local Flavor, Arts & Entertainment, Nightlife, Bars, Music Venues","hours":{"Friday":"19:0-2:0","Monday":"19:0-2:0","Saturday":"16:0-2:0","Sunday":"19:0-2:0","Thursday":"19:0-2:0","Tuesday":"19:0-2:0","Wednesday":"19:0-2:0"}}
{"business_id":"zRXUGT5HLSjCVqBeMQHpsQ","name":"Onze 14 Bistro Urbain","address":"1114 Boulevard Du Bord De l'Eau","city":"Salaberry-de-Valleyfield","state":"QC","postal_code":"J6S 0C1","latitude":45.2853329,"longitude":-74.1486622,"stars":3.0,"review_count":3,"is_open":1,"categories":"Canadian (New), Seafood, Restaurants","hours":{"Friday":"11:0-22:30","Saturday":"16:0-22:30","Sunday":"16:0-22:30","Thursday":"11:0-22:30","Tuesday":"11:0-22:30","Wednesday":"11:0-22:30"}}
{"business_id":"1MWisTwY8qTTPbz52HEeWA","name":"Cefiore Frozen Yogurt","address":"362 Bloor St W","city":"Toronto","state":"ON","postal_code":"M5S 1X2","latitude":43.6662901,"longitude":-79.4057808,"stars":4.0,"review_count":5,"is_open":0,"categories":"Ice Cream & Frozen Yogurt, Juice Bars & Smoothies, Coffee & Tea, Food","hours":{"Friday":"12:0-0:0","Monday":"12:0-23:0","Saturday":"12:0-0:0","Thursday":"12:0-23:0","Tuesday":"12:0-23:0","Wednesday":"12:0-23:0"}}
{"business_id":"_OGFKkVRuV8wVKyaeps2Fg","name":"Myhre's Deli","address":"1411 11 Street SW","city":"Calgary","state":"AB","postal_code":"T2R 1G7","latitude":51.0397146,"longitude":-114.0892573,"stars":4.0,"review_count":36,"is_open":1,"categories":"Restaurants, Delis, Sandwiches","hours":{"Friday":"11:0-16:0","Monday":"11:0-16:0","Saturday":"11:0-16:0","Sunday":"11:0-16:0","Thursday":"11:0-16:0","Tuesday":"11:0-16:0","Wednesday":"11:0-16:0"}}
{"business_id":"1SrUvCiYAiZlTKXAUvQn6w","name":"Cedarvale Park","address":"Heathdale at Glen Cedar","city":"Toronto","state":"ON","postal_code":"M6C 1M6","latitude":43.6900824,"longitude":-79.4254862,"stars":5.0,"review_count":3,"is_open":0,"categories":"Active Life, Parks"}
{"business_id":"BCv1vW_M3Pq2poEQ6HCxEw","name":"Irie Veggie Takeout","address":"2593 Eglinton Avenue W","city":"York","state":"ON","postal_code":"M6M 1T1","latitude":43.690253,"longitude":-79.4739089,"stars":5.0,"review_count":4,"is_open":1,"categories":"Vegan, Restaurants, Seafood, Canadian (New)"}
{"business_id":"ffBaGO8lIz6rpq4NinlGGw","name":"Henry's Fish & Chips","address":"320 Main Street N","city":"Brampton","state":"ON","postal_code":"L6V 4A3","latitude":43.6931201,"longitude":-79.7683854,"stars":3.5,"review_count":12,"is_open":1,"categories":"Salad, Seafood, Restaurants, Fish & Chips","hours":{"Friday":"10:30-21:0","Monday":"11:0-20:30","Saturday":"11:0-20:30","Sunday":"12:0-20:0","Thursday":"11:0-20:30","Tuesday":"11:0-20:30","Wednesday":"11:0-20:30"}}
{"business_id":"HLpAu5XT-jdR4Gxqe3Al9w","name":"Galla Winehouse and Bistro","address":"529 17 Avenue SW","city":"Calgary","state":"AB","postal_code":"T2S 0A9","latitude":51.0378232,"longitude":-114.137413,"stars":3.0,"review_count":14,"is_open":0,"categories":"Modern European, Beer, Wine & Spirits, Nightlife, Restaurants, Polish, Food, Bars, Wine Bars, French","hours":{"Friday":"11:0-0:0","Monday":"11:0-23:0","Saturday":"11:0-0:0","Sunday":"11:0-22:0","Thursday":"11:0-23:0","Tuesday":"11:0-23:0","Wednesday":"11:0-23:0"}}
{"business_id":"sfxbWyYhtUsQqz0RWwYhzw","name":"Cycle Technique","address":"788 Avenue Atwater","city":"Montréal","state":"QC","postal_code":"H3J 1N9","latitude":45.4847915584,"longitude":-73.5804465819,"stars":3.0,"review_count":8,"is_open":1,"categories":"Shopping, Sporting Goods, Bikes","hours":{"Friday":"11:0-18:0","Monday":"11:0-18:0","Saturday":"10:0-17:0","Sunday":"12:0-17:0","Thursday":"11:0-18:0","Tuesday":"11:0-18:0","Wednesday":"11:0-18:0"}}
{"business_id":"yTqAa2q68d2dsPiVjvh0Kw","name":"LDV Pizza Bar","address":"916 1st Avenue NE","city":"Calgary","state":"AB","postal_code":"T2E 0C5","latitude":51.0532783,"longitude":-114.0417156,"stars":4.0,"review_count":35,"is_open":1,"categories":"Restaurants, Pizza","hours":{"Friday":"11:30-23:0","Saturday":"11:30-23:0","Sunday":"17:0-22:0","Thursday":"11:30-22:0","Tuesday":"17:0-22:0","Wednesday":"11:30-22:0"}}
{"business_id":"DjzNeMj2M5q5YDiq06_xeg","name":"Caplan Appliances","address":"1111 Weston Road","city":"York","state":"ON","postal_code":"M6N 3S3","latitude":43.6863914,"longitude":-79.4877895,"stars":3.0,"review_count":13,"is_open":1,"categories":"Furniture Stores, Appliances, Home & Garden, Shopping","hours":{"Friday":"11:0-20:0","Monday":"11:0-20:0","Saturday":"11:0-17:0","Sunday":"12:0-17:0","Thursday":"11:0-20:0","Tuesday":"11:0-20:0","Wednesday":"11:0-17:0"}}
{"business_id":"Y7YudR2xBNt7niTRINhS7g","name":"Poke & Sushi Burritos","address":"614A 17 Avenue SW","city":"Calgary","state":"AB","postal_code":"T2S 0B4","latitude":51.0380277,"longitude":-114.0752981,"stars":4.5,"review_count":3,"is_open":1,"categories":"Food, Restaurants, Asian Fusion, Poke, Sushi Bars, Japanese"}
{"business_id":"G0QbSZxOBQMwq7pyXpzt2A","name":"Creative Carpet One","address":"190 Bullock Drive","city":"Markham","state":"ON","postal_code":"L3P 7N3","latitude":43.8746462,"longitude":-79.2807904,"stars":2.5,"review_count":3,"is_open":1,"categories":"Shopping, Carpeting, Home Services, Flooring, Carpet Installation","hours":{"Friday":"9:0-19:0","Monday":"9:0-18:0","Saturday":"10:0-16:0","Thursday":"9:0-19:0","Tuesday":"9:0-18:0","Wednesday":"9:0-18:0"}}
{"business_id":"inHnf3mcrDuVitlD4cbkXg","name":"Aquarelle","address":"90 Yorkville Avenue, 2nd Floor","city":"Toronto","state":"ON","postal_code":"M5R 1B9","latitude":43.6712119,"longitude":-79.3918458,"stars":3.5,"review_count":10,"is_open":1,"categories":"Beauty & Spas, Health & Medical, Massage, Medical Spas","hours":{"Friday":"11:0-19:0","Saturday":"10:0-17:0","Thursday":"11:0-19:0","Tuesday":"11:0-19:0","Wednesday":"11:0-19:0"}}
{"business_id":"WC6nTfoa6BMyEy1lHZOOFA","name":"Moga's Pizza","address":"7205 Goreway Drive","city":"Mississauga","state":"ON","postal_code":"L4T 2T9","latitude":43.7189717,"longitude":-79.6375039,"stars":2.0,"review_count":4,"is_open":1,"categories":"Pizza, Restaurants"}
{"business_id":"00SGRNBhyPJScnMltVFl-Q","name":"Ellas Meat Market","address":"674 Pape Ave","city":"Toronto","state":"ON","postal_code":"M4K 3S5","latitude":43.6782295,"longitude":-79.3447303,"stars":5.0,"review_count":8,"is_open":1,"categories":"Food, Meat Shops, Specialty Food"}
{"business_id":"8XYJlPTZdCTIyUhuGuAcXA","name":"Chauffage Ross Turner Heating","address":"6 Av De Lourdes","city":"Pointe-Claire","state":"QC","postal_code":"H9S 4R2","latitude":45.429939,"longitude":-73.825185,"stars":4.0,"review_count":3,"is_open":1,"categories":"Home Services, Contractors"}
{"business_id":"Cy5VGp4Qhq6AI3Y9ukR2sA","name":"Tea Shop 168","address":"5193 Yonge Street","city":"North York","state":"ON","postal_code":"M2N 5P7","latitude":43.7704042,"longitude":-79.4129456,"stars":2.5,"review_count":58,"is_open":1,"categories":"Nightlife, Food, Coffee & Tea, Tea Rooms, Restaurants, Bubble Tea, Chinese","hours":{"Tuesday":"9:0-17:0","Wednesday":"9:0-17:0"}}
{"business_id":"LHwzyN5cllTfLuZ8v2k_Bg","name":"Le Paradis Brasserie Bistro","address":"166 Bedford Road","city":"Toronto","state":"ON","postal_code":"M5R 2K9","latitude":43.6750027,"longitude":-79.4002993,"stars":3.5,"review_count":79,"is_open":1,"categories":"Brasseries, Breakfast & Brunch, Nightlife, French, Bars, Cocktail Bars, Restaurants","hours":{"Friday":"18:0-23:0","Monday":"17:30-22:0","Saturday":"17:30-23:0","Sunday":"17:30-22:0","Thursday":"18:0-23:0","Tuesday":"18:0-23:0","Wednesday":"18:0-23:0"}}
{"business_id":"hQDjd2FmjmiHwaUytiaNoQ","name":"Beanfield Centre","address":"105 Princes' Boulevard","city":"Toronto","state":"ON","postal_code":"M6K 3C3","latitude":43.6343213,"longitude":-79.4108297,"stars":3.5,"review_count":7,"is_open":1,"categories":"Venues & Event Spaces, Event Planning & Services, Party & Event Planning","hours":{"Friday":"8:0-18:0","Monday":"8:0-18:0","Thursday":"8:0-18:0","Tuesday":"8:0-18:0","Wednesday":"8:0-18:0"}}
{"business_id":"LG57WrTcnPeuTy6aJy3IYw","name":"Premium Sweets","address":"3212 Eglinton Avenue E","city":"Scarborough","state":"ON","postal_code":"M1J 2H6","latitude":43.7435481,"longitude":-79.2177143,"stars":3.0,"review_count":4,"is_open":1,"categories":"Bangladeshi, Restaurants, Specialty Food, Desserts, Food, Ethnic Food","hours":{"Friday":"12:0-22:0","Monday":"12:0-22:0","Saturday":"12:0-22:0","Sunday":"12:0-22:0","Thursday":"12:0-22:0","Tuesday":"12:0-22:0","Wednesday":"12:0-22:0"}}
{"business_id":"PY5Y_9-7S-MorAo_Cgqu-Q","name":"Les Éclusiers par Apollo","address":"400 de La Commune","city":"Montréal","state":"QC","postal_code":"H2Y 1H2","latitude":45.509089,"longitude":-73.551568,"stars":2.5,"review_count":4,"is_open":0,"categories":"Nightlife, Lounges, Canadian (New), Bars, Restaurants","hours":{"Friday":"11:0-1:0","Saturday":"11:0-1:0","Thursday":"11:0-1:0","Wednesday":"11:0-1:0"}}
{"business_id":"aN2x1eMGssXd7EnG0kiRsg","name":"Kitchen 73","address":"1661 Boulevard de l'Avenir","city":"Laval","state":"QC","postal_code":"H7S 2N5","latitude":45.566349,"longitude":-73.726872,"stars":3.5,"review_count":42,"is_open":1,"categories":"Pizza, Italian, Breakfast & Brunch, Event Planning & Services, Restaurants, Caterers, Gluten-Free","hours":{"Friday":"7:0-15:0","Monday":"7:0-15:0","Saturday":"7:0-15:0","Sunday":"7:0-15:0","Thursday":"7:0-15:0","Tuesday":"7:0-15:0","Wednesday":"7:0-15:0"}}
{"business_id":"0t8_ORXFIXTWK3zFmM7Dqw","name":"Enterprise Rent-A-Car","address":"6685 Saint-Jacques Ouest","city":"Montreal","state":"QC","postal_code":"H4B 1V3","latitude":45.457725,"longitude":-73.628807,"stars":4.5,"review_count":3,"is_open":1,"categories":"Hotels & Travel, Car Rental","hours":{"Friday":"7:30-18:0","Monday":"7:30-18:0","Saturday":"9:0-12:0","Thursday":"7:30-18:0","Tuesday":"7:30-18:0","Wednesday":"7:30-18:0"}}
{"business_id":"R16BqAKrwDjEdYbW9rhK1A","name":"J Ali Baba Restaurant","address":"1211 Kingston Road, Unit 14b","city":"Pickering","state":"ON","postal_code":"L1V 6M5","latitude":43.8317156,"longitude":-79.0939147,"stars":4.5,"review_count":4,"is_open":1,"categories":"Indian, Restaurants, Pakistani, Halal","hours":{"Friday":"11:0-22:0","Monday":"11:0-22:0","Saturday":"11:0-22:0","Sunday":"11:0-22:0","Thursday":"11:0-22:0","Tuesday":"11:0-22:0","Wednesday":"11:0-22:0"}}
{"business_id":"FKrgOKCcNjtOQ7zUJQWFBw","name":"Go Dental","address":"175B 52 Street SE","city":"Calgary","state":"AB","postal_code":"T2A 5H8","latitude":51.052776,"longitude":-113.955903,"stars":3.0,"review_count":4,"is_open":1,"categories":"Cosmetic Dentists, Doctors, Dentists, Orthopedists, Health & Medical, General Dentistry, Pediatric Dentists","hours":{"Friday":"8:0-17:0","Monday":"8:0-20:0","Saturday":"9:0-16:0","Sunday":"9:0-16:0","Thursday":"8:0-20:0","Tuesday":"8:0-20:0","Wednesday":"8:0-20:0"}}
{"business_id":"gZvwCOaMhxFXXNvy1q9_LA","name":"Marusan Comptoir Japonais","address":"401 Rue Notre-Dame O","city":"Montréal","state":"QC","postal_code":"H2Y 1V2","latitude":45.501635,"longitude":-73.559354,"stars":4.5,"review_count":135,"is_open":1,"categories":"Japanese, Restaurants","hours":{"Friday":"17:0-23:0","Monday":"0:0-0:0","Saturday":"17:0-23:0","Thursday":"17:0-22:0","Tuesday":"17:0-22:0","Wednesday":"17:0-22:0"}}
{"business_id":"oG8JRklfrpXq_bP0hH6BGA","name":"Vanak Restaurant","address":"6036 Yonge Street","city":"Toronto","state":"ON","postal_code":"M2M 3W5","latitude":43.7898425,"longitude":-79.4180592,"stars":2.5,"review_count":3,"is_open":1,"categories":"Restaurants, Fast Food, Sandwiches, Salad, Food","hours":{"Friday":"11:0-2:0","Monday":"11:0-0:0","Saturday":"11:0-2:0","Sunday":"11:0-23:30","Thursday":"11:0-0:0","Tuesday":"11:0-0:0","Wednesday":"11:0-0:0"}}
{"business_id":"JE1cNabNVZaVvDkr0tG5cA","name":"Screemers","address":"180 Princes' Blvd","city":"Toronto","state":"ON","postal_code":"M6K 3C3","latitude":43.6330328,"longitude":-79.4204988,"stars":3.0,"review_count":25,"is_open":1,"categories":"Venues & Event Spaces, Event Planning & Services"}
{"business_id":"AXOvlcEKQKtttJBklX74xA","name":"Best Z","address":"12 Av Street Clair E","city":"Toronto","state":"ON","postal_code":"M4T 1L7","latitude":43.68842,"longitude":-79.39351,"stars":2.0,"review_count":3,"is_open":1,"categories":"Restaurants, Chinese"}
{"business_id":"BXgfD10M9MDESEUom_D-bw","name":"New World Coin Laundry","address":"600 Parliament Street","city":"Toronto","state":"ON","postal_code":"M4X 1R2","latitude":43.6685416987,"longitude":-79.3700388819,"stars":3.0,"review_count":3,"is_open":1,"categories":"Local Services, Dry Cleaning & Laundry, Laundry Services, Laundromat","hours":{"Friday":"6:0-22:0","Monday":"6:0-22:0","Saturday":"5:30-22:0","Sunday":"5:30-22:0","Thursday":"6:0-22:0","Tuesday":"6:0-22:0","Wednesday":"6:0-22:0"}}
{"business_id":"rOZQ7ILsObd1GW93GH9bzw","name":"Head Turners Salon","address":"1194 Eglinton Avenue W, Forest Hill","city":"Toronto","state":"ON","postal_code":"M6C 2E3","latitude":43.6994203,"longitude":-79.4335576,"stars":5.0,"review_count":3,"is_open":1,"categories":"Hair Salons, Beauty & Spas","hours":{"Friday":"10:0-18:30","Saturday":"8:0-16:0","Thursday":"10:0-18:0","Tuesday":"10:0-17:30","Wednesday":"10:0-17:30"}}
{"business_id":"5ssqLrwXCG5emiCc5LjZhA","name":"Spa Futura","address":"1070 Major MacKenzie Drive E","city":"Richmond Hill","state":"ON","postal_code":"L4S 1P3","latitude":43.8773402,"longitude":-79.4084342,"stars":3.0,"review_count":4,"is_open":1,"categories":"Skin Care, Day Spas, Beauty & Spas, Massage"}
{"business_id":"B7yBxYH0ZHYtvrsyrrU1SQ","name":"Steak Supreme","address":"4033 Gordon Baker Road","city":"Toronto","state":"ON","postal_code":"M1W 2P3","latitude":43.810455,"longitude":-79.338234,"stars":3.0,"review_count":21,"is_open":1,"categories":"Nightlife, Steakhouses, Restaurants, Bars, Diners","hours":{"Friday":"11:0-23:0","Monday":"11:0-22:0","Saturday":"11:0-23:0","Sunday":"11:0-22:0","Thursday":"11:0-22:0","Wednesday":"11:0-22:0"}}
{"business_id":"q9V8hi0I-OxEKLEBSQEg3A","name":"Marjo Bakery","address":"2838 Victoria Park Avenue","city":"Toronto","state":"ON","postal_code":"M2J 4A8","latitude":43.7886507,"longitude":-79.3306017,"stars":5.0,"review_count":5,"is_open":1,"categories":"Desserts, Cafes, Restaurants, Bakeries, Patisserie/Cake Shop, Food","hours":{"Friday":"8:0-19:30","Monday":"8:0-19:30","Saturday":"8:0-18:0","Thursday":"8:0-19:30","Tuesday":"8:0-19:30","Wednesday":"8:0-19:30"}}
{"business_id":"demvKt0UoGi5jucfsctmEg","name":"Chocolat Belge Leonidas","address":"605 De Maisonneuve Boul W","city":"Montréal","state":"QC","postal_code":"H3A 1L8","latitude":45.5050753,"longitude":-73.5709906,"stars":4.5,"review_count":3,"is_open":1,"categories":"Food, Specialty Food, Chocolatiers & Shops"}
{"business_id":"SNn_I8VMds60C4bSXCyUtw","name":"Gado Gado Indonesian Cuisine","address":"1242 Rue Mackay","city":"Montréal","state":"QC","postal_code":"H3G 2H5","latitude":45.495379,"longitude":-73.576272,"stars":4.0,"review_count":94,"is_open":0,"categories":"Restaurants, Indonesian","hours":{"Friday":"11:30-22:0","Monday":"0:0-0:0","Saturday":"11:30-22:0","Thursday":"11:30-22:0","Tuesday":"11:30-22:0","Wednesday":"11:30-22:0"}}
{"business_id":"Ga52ucWQAIBcdHox1bUzIA","name":"Rob's Best Foot Forward","address":"20 Toronto Street, Suite 100","city":"Toronto","state":"ON","postal_code":"M5C 2B8","latitude":43.650244,"longitude":-79.3765641,"stars":5.0,"review_count":10,"is_open":1,"categories":"Shoe Shine, Local Services, Shoe Repair","hours":{"Friday":"8:30-18:0","Monday":"0:0-0:0","Saturday":"10:0-17:0","Thursday":"8:30-18:0","Tuesday":"8:30-18:0","Wednesday":"8:30-18:0"}}
{"business_id":"kxY-Dl71Qs17ldk3HlMPAA","name":"Viviry Restaurant","address":"510 Rue main","city":"Hudson","state":"QC","postal_code":"J0P 1H0","latitude":45.4601514,"longitude":-74.1443631,"stars":3.0,"review_count":5,"is_open":1,"categories":"Comfort Food, Restaurants, Pizza","hours":{"Friday":"7:0-23:0","Monday":"7:0-21:30","Saturday":"7:0-23:0","Sunday":"7:0-21:30","Thursday":"7:0-21:30","Tuesday":"7:0-21:30","Wednesday":"7:0-21:30"}}
{"business_id":"byDBfze7SgSu8XYXao-5_w","name":"Supreme Lube","address":"240 Dixon Road","city":"Toronto","state":"ON","postal_code":"M9P 2M2","latitude":43.6974511,"longitude":-79.5462902,"stars":3.5,"review_count":3,"is_open":1,"categories":"Tires, Auto Repair, Oil Change Stations, Automotive","hours":{"Friday":"9:0-20:0","Monday":"9:0-20:0","Saturday":"9:0-18:0","Sunday":"10:0-17:0","Thursday":"9:0-20:0","Tuesday":"9:0-20:0","Wednesday":"9:0-20:0"}}
{"business_id":"v1M2DI3sATaUkHfZEuDStw","name":"Ka Chi","address":"414 Dundas Street W","city":"Toronto","state":"ON","postal_code":"M5T 1G6","latitude":43.6537169,"longitude":-79.3950274,"stars":3.0,"review_count":93,"is_open":1,"categories":"Restaurants, Korean","hours":{"Friday":"10:30-22:30","Monday":"10:30-22:30","Saturday":"10:30-22:30","Sunday":"10:30-22:30","Thursday":"10:30-22:30","Tuesday":"10:30-22:30","Wednesday":"10:30-22:30"}}
{"business_id":"aoJmRB6C4O6_aNeK_QAf4Q","name":"Econo Lodge","address":"8350 Boulevard Taschereau","city":"Brossard","state":"QC","postal_code":"J4X 1C2","latitude":45.4459228,"longitude":-73.4715642,"stars":1.5,"review_count":3,"is_open":1,"categories":"Hotels, Event Planning & Services, Hotels & Travel","hours":{"Friday":"0:0-0:0","Monday":"0:0-0:0","Saturday":"0:0-0:0","Sunday":"0:0-0:0","Thursday":"0:0-0:0","Tuesday":"0:0-0:0","Wednesday":"0:0-0:0"}}
{"business_id":"dWoAayHRyIrkk1dcvBxv3Q","name":"Art Ink Collective","address":"823 A Bloor Street W","city":"Toronto","state":"ON","postal_code":"M6G 1M1","latitude":43.6626807,"longitude":-79.422568,"stars":3.5,"review_count":3,"is_open":1,"categories":"Arts & Entertainment, Piercing, Tattoo, Beauty & Spas, Art Galleries, Shopping, Arts & Crafts, Fabric Stores","hours":{"Friday":"13:0-20:0","Monday":"13:0-20:0","Saturday":"13:0-21:0","Thursday":"13:0-20:0","Tuesday":"13:0-20:0","Wednesday":"13:0-20:0"}}
{"business_id":"4nirkf7FvgsSvRl1nkqh0A","name":"AAA Donair & Jamaican Cuisine","address":"5315 17 Avenue SE","city":"Calgary","state":"AB","postal_code":"T2A 0W2","latitude":51.037354,"longitude":-113.9567202,"stars":3.5,"review_count":4,"is_open":0,"categories":"Specialty Food, Imported Food, Food, Restaurants, Ethnic Food, Soul Food"}
{"business_id":"8DLWjy6GsHL0tJtZr7K-yw","name":"Golden Lion Seafood Resturant","address":"539 Bur Oak Ave","city":"Markham","state":"ON","postal_code":"L6C 3E5","latitude":43.8943388078,"longitude":-79.2929112623,"stars":3.5,"review_count":9,"is_open":1,"categories":"Chinese, Seafood, Restaurants"}
{"business_id":"QyVjwD27yTMDD7oy_ydCxA","name":"Skymark Shoe Repair","address":"3555 Don Mills Road","city":"North York","state":"ON","postal_code":"M2H 3N3","latitude":43.794255,"longitude":-79.3537203,"stars":5.0,"review_count":3,"is_open":1,"categories":"Local Services, Shoe Repair"}
{"business_id":"auoRRvZSd2v2FOxbzPjLRw","name":"Lakeshore Honda","address":"3526 Lake Shore Boulevard W","city":"Etobicoke","state":"ON","postal_code":"M8W 1N6","latitude":43.594813,"longitude":-79.532171,"stars":3.0,"review_count":12,"is_open":1,"categories":"Car Dealers, Automotive","hours":{"Friday":"9:0-18:0","Monday":"9:0-21:0","Saturday":"9:0-18:0","Thursday":"9:0-21:0","Tuesday":"9:0-21:0","Wednesday":"9:0-21:0"}}
{"business_id":"MkzNsk9NiLH9sPZPcscNvQ","name":"Crate & Barrel","address":"Southcentre Mall, 100 Anderson Road SE","city":"Calgary","state":"AB","postal_code":"T2J 3V1","latitude":50.9518403134,"longitude":-114.0666387301,"stars":4.0,"review_count":6,"is_open":1,"categories":"Home Decor, Shopping, Home & Garden"}
{"business_id":"8gXMT0uoqTnIa9pGy6zF4w","name":"Seanachai","address":"1106 Danforth Ave","city":"Toronto","state":"ON","postal_code":"M4J 1M3","latitude":43.6811309,"longitude":-79.3345033,"stars":2.5,"review_count":3,"is_open":0,"categories":"Bars, Pubs, Nightlife, Restaurants, Irish"}
{"business_id":"Yts7CINSYWoAMWES01nF_A","name":"Détour Bistro","address":"2480 Rue Beaubien Est","city":"Montréal","state":"QC","postal_code":"H2G 1N4","latitude":45.54855,"longitude":-73.591593,"stars":4.5,"review_count":9,"is_open":1,"categories":"Modern European, Local Flavor, Restaurants, French","hours":{"Friday":"17:30-22:0","Monday":"17:30-21:0","Saturday":"17:30-22:0","Thursday":"17:30-22:0","Tuesday":"17:30-21:0","Wednesday":"17:30-21:0"}}
{"business_id":"brwKwPGLy0-RInUCk8TkKQ","name":"Lolabar","address":"1173 Dundas Street E","city":"Toronto","state":"ON","postal_code":"M4M 3P1","latitude":43.6645453,"longitude":-79.3418084,"stars":3.5,"review_count":11,"is_open":0,"categories":"Lounges, Pubs, Nightlife, Bars"}
{"business_id":"8tKhimgRiNx74LbYDu9LIw","name":"Greek Town","address":"2005 B 4th Street SW","city":"Calgary","state":"AB","postal_code":"T2S 0G8","latitude":51.0348858465,"longitude":-114.0715220196,"stars":4.0,"review_count":32,"is_open":0,"categories":"Bars, Wine Bars, Nightlife, Restaurants, Greek","hours":{"Friday":"11:0-23:0","Monday":"11:0-22:0","Saturday":"12:0-23:0","Sunday":"12:0-22:0","Thursday":"11:0-22:0","Tuesday":"11:0-22:0","Wednesday":"11:0-22:0"}}
{"business_id":"WndSTuMpkm8nnNOUM__ePA","name":"La Maison Mansou","address":"988 Boulevard Curé-Labelle","city":"Laval","state":"QC","postal_code":"H7V 2V5","latitude":45.5430641,"longitude":-73.7511494,"stars":2.5,"review_count":3,"is_open":1,"categories":"Chinese, Restaurants","hours":{"Friday":"11:0-21:30","Monday":"11:0-21:0","Saturday":"11:0-21:30","Sunday":"11:0-21:0","Thursday":"11:0-21:30","Tuesday":"11:0-21:0","Wednesday":"11:0-21:0"}}
{"business_id":"EDmSL51WTSuJEsTWEgIrVQ","name":"Imperial Home Furnishing","address":"1187 Kennedy Road","city":"Toronto","state":"ON","postal_code":"M1P 2L2","latitude":43.7542323,"longitude":-79.2760784,"stars":1.0,"review_count":3,"is_open":1,"categories":"Home & Garden, Furniture Stores, Shopping"}
{"business_id":"Pq6gikRS9_SUGPpXEe48gg","name":"Holistic Bodyworx: Pilates Yoga and Wellness Studio","address":"4259 Sherwoodtowne Boulevard, Floor 1","city":"Mississauga","state":"ON","postal_code":"L4Z 1Y5","latitude":43.6009576,"longitude":-79.6398141,"stars":2.5,"review_count":9,"is_open":1,"categories":"Yoga, Active Life, Fitness & Instruction","hours":{"Friday":"9:30-20:0","Monday":"9:30-21:30","Saturday":"8:30-14:30","Sunday":"17:30-20:30","Thursday":"9:30-21:30","Tuesday":"9:30-21:30","Wednesday":"9:30-21:30"}}
{"business_id":"2AF_U-q3ChfeEtyMmJYD8Q","name":"Tim Hortons","address":"245 Salem Road S","city":"Ajax","state":"ON","postal_code":"L1Z 2C9","latitude":43.8528621821,"longitude":-79.0087890458,"stars":1.5,"review_count":3,"is_open":1,"categories":"Sandwiches, Restaurants, Breakfast & Brunch, Coffee & Tea, Food, Donuts","hours":{"Friday":"0:0-0:0","Monday":"0:0-0:0","Saturday":"0:0-0:0","Sunday":"0:0-0:0","Thursday":"0:0-0:0","Tuesday":"0:0-0:0","Wednesday":"0:0-0:0"}}
{"business_id":"-ceYX-NI-iqcLOX9tlIcEw","name":"Kent Of Inglewood","address":"1319 9 Avenue SE","city":"Calgary","state":"AB","postal_code":"T2G 0T2","latitude":51.0406988,"longitude":-114.0332385,"stars":4.0,"review_count":12,"is_open":1,"categories":"Fashion, Accessories, Shopping, Gift Shops, Flowers & Gifts","hours":{"Friday":"10:0-18:0","Monday":"10:0-18:0","Saturday":"10:0-18:0","Sunday":"10:0-18:0","Thursday":"10:0-20:0","Tuesday":"10:0-18:0","Wednesday":"10:0-18:0"}}
{"business_id":"sbPuQIxzYsEBWXyzMipIxg","name":"Chicago Deep Dish Pizza","address":"4604 Bowness Road NW","city":"Calgary","state":"AB","postal_code":"T3B 0B3","latitude":51.071744,"longitude":-114.158971,"stars":2.0,"review_count":7,"is_open":1,"categories":"Restaurants, Pizza"}
{"business_id":"oX4__f8PYbdkzjr46MSJ9g","name":"Boubah's Pet Store","address":"1040 Saint Clair Avenue W","city":"Toronto","state":"ON","postal_code":"M6E 1A5","latitude":43.6790231,"longitude":-79.4389395,"stars":2.5,"review_count":3,"is_open":1,"categories":"Pet Services, Pet Stores, Pets","hours":{"Friday":"10:30-20:0","Saturday":"9:0-19:0","Sunday":"11:0-18:0","Thursday":"10:30-20:0","Tuesday":"10:30-20:0","Wednesday":"10:30-20:0"}}
{"business_id":"-bUzw2t5uvTu7ShTXoTtxQ","name":"Dimensions Custom Framing","address":"732 Queen Street E","city":"Toronto","state":"ON","postal_code":"M4M 1H2","latitude":43.6593144,"longitude":-79.3491299,"stars":5.0,"review_count":3,"is_open":1,"categories":"Shopping, Home Decor, Home & Garden, Framing, Arts & Crafts","hours":{"Friday":"10:0-18:0","Saturday":"11:0-17:0","Thursday":"10:0-18:0","Tuesday":"10:0-18:0","Wednesday":"10:0-18:0"}}
{"business_id":"qaaixH75PIWmbemDsDc6Qw","name":"Yau Kee Noodle House","address":"5651 Av Steeles E","city":"Scarborough","state":"ON","postal_code":"M1V 5P6","latitude":43.8318556,"longitude":-79.267356,"stars":3.5,"review_count":3,"is_open":0,"categories":"Restaurants, Chinese"}
{"business_id":"Q_OQrwcq_fsdIVoTZrmhfA","name":"L'Oeuficiel","address":"670 Boulevard des Laurentides","city":"Laval","state":"QC","postal_code":"H7G 4S6","latitude":45.5726143,"longitude":-73.6950688,"stars":4.0,"review_count":5,"is_open":1,"categories":"Food, Restaurants, Breakfast & Brunch, Coffee & Tea","hours":{"Friday":"5:30-15:0","Monday":"5:30-15:0","Saturday":"6:30-15:0","Sunday":"7:0-15:0","Thursday":"5:30-15:0","Tuesday":"5:30-15:0","Wednesday":"5:30-15:0"}}
{"business_id":"007Dg4ESDVacWcC4Vq704Q","name":"Front Door Organics","address":"415 Horner Avenue","city":"Toronto","state":"ON","postal_code":"M8W 4W3","latitude":43.603232,"longitude":-79.5384244,"stars":4.5,"review_count":6,"is_open":0,"categories":"Shopping, Grocery, Specialty Food, Food, Farmers Market, Health Markets, Organic Stores, Food Delivery Services","hours":{"Friday":"9:0-16:0","Monday":"9:0-16:0","Thursday":"9:0-16:0","Tuesday":"9:0-16:0","Wednesday":"9:0-16:0"}}
{"business_id":"Q1cWYMaKaUw2MFY7_Szb4A","name":"Country Stop Burgers","address":"15101 Highway 48 RR 2","city":"Whitchurch-Stouffville","state":"ON","postal_code":"L4A 1R1","latitude":44.0339409,"longitude":-79.2963659,"stars":4.0,"review_count":6,"is_open":1,"categories":"Burgers, Restaurants"}
{"business_id":"7BDeMhETeAnXALDdBCrc7g","name":"Parkers Cleaners","address":"15480 Yonge Street","city":"Aurora","state":"ON","postal_code":"L4G 1P2","latitude":44.0053556,"longitude":-79.4693555,"stars":3.5,"review_count":3,"is_open":1,"categories":"Dry Cleaning & Laundry, Laundry Services, Local Services","hours":{"Friday":"7:0-20:0","Monday":"7:0-20:0","Saturday":"7:30-19:0","Sunday":"9:0-19:0","Thursday":"7:0-20:0","Tuesday":"7:0-20:0","Wednesday":"7:0-20:0"}}
{"business_id":"hzK0l9qDTj1BPZzCcQUqsA","name":"Capitol Banquet Centre","address":"6435 Dixie Road","city":"Mississauga","state":"ON","postal_code":"L5T 1X4","latitude":43.665007,"longitude":-79.6587425,"stars":3.0,"review_count":3,"is_open":1,"categories":"Venues & Event Spaces, Event Planning & Services, Caterers","hours":{"Friday":"10:0-19:0","Monday":"10:0-19:0","Saturday":"10:0-19:0","Sunday":"10:0-19:0","Thursday":"10:0-19:0","Tuesday":"10:0-19:0","Wednesday":"10:0-19:0"}}
{"business_id":"AsqrPTR00PSqku_MeqwSlA","name":"Warriach Bar and Grill","address":"60 Cotrelle Boulevard","city":"Brampton","state":"ON","postal_code":"L6S 0E1","latitude":43.7596151914,"longitude":-79.715867697,"stars":3.5,"review_count":3,"is_open":0,"categories":"Nightlife, Restaurants, American (Traditional), Indian, Bars","hours":{"Friday":"11:0-0:0","Monday":"11:0-23:0","Saturday":"11:0-0:0","Sunday":"11:0-23:0","Thursday":"11:0-23:0","Tuesday":"11:0-23:0","Wednesday":"11:0-23:0"}}
{"business_id":"vdYIg0R0ipQujO918GSkLg","name":"Délice et Café","address":"2131 Chemin Sainte Angelique","city":"Saint-Lazare","state":"QC","postal_code":"J7T 2H4","latitude":45.4012387,"longitude":-74.1479499,"stars":3.5,"review_count":6,"is_open":1,"categories":"Breakfast & Brunch, Restaurants, Cafes, Coffee & Tea, Food, Bakeries, Desserts","hours":{"Friday":"7:0-15:0","Saturday":"8:0-15:0","Sunday":"8:0-15:0","Thursday":"7:0-15:0","Tuesday":"7:0-15:0","Wednesday":"7:0-15:0"}}
{"business_id":"YR5ZCwgaQ5J4DZ6bf7yqEw","name":"Happy Lemon","address":"5425 Yonge Street","city":"North York","state":"ON","postal_code":"M2N 5R6","latitude":43.7763659,"longitude":-79.4144144,"stars":3.5,"review_count":23,"is_open":1,"categories":"Food, Bubble Tea","hours":{"Friday":"12:0-0:0","Monday":"12:0-0:0","Saturday":"12:0-0:0","Sunday":"12:0-0:0","Thursday":"12:0-0:0","Tuesday":"12:0-0:0","Wednesday":"12:0-0:0"}}
{"business_id":"tsG_3_3wNplQmKnZqRK-VQ","name":"Pepper Ring Asian Cuisine","address":"171 E Liberty Street","city":"Toronto","state":"ON","postal_code":"M6K 3P6","latitude":43.6380833906,"longitude":-79.4166686664,"stars":3.5,"review_count":3,"is_open":0,"categories":"Restaurants, Thai, Asian Fusion"}
{"business_id":"DD_dSlQKcln7VXbN1qxcLA","name":"Pero Restaurant & Lounge","address":"812 Bloor Street W","city":"Toronto","state":"ON","postal_code":"M6G 1L9","latitude":43.6627952,"longitude":-79.4227388,"stars":4.0,"review_count":57,"is_open":1,"categories":"Vegetarian, African, Vegan, Nightlife, Jazz & Blues, Restaurants, Arts & Entertainment, Ethiopian","hours":{"Friday":"17:0-2:0","Saturday":"17:0-2:0","Sunday":"17:0-2:0","Thursday":"17:0-0:0","Tuesday":"17:0-0:0","Wednesday":"17:0-0:0"}}
{"business_id":"gdrt_xED57Th8SAxd8FIIQ","name":"Ho's Team","address":"66A Wellesley Street E","city":"Toronto","state":"ON","postal_code":"M4Y 1G2","latitude":43.6657528,"longitude":-79.3814224,"stars":3.5,"review_count":14,"is_open":1,"categories":"Barbers, Hair Salons, Beauty & Spas"}
{"business_id":"MUhJ5eoj0t2Bq4LE8zc5UA","name":"Momoyama","address":"100 Steeles Avenue W","city":"Vaughan","state":"ON","postal_code":"L4J 7Y1","latitude":43.7972978347,"longitude":-79.4253312643,"stars":3.5,"review_count":25,"is_open":0,"categories":"Restaurants, Sushi Bars, Japanese"}
{"business_id":"Ybre7g_LHQk5004VSM49sg","name":"Butler's Pantry","address":"591 Markham Street","city":"Toronto","state":"ON","postal_code":"M6G 2L7","latitude":43.6640214,"longitude":-79.4120703,"stars":3.0,"review_count":39,"is_open":0,"categories":"Restaurants, Asian Fusion, Breakfast & Brunch","hours":{"Friday":"11:0-22:0","Monday":"11:0-21:30","Saturday":"10:0-22:0","Sunday":"10:0-21:0","Thursday":"11:0-21:30","Tuesday":"11:0-21:30","Wednesday":"11:0-21:30"}}
{"business_id":"vB-cjd7C7nSGO1V9ckHB8A","name":"Park Place Italian Restaurant","address":"8700 Dufferin Street","city":"Concord","state":"ON","postal_code":"L4K 4S6","latitude":43.8285979,"longitude":-79.4801019,"stars":3.5,"review_count":3,"is_open":1,"categories":"Italian, Restaurants"}
{"business_id":"JqtEhMEVgG8Jx1k1EHISzA","name":"Cafe Plenty","address":"250 Dundas Street W","city":"Toronto","state":"ON","postal_code":"M5T 2Z5","latitude":43.654782,"longitude":-79.38955,"stars":4.0,"review_count":24,"is_open":1,"categories":"Restaurants, Food, Coffee & Tea, Sandwiches","hours":{"Friday":"7:0-17:0","Monday":"7:0-17:0","Thursday":"7:0-17:0","Tuesday":"7:0-17:0","Wednesday":"7:0-17:0"}}
{"business_id":"zdFeNmzA8CuC0Cs4WVxYTA","name":"Restaurant Lune d'Asie","address":"2229 Avenue Mont-Royal E","city":"Montréal","state":"QC","postal_code":"H2H 1K5","latitude":45.5367358,"longitude":-73.5711354,"stars":3.0,"review_count":3,"is_open":0,"categories":"Japanese, Vietnamese, Restaurants, Thai, French","hours":{"Friday":"17:0-23:0","Monday":"17:0-22:0","Saturday":"17:0-23:0","Sunday":"17:0-22:0","Thursday":"17:0-22:0","Tuesday":"17:0-22:0","Wednesday":"17:0-22:0"}}
{"business_id":"9beoZxJjveJaOOUl7Uw0WA","name":"330 Takeout","address":"330 Bay Street","city":"Toronto","state":"ON","postal_code":"M5H 2S8","latitude":43.6499932,"longitude":-79.3811834,"stars":3.5,"review_count":7,"is_open":1,"categories":"Sandwiches, Food, Restaurants, Coffee & Tea, Salad","hours":{"Friday":"7:0-17:0","Monday":"7:0-17:0","Thursday":"7:0-17:0","Tuesday":"7:0-17:0","Wednesday":"7:0-17:0"}}
{"business_id":"jCvMgna61rny15cQAWjXug","name":"Dollar Car Rental","address":"2000 Airport Road N. E.","city":"Calgary","state":"AB","postal_code":"T2E 6Z8","latitude":51.1315419,"longitude":-114.0098056,"stars":1.0,"review_count":4,"is_open":1,"categories":"Hotels & Travel, Car Rental"}
{"business_id":"g39ULLJSf-7kH7XiXMcJEA","name":"Wine Kitz North","address":"4624 Varsity Drive NW","city":"Calgary","state":"AB","postal_code":"T3A 2L9","latitude":51.0935266,"longitude":-114.1540066,"stars":4.5,"review_count":3,"is_open":1,"categories":"Kitchen & Bath, Shopping, Beer, Wine & Spirits, Home & Garden, Food, Brewing Supplies, Hobby Shops","hours":{"Friday":"10:0-18:0","Monday":"10:0-18:0","Saturday":"10:0-17:0","Sunday":"12:0-17:0","Thursday":"10:0-19:0","Tuesday":"10:0-18:0","Wednesday":"10:0-18:0"}}
{"business_id":"E7tDAMhhCc7J4-F52ttjcw","name":"Pizza Pizza","address":"9255 Woodbine Avenue","city":"Markham","state":"ON","postal_code":"L6C 1Y9","latitude":43.8694259,"longitude":-79.3614299,"stars":3.0,"review_count":4,"is_open":1,"categories":"Restaurants, Pizza, Chicken Wings, Fast Food","hours":{"Friday":"11:0-3:0","Monday":"11:0-2:0","Saturday":"11:0-3:0","Sunday":"11:0-2:0","Thursday":"11:0-3:0","Tuesday":"11:0-2:0","Wednesday":"11:0-2:0"}}
{"business_id":"VZh2OeHm_Or5BMsROKJP6w","name":"Marmite Africaine","address":"1344 Avenue Van Horne","city":"Outremont","state":"QC","postal_code":"H2V 1K8","latitude":45.5207663,"longitude":-73.6143422,"stars":4.0,"review_count":4,"is_open":1,"categories":"Restaurants, African","hours":{"Friday":"11:0-22:0","Monday":"11:0-22:0","Saturday":"11:0-22:0","Sunday":"11:0-22:0","Thursday":"11:0-22:0","Tuesday":"11:0-22:0","Wednesday":"11:0-22:0"}}
{"business_id":"0RHhkRyJ0IGka4WsJ0mjRQ","name":"Dosa House","address":"72-30 karachi Drive","city":"Markham","state":"ON","postal_code":"L3S 0B6","latitude":43.8498729144,"longitude":-79.2528220324,"stars":3.5,"review_count":3,"is_open":1,"categories":"Restaurants, Indian, Fondue","hours":{"Friday":"11:0-22:0","Monday":"10:0-22:0","Saturday":"11:0-22:0","Sunday":"11:0-22:0","Thursday":"11:0-22:0","Tuesday":"11:0-22:0","Wednesday":"11:0-22:0"}}
{"business_id":"dulgBrNtDCGjYcbQa2E6uA","name":"Michael's on Simcoe","address":"100 Simcoe Street","city":"Toronto","state":"ON","postal_code":"M5H 3T4","latitude":43.6481427,"longitude":-79.3866412,"stars":4.0,"review_count":117,"is_open":1,"categories":"Restaurants, Seafood, Steakhouses, Italian","hours":{"Friday":"16:30-23:30","Monday":"16:30-23:30","Saturday":"16:30-23:30","Sunday":"16:30-23:30","Thursday":"16:30-23:30","Tuesday":"16:30-23:30","Wednesday":"16:30-23:30"}}
{"business_id":"TuaZJbP5EIPGdZaJR387YQ","name":"Hero Certified Burgers","address":"9730 Markham Road","city":"Markham","state":"ON","postal_code":"L6E 0H7","latitude":43.9028228,"longitude":-79.2672705,"stars":4.0,"review_count":3,"is_open":1,"categories":"Restaurants, Burgers","hours":{"Friday":"11:0-23:0","Monday":"11:0-23:0","Saturday":"11:0-23:0","Sunday":"11:0-23:0","Thursday":"11:0-23:0","Tuesday":"11:0-23:0","Wednesday":"11:0-23:0"}}
{"business_id":"UJ3mHW1l6oLV-Ic2I7Vjrw","name":"Rib Eye Jack's Ale House","address":"6531 Mississauga Road","city":"Mississauga","state":"ON","postal_code":"L5N 8C4","latitude":43.5983489052,"longitude":-79.7372379899,"stars":3.5,"review_count":42,"is_open":0,"categories":"Steakhouses, Burgers, Breweries, Bars, Nightlife, American (Traditional), Food, Restaurants, Pubs","hours":{"Friday":"11:30-1:0","Monday":"11:30-23:0","Saturday":"11:0-1:0","Sunday":"11:0-23:0","Thursday":"11:30-23:30","Tuesday":"11:30-23:30","Wednesday":"11:30-23:30"}}
{"business_id":"7Zpf05tANGgfDGC9hC3PtQ","name":"Goong Sushi","address":"6700 chemin cote des neiges, section 175","city":"Montréal","state":"QC","postal_code":"H3S 2B2","latitude":45.503072,"longitude":-73.637308,"stars":4.5,"review_count":5,"is_open":1,"categories":"Restaurants, Sushi Bars"}
{"business_id":"C6vH0qzmcerMkiJy3VO9qA","name":"Estiatorio VOLOS","address":"133 Richmond St W","city":"Toronto","state":"ON","postal_code":"M5H 2L3","latitude":43.6500769,"longitude":-79.3848314,"stars":4.0,"review_count":281,"is_open":1,"categories":"Vegetarian, Mediterranean, Greek, Restaurants, Seafood","hours":{"Friday":"17:0-22:30","Monday":"17:0-22:0","Saturday":"17:0-22:30","Thursday":"17:0-22:30","Tuesday":"17:0-22:0","Wednesday":"17:0-22:0"}}
{"business_id":"EIzc89BHzbZqmGA7wmhzFA","name":"Lift Salon","address":"179 King Street E","city":"Toronto","state":"ON","postal_code":"M5A 1J4","latitude":43.65051,"longitude":-79.3710316,"stars":3.5,"review_count":6,"is_open":1,"categories":"Hair Salons, Beauty & Spas, Day Spas","hours":{"Friday":"10:0-19:0","Saturday":"10:0-15:0","Thursday":"10:0-19:0","Tuesday":"10:0-18:0","Wednesday":"10:0-18:0"}}
{"business_id":"BOSW5b4M9HfahncpXAfn-g","name":"Giggling Tomatoes","address":"90 Pertosa Drive","city":"Brampton","state":"ON","postal_code":"L6X 5E9","latitude":43.6823204,"longitude":-79.803899,"stars":3.5,"review_count":10,"is_open":1,"categories":"Sandwiches, Restaurants"}
{"business_id":"CyD8N5MwM93JkcfIVkhNfw","name":"Bar-B Barn","address":"1201 Rue Guy","city":"Montréal","state":"QC","postal_code":"H3H 2K5","latitude":45.4945217,"longitude":-73.576321,"stars":3.5,"review_count":51,"is_open":1,"categories":"Restaurants, Barbeque, Soul Food"}
{"business_id":"R6H_YGKiu-GkSy27zdh0Uw","name":"Waterfront Toronto","address":"20 Bay Street, Suite 1310","city":"Toronto","state":"ON","postal_code":"M5J 2N8","latitude":43.6415739,"longitude":-79.3779693,"stars":3.0,"review_count":6,"is_open":1,"categories":"Public Services & Government, Landmarks & Historical Buildings"}
{"business_id":"NXtGLhz7t9P74GE3cW8j9Q","name":"Boulangerie Première Moisson Mont-Royal","address":"860 Avenue Du Mont-Royal E","city":"Montréal","state":"QC","postal_code":"H2J 1X1","latitude":45.5262882,"longitude":-73.5805202,"stars":4.0,"review_count":28,"is_open":1,"categories":"Caterers, Bakeries, Food, Event Planning & Services"}
{"business_id":"Bk_5n1l2_Rn_qvRRHFk1pg","name":"Café Cantina","address":"1880 Rue Centre","city":"Montréal","state":"QC","postal_code":"H3K 1H9","latitude":45.4826079,"longitude":-73.5620182,"stars":4.0,"review_count":23,"is_open":1,"categories":"Restaurants, Mexican","hours":{"Friday":"11:0-21:0","Monday":"11:0-21:0","Saturday":"11:0-21:0","Thursday":"11:0-21:0","Tuesday":"11:0-21:0","Wednesday":"11:0-21:0"}}
{"business_id":"ujCALf4L9iIUpcwTs8j4Kw","name":"Greenfield Cleaners","address":"7 Boustead Avenue","city":"Toronto","state":"ON","postal_code":"M6R 1Y7","latitude":43.6533754,"longitude":-79.4520508,"stars":2.0,"review_count":3,"is_open":1,"categories":"Laundry Services, Local Services, Dry Cleaning & Laundry","hours":{"Friday":"8:0-19:0","Monday":"8:0-19:0","Saturday":"9:0-18:0","Thursday":"8:0-19:0","Tuesday":"8:0-19:0","Wednesday":"8:0-19:0"}}
{"business_id":"gCr_bfJG-c8Al3UADWBClg","name":"Tora Sushi","address":"3160 Steeles Avenue E, Unit 6","city":"Markham","state":"ON","postal_code":"L3R 4G9","latitude":43.8154496499,"longitude":-79.3445965515,"stars":4.0,"review_count":7,"is_open":1,"categories":"Imported Food, Restaurants, Japanese, Specialty Food, Food, Ethnic Food","hours":{"Friday":"10:0-18:0","Saturday":"10:0-18:0","Sunday":"10:0-17:0","Thursday":"10:0-18:0","Tuesday":"10:0-15:0","Wednesday":"10:0-15:0"}}
{"business_id":"G7G6t1eaOhTcgCPbirw4ZQ","name":"Torrid","address":"6455 Macleod Trail SW, Ste CRU 0256","city":"Calgary","state":"AB","postal_code":"T2H 0K8","latitude":50.9978823,"longitude":-114.0740046,"stars":3.0,"review_count":4,"is_open":1,"categories":"Accessories, Fashion, Plus Size Fashion, Women's Clothing, Shopping","hours":{"Friday":"9:30-21:0","Monday":"9:30-21:0","Saturday":"9:30-21:0","Sunday":"11:0-19:0","Thursday":"9:30-21:0","Tuesday":"9:30-21:0","Wednesday":"9:30-21:0"}}
{"business_id":"wh2o1CPduEtg-wFCuJlQKQ","name":"Kim Hour","address":"7682 Boulevard Saint-Michel","city":"Montréal","state":"QC","postal_code":"H2A 3A5","latitude":45.561651,"longitude":-73.605223,"stars":3.5,"review_count":14,"is_open":1,"categories":"Chinese, Thai, Vietnamese, Cambodian, Restaurants, Asian Fusion","hours":{"Friday":"9:0-21:30","Monday":"9:0-21:30","Saturday":"9:0-21:30","Sunday":"9:0-21:30","Thursday":"9:0-21:30","Tuesday":"9:0-21:30","Wednesday":"9:0-21:30"}}
{"business_id":"gErEiUuCzCKmRSqN7GjESQ","name":"Dufflet Pastries","address":"2638 Yonge Street","city":"Toronto","state":"ON","postal_code":"M4P 2J5","latitude":43.7156889,"longitude":-79.400567,"stars":3.5,"review_count":30,"is_open":1,"categories":"Food, Bakeries, Desserts","hours":{"Friday":"10:0-19:0","Saturday":"10:0-19:0","Sunday":"11:0-17:0","Thursday":"10:0-18:0","Tuesday":"10:0-18:0","Wednesday":"10:0-18:0"}}
{"business_id":"cYCPK6LuvOPnXPoN1zFwJw","name":"Patty and Franks","address":"467 Danforth Avenue","city":"Toronto","state":"ON","postal_code":"M4K 1P4","latitude":43.6777461,"longitude":-79.3500912,"stars":4.5,"review_count":19,"is_open":0,"categories":"Hot Dogs, Restaurants, Fast Food, Burgers","hours":{"Friday":"11:0-23:0","Monday":"11:0-21:0","Saturday":"11:0-23:0","Sunday":"11:0-21:0","Thursday":"11:0-23:0","Tuesday":"11:0-21:0","Wednesday":"11:0-21:0"}}
{"business_id":"fPWCdV3skRF_NQYTx585VA","name":"Fisshu","address":"400 Route 132, Local 110","city":"Saint-Constant","state":"QC","postal_code":"J5A 2J8","latitude":45.3930727,"longitude":-73.5815555,"stars":4.0,"review_count":4,"is_open":1,"categories":"Sushi Bars, Restaurants, Vegetarian, Japanese","hours":{"Friday":"17:0-22:30","Monday":"17:0-22:0","Saturday":"17:0-22:30","Sunday":"17:0-22:0","Thursday":"17:0-22:0","Tuesday":"17:0-22:0","Wednesday":"17:0-22:0"}}
{"business_id":"VFauvNg6D3f-PnkgSvA-nw","name":"Calgary Public Library","address":"800 3 Street SE","city":"Calgary","state":"AB","postal_code":"T2G 2E7","latitude":51.0462954,"longitude":-114.0555694,"stars":4.0,"review_count":17,"is_open":1,"categories":"Libraries, Public Services & Government","hours":{"Friday":"9:0-18:0","Monday":"9:0-20:0","Saturday":"10:0-17:0","Sunday":"12:0-17:0","Thursday":"9:0-20:0","Tuesday":"9:0-20:0","Wednesday":"9:0-20:0"}}
{"business_id":"A-UC_QZwS1_gDB_masfJGA","name":"Moxie's Grill & Bar","address":"4950 Yonge St, Unit 105","city":"Toronto","state":"ON","postal_code":"M2N 6K1","latitude":43.764826,"longitude":-79.4127798,"stars":3.0,"review_count":56,"is_open":0,"categories":"American (New), Bars, Restaurants, American (Traditional), Pubs, Steakhouses, Nightlife, Canadian (New)","hours":{"Friday":"9:0-2:0","Monday":"9:0-0:0","Saturday":"9:0-2:0","Sunday":"9:0-23:0","Thursday":"9:0-1:0","Tuesday":"9:0-0:0","Wednesday":"9:0-0:0"}}
{"business_id":"wT7E0D8i9zJAKM2xDn8ygw","name":"Boston Pizza","address":"7 Heritage Gate SE","city":"Calgary","state":"AB","postal_code":"T2E 4Y7","latitude":50.9874608354,"longitude":-114.0454114165,"stars":3.0,"review_count":15,"is_open":1,"categories":"Restaurants, Pizza","hours":{"Friday":"11:0-1:0","Monday":"11:0-23:0","Saturday":"11:0-1:0","Sunday":"11:0-23:0","Thursday":"11:0-0:0","Tuesday":"11:0-0:0","Wednesday":"11:0-0:0"}}
{"business_id":"XHb3QU5RwFXew7cOLSAwTA","name":"Real Escape Game","address":"81 Huron Street","city":"Toronto","state":"ON","postal_code":"M5T 2A8","latitude":43.6538562,"longitude":-79.3960783,"stars":2.5,"review_count":3,"is_open":1,"categories":"Active Life, Escape Games"}
{"business_id":"jyAwzxia42fJwUTsHZgbag","name":"For the Love of Jo","address":"6308 Main Street","city":"Stouffville","state":"ON","postal_code":"L4A 1G8","latitude":43.9717093,"longitude":-79.2456858,"stars":4.0,"review_count":6,"is_open":1,"categories":"Coffee & Tea, Food","hours":{"Friday":"5:0-17:0","Monday":"5:0-17:0","Saturday":"5:0-21:0","Sunday":"7:0-17:0","Thursday":"5:0-17:0","Tuesday":"5:0-17:0","Wednesday":"5:0-17:0"}}
{"business_id":"0jQwF4gv9sVV2U53vFyD1g","name":"Mahar Restaurant Incorp","address":"1410 Gerrard Street E","city":"Toronto","state":"ON","postal_code":"M4L 1Z4","latitude":43.6721982,"longitude":-79.3232577,"stars":3.5,"review_count":9,"is_open":0,"categories":"Indian, Restaurants"}
{"business_id":"MqGzZKvtCCJ5u5PmgcJqfA","name":"Salon Helmet","address":"163 Avenue Mont-Royal E","city":"Montréal","state":"QC","postal_code":"H2T 1P2","latitude":45.521936,"longitude":-73.584994,"stars":4.0,"review_count":24,"is_open":1,"categories":"Barbers, Beauty & Spas, Hair Salons","hours":{"Friday":"10:0-20:0","Monday":"10:0-18:0","Saturday":"10:0-18:0","Thursday":"10:0-20:0","Tuesday":"10:0-20:0","Wednesday":"10:0-20:0"}}
{"business_id":"bd282Y9kOy56X_d6jv3Csw","name":"Cycle Centaure","address":"3730 Avenue du Parc","city":"Montréal","state":"QC","postal_code":"H2X 2J1","latitude":45.511289,"longitude":-73.577776,"stars":5.0,"review_count":4,"is_open":1,"categories":"Sporting Goods, Bikes, Shopping, Bike Repair/Maintenance, Local Services","hours":{"Friday":"10:0-19:0","Saturday":"10:0-17:0","Thursday":"10:0-19:0","Tuesday":"10:0-19:0","Wednesday":"10:0-19:0"}}
{"business_id":"8-f_Ilhg3EdKs44CFPoILQ","name":"NAPA AUTOPRO - LAD's Auto","address":"3832 16 Street Se","city":"Calgary","state":"AB","postal_code":"T2G 3R7","latitude":51.0204959,"longitude":-114.0216916,"stars":4.5,"review_count":3,"is_open":1,"categories":"Tires, Auto Repair, Transmission Repair, Automotive","hours":{"Friday":"7:30-17:30","Monday":"7:30-17:30","Thursday":"7:30-17:30","Tuesday":"7:30-17:30","Wednesday":"7:30-17:30"}}
{"business_id":"32NyroT2YB6MOqaoYyiaJA","name":"Billiard Fats","address":"1635 Rue Sainte-Catherine O","city":"Montréal","state":"QC","postal_code":"H3H 1L8","latitude":45.494691,"longitude":-73.578568,"stars":3.0,"review_count":9,"is_open":1,"categories":"Arts & Entertainment, Pool Halls, Nightlife, Casinos"}
{"business_id":"47WDyaBzlYK24wY1m_XnsA","name":"Congee Phoenix Cuisine","address":"2111 Sheppard Avenue E","city":"Toronto","state":"ON","postal_code":"M2J 1W6","latitude":43.7752481227,"longitude":-79.3340937818,"stars":3.0,"review_count":40,"is_open":0,"categories":"Restaurants, Chinese","hours":{"Friday":"11:0-0:0","Monday":"11:0-23:0","Saturday":"10:30-0:0","Sunday":"10:30-23:30","Thursday":"11:0-23:0","Tuesday":"11:0-23:0","Wednesday":"11:0-23:0"}}
{"business_id":"37-tFLj-xgG6_9oBIO4FJw","name":"Momo San","address":"26 Baldwin Street","city":"Toronto","state":"ON","postal_code":"M5T 1L2","latitude":43.6561388094,"longitude":-79.3933851206,"stars":3.5,"review_count":100,"is_open":1,"categories":"Restaurants, Nightlife, Cocktail Bars, Bars, Sushi Bars, Japanese","hours":{"Friday":"11:30-22:30","Saturday":"12:0-22:30","Sunday":"12:0-22:30","Thursday":"11:30-22:30","Tuesday":"11:30-22:30","Wednesday":"11:30-22:30"}}
{"business_id":"Fm57QHI8p4BdEKXsb1428w","name":"Cardynal","address":"1558 Avenue du Mont-Royal Est","city":"Montréal","state":"QC","postal_code":"H2J 1Z2","latitude":45.5316285,"longitude":-73.5755961,"stars":4.5,"review_count":8,"is_open":1,"categories":"Coffee & Tea, Food","hours":{"Friday":"7:30-18:0","Monday":"7:30-18:0","Saturday":"8:30-18:0","Sunday":"8:30-18:0","Thursday":"7:30-18:0","Tuesday":"7:30-18:0","Wednesday":"7:30-18:0"}}
{"business_id":"jfmvrr8nfuNyEcBL945CUA","name":"Xeno's Bistro & Bar","address":"250 Bayly Street","city":"Ajax","state":"ON","postal_code":"L1S 7S9","latitude":43.8421139,"longitude":-79.027628,"stars":3.0,"review_count":3,"is_open":0,"categories":"Restaurants"}
{"business_id":"XYcAzxQqJ8EBsvhWEl1I-A","name":"Tim Hortons","address":"3508 37 Street SW","city":"Calgary","state":"AB","postal_code":"T3E 7B1","latitude":51.0222673,"longitude":-114.1404186,"stars":1.5,"review_count":3,"is_open":1,"categories":"Coffee & Tea, Food, Bakeries"}
{"business_id":"OSqxmZQ3YoDm17KWXEKgew","name":"Dundas Pizza","address":"3088 Dundas Street W","city":"Toronto","state":"ON","postal_code":"M6P 1Z8","latitude":43.6657719,"longitude":-79.472741,"stars":3.0,"review_count":9,"is_open":1,"categories":"Restaurants, Pizza"}
{"business_id":"-RulWSOzkK2zMTsU7aa0lg","name":"Pizza Hut","address":"3700 Midland Avenue, Unit 110","city":"Scarborough","state":"ON","postal_code":"M1V 4V3","latitude":43.8148423,"longitude":-79.2923535,"stars":2.0,"review_count":8,"is_open":1,"categories":"Pizza, Chicken Wings, Italian, Food Delivery Services, Restaurants, Food","hours":{"Friday":"11:0-23:0","Monday":"11:0-22:0","Saturday":"11:0-23:0","Sunday":"12:0-22:0","Thursday":"11:0-22:0","Tuesday":"11:0-22:0","Wednesday":"11:0-22:0"}}
{"business_id":"3IgJXLybb6YJb7vucBIuTA","name":"The Fitting Room","address":"1389 Dundas Street W","city":"Toronto","state":"ON","postal_code":"M6J 3L5","latitude":43.6494353,"longitude":-79.4283614,"stars":4.0,"review_count":12,"is_open":1,"categories":"Shopping, Hair Salons, Barbers, Beauty & Spas, Accessories, Fashion","hours":{"Friday":"10:0-20:0","Monday":"11:0-19:0","Saturday":"9:0-18:0","Thursday":"10:0-19:0","Tuesday":"11:0-19:0","Wednesday":"11:0-19:0"}}
{"business_id":"Sprz0WeRtIfzW87qpFog7Q","name":"Swiss Chalet Rotisserie & Grill","address":"252 Lakeshore Rd W","city":"Mississauga","state":"ON","postal_code":"L5H 1G6","latitude":43.5466327,"longitude":-79.5933174,"stars":4.0,"review_count":5,"is_open":1,"categories":"American (Traditional), Restaurants, Comfort Food","hours":{"Friday":"11:30-22:0","Monday":"11:30-22:0","Saturday":"11:30-22:0","Sunday":"11:0-21:30","Thursday":"11:30-22:0","Tuesday":"11:30-22:0","Wednesday":"11:30-22:0"}}
{"business_id":"3ssvkvS64jO70_WwZ_qejw","name":"Mary Brown's","address":"1 Kennedy Road S","city":"Brampton","state":"ON","postal_code":"L6W 3C9","latitude":43.6945685,"longitude":-79.7491965,"stars":2.5,"review_count":11,"is_open":1,"categories":"Barbeque, Restaurants, Chicken Wings"}
{"business_id":"hMCj-Rhmj-bj0O4dx7qrtQ","name":"Les Étoffes","address":"5253 Boul. Saint-Laurent","city":"Montréal","state":"QC","postal_code":"H2T 1S4","latitude":45.5245262,"longitude":-73.5954736,"stars":4.5,"review_count":10,"is_open":1,"categories":"Women's Clothing, Men's Clothing, Fashion, Shopping"}
{"business_id":"ZWd4vJSgHg1nk9BV9A2IUg","name":"DAVIDsTEA","address":"25 The West Mall, Unit 1786A","city":"Toronto","state":"ON","postal_code":"M9C 1B8","latitude":43.6117919,"longitude":-79.5570722,"stars":4.5,"review_count":8,"is_open":1,"categories":"Food, Tea Rooms, Coffee & Tea","hours":{"Friday":"10:0-21:0","Monday":"10:0-21:0","Saturday":"10:0-21:0","Sunday":"11:0-18:0","Thursday":"10:0-21:0","Tuesday":"10:0-21:0","Wednesday":"10:0-21:0"}}
{"business_id":"T9cAwl32OBgi0o8rQe8PJA","name":"Bite Dental","address":"106 Mutual Street, Unit 4","city":"Toronto","state":"ON","postal_code":"M5B 2R7","latitude":43.657288,"longitude":-79.37607,"stars":3.5,"review_count":31,"is_open":1,"categories":"Dentists, Health & Medical, Orthodontists, General Dentistry, Cosmetic Dentists","hours":{"Friday":"9:0-17:0","Monday":"9:0-18:0","Saturday":"9:0-15:0","Thursday":"11:0-20:0","Tuesday":"9:0-20:0","Wednesday":"11:0-20:0"}}
{"business_id":"y4OeYKJM65hXeFX0Wr6woA","name":"Sakura","address":"2170 Rue De La Montagne","city":"Montréal","state":"QC","postal_code":"H3G 1Z7","latitude":45.4992614,"longitude":-73.5780665,"stars":3.0,"review_count":4,"is_open":0,"categories":"Restaurants, Japanese"}
{"business_id":"G4TJIm3bho3Hb3K2usIo4Q","name":"Brooklyn Furniture Importers","address":"3742 Bathurst Street","city":"Toronto","state":"ON","postal_code":"M3H 3M4","latitude":43.7367236,"longitude":-79.4341663,"stars":3.0,"review_count":7,"is_open":1,"categories":"Baby Gear & Furniture, Shopping, Furniture Stores, Mattresses, Home & Garden"}
{"business_id":"iA-eiMJm-XS4LnQ3JtwaWA","name":"The Bike Shop","address":"801 11 Avenue SW","city":"Calgary","state":"AB","postal_code":"T2R 0E6","latitude":51.0426301,"longitude":-114.0794441,"stars":2.0,"review_count":21,"is_open":1,"categories":"Bike Repair/Maintenance, Sporting Goods, Local Services, Bikes, Shopping","hours":{"Friday":"12:0-21:0","Monday":"0:0-0:0","Saturday":"10:0-16:0","Sunday":"11:0-17:0","Thursday":"10:0-20:0","Tuesday":"10:0-19:0","Wednesday":"10:0-20:0"}}
{"business_id":"JOvklfPPZnwSgTop5uLvFA","name":"Zara","address":"220 Yonge St","city":"Toronto","state":"ON","postal_code":"M5B 2H1","latitude":43.6540644,"longitude":-79.3806966,"stars":2.0,"review_count":42,"is_open":1,"categories":"Fashion, Women's Clothing, Shopping, Men's Clothing"}
{"business_id":"N85CnSEx9Vv_PWAi_uJoCw","name":"St Mary's Cathedral","address":"219 18 Ave SW","city":"Calgary","state":"AB","postal_code":"T2S 0C2","latitude":51.0365447,"longitude":-114.0660905,"stars":5.0,"review_count":4,"is_open":1,"categories":"Churches, Event Planning & Services, Religious Organizations, Venues & Event Spaces"}
{"business_id":"EwPGhFYKqVxzXF6Ofu9Ghw","name":"Alcove","address":"5460 Chemin de la Côte-des-Neiges","city":"Montréal","state":"QC","postal_code":"H3T 1Y7","latitude":45.4968878,"longitude":-73.6240884,"stars":3.5,"review_count":5,"is_open":1,"categories":"Burgers, Restaurants, Gastropubs","hours":{"Friday":"11:30-23:30","Monday":"11:30-22:0","Saturday":"12:30-23:0","Sunday":"12:30-22:0","Thursday":"11:30-23:0","Tuesday":"11:30-22:0","Wednesday":"11:30-22:0"}}
{"business_id":"7zuWSun5F8Jv2N_IFD_ERg","name":"Grappa Ristorante","address":"797 College Street","city":"Toronto","state":"ON","postal_code":"M6G 1C7","latitude":43.6547102687,"longitude":-79.4208085465,"stars":3.5,"review_count":9,"is_open":0,"categories":"Italian, Restaurants","hours":{"Friday":"17:0-23:0","Saturday":"17:0-23:0","Sunday":"17:0-23:0","Thursday":"17:0-23:0","Tuesday":"17:0-23:0","Wednesday":"17:0-23:0"}}
